{"name": "GRAND COURONNE", "type": "\u041f\u043e\u0440\u0442", "size": "\u041c\u0430\u043b\u0435\u043d\u044c\u043a\u0438\u0439", "UN_LOCODE": "FRGRC", "country": "[FR] France", "longitude": 0.99268, "latitude": 49.36135, "link": "https://www.myshiptracking.com//ru/ports/port-of-grand-couronne-in-fr-france-id-1851"},
{"name": "GRAND HAVEN", "type": "\u041f\u043e\u0440\u0442", "size": "\u041c\u0430\u043b\u0435\u043d\u044c\u043a\u0438\u0439", "UN_LOCODE": "USGHN", "country": "[US] USA", "longitude": -86.22468, "latitude": 43.07105, "link": "https://www.myshiptracking.com//ru/ports/port-of-grand-haven-in-us-usa-id-6126"},
{"name": "GRAND MANAN", "type": "\u041f\u043e\u0440\u0442", "size": "\u041c\u0430\u043b\u0435\u043d\u044c\u043a\u0438\u0439", "UN_LOCODE": "CAGMA", "country": "[CA] Canada", "longitude": -66.74869, "latitude": 44.76049, "link": "https://www.myshiptracking.com//ru/ports/port-of-grand-manan-in-ca-canada-id-6520"},
{"name": "GRAND TURK", "type": "\u041f\u043e\u0440\u0442", "size": "\u041c\u0430\u043b\u0435\u043d\u044c\u043a\u0438\u0439", "UN_LOCODE": "TCGDT", "country": "[TC] Turks Caicos Is", "longitude": -71.14783, "latitude": 21.42968, "link": "https://www.myshiptracking.com//ru/ports/port-of-grand-turk-in-tc-turks-caicos-is-id-7042"},
{"name": "GRANDCAMP", "type": "\u041f\u043e\u0440\u0442", "size": "X\u041c\u0430\u043b\u044b\u0439", "UN_LOCODE": "FRGCP", "country": "[FR] France", "longitude": -1.04855, "latitude": 49.38828, "link": "https://www.myshiptracking.com//ru/ports/port-of-grandcamp-in-fr-france-id-1764"},
{"name": "GRANDE ANSE", "type": "\u041f\u043e\u0440\u0442", "size": "\u041c\u0430\u043b\u0435\u043d\u044c\u043a\u0438\u0439", "UN_LOCODE": "CAGAE", "country": "[CA] Canada", "longitude": -70.83105, "latitude": 48.40216, "link": "https://www.myshiptracking.com//ru/ports/port-of-grande-anse-in-ca-canada-id-6529"},
{"name": "GRANDE ISLAND", "type": "\u041f\u043e\u0440\u0442", "size": "\u0411\u043e\u043b\u044c\u0448\u043e\u0439", "UN_LOCODE": "---", "country": "[PH] Philippines", "longitude": 120.27707, "latitude": 14.81637, "link": "https://www.myshiptracking.com//ru/ports/port-of-grande-island-in-ph-philippines-id-5464"},
{"name": "GRANGEMOUTH", "type": "\u041f\u043e\u0440\u0442", "size": "\u041c\u0430\u043b\u0435\u043d\u044c\u043a\u0438\u0439", "UN_LOCODE": "GBGRG", "country": "[GB] United Kingdom", "longitude": -3.69856, "latitude": 56.0252, "link": "https://www.myshiptracking.com//ru/ports/port-of-grangemouth-in-gb-united-kingdom-id-379"},
{"name": "GRANNAGH", "type": "\u041f\u043e\u0440\u0442", "size": "X\u041c\u0430\u043b\u044b\u0439", "UN_LOCODE": "IEGNA", "country": "[IE] Ireland", "longitude": -7.16755, "latitude": 52.27655, "link": "https://www.myshiptracking.com//ru/ports/port-of-grannagh-in-ie-ireland-id-2475"},
{"name": "GRANTON", "type": "\u041f\u043e\u0440\u0442", "size": "\u041c\u0430\u043b\u0435\u043d\u044c\u043a\u0438\u0439", "UN_LOCODE": "GBGRN", "country": "[GB] United Kingdom", "longitude": -3.22301, "latitude": 55.98662, "link": "https://www.myshiptracking.com//ru/ports/port-of-granton-in-gb-united-kingdom-id-2387"},
{"name": "GRANVILLE", "type": "\u041f\u043e\u0440\u0442", "size": "\u041c\u0430\u043b\u0435\u043d\u044c\u043a\u0438\u0439", "UN_LOCODE": "FRGFR", "country": "[FR] France", "longitude": -1.60172, "latitude": 48.83128, "link": "https://www.myshiptracking.com//ru/ports/port-of-granville-in-fr-france-id-1733"},
{"name": "GRANZ", "type": "\u0413\u0430\u0432\u0430\u043d\u044c", "size": "X\u041c\u0430\u043b\u044b\u0439", "UN_LOCODE": "ATGNZ", "country": "[AT] Austria", "longitude": 15.14409, "latitude": 48.21366, "link": "https://www.myshiptracking.com//ru/ports/marina-of-granz-in-at-austria-id-5740"},
{"name": "GRASO", "type": "\u041f\u043e\u0440\u0442", "size": "X\u041c\u0430\u043b\u044b\u0439", "UN_LOCODE": "SEGR2", "country": "[SE] Sweden", "longitude": 18.46176, "latitude": 60.34584, "link": "https://www.myshiptracking.com//ru/ports/port-of-graso-in-se-sweden-id-2196"},
{"name": "GRAVE", "type": "\u041f\u043e\u0440\u0442", "size": "\u041c\u0430\u043b\u0435\u043d\u044c\u043a\u0438\u0439", "UN_LOCODE": "NLGAV", "country": "[NL] Netherlands", "longitude": 5.73816, "latitude": 51.75922, "link": "https://www.myshiptracking.com//ru/ports/port-of-grave-in-nl-netherlands-id-1179"},
{"name": "GRAVESEND", "type": "\u041f\u043e\u0440\u0442", "size": "\u041c\u0430\u043b\u0435\u043d\u044c\u043a\u0438\u0439", "UN_LOCODE": "GBGVS", "country": "[GB] United Kingdom", "longitude": 0.37763, "latitude": 51.44503, "link": "https://www.myshiptracking.com//ru/ports/port-of-gravesend-in-gb-united-kingdom-id-1610"},
{"name": "GREAKER", "type": "\u041f\u043e\u0440\u0442", "size": "\u041c\u0430\u043b\u0435\u043d\u044c\u043a\u0438\u0439", "UN_LOCODE": "NOGRE", "country": "[NO] Norway", "longitude": 11.03219, "latitude": 59.26303, "link": "https://www.myshiptracking.com//ru/ports/port-of-greaker-in-no-norway-id-5182"},
{"name": "GREAT LAKES", "type": "\u041f\u043e\u0440\u0442", "size": "\u041c\u0430\u043b\u0435\u043d\u044c\u043a\u0438\u0439", "UN_LOCODE": "USGRL", "country": "[US] USA", "longitude": -87.82915, "latitude": 42.30703, "link": "https://www.myshiptracking.com//ru/ports/port-of-great-lakes-in-us-usa-id-5998"},
{"name": "GREAT YARMOUTH", "type": "\u041f\u043e\u0440\u0442", "size": "\u0421\u0440\u0435\u0434\u043d\u0438\u0439", "UN_LOCODE": "GBGTY", "country": "[GB] United Kingdom", "longitude": 1.72692, "latitude": 52.5916, "link": "https://www.myshiptracking.com//ru/ports/port-of-great-yarmouth-in-gb-united-kingdom-id-337"},
{"name": "GREATER TUNB", "type": "\u041f\u043e\u0440\u0442", "size": "\u041c\u0430\u043b\u0435\u043d\u044c\u043a\u0438\u0439", "UN_LOCODE": "---", "country": "[IR] Iran", "longitude": 55.32494, "latitude": 26.26481, "link": "https://www.myshiptracking.com//ru/ports/port-of-greater-tunb-in-ir-iran-id-3606"},
{"name": "GREEN BAY", "type": "\u041f\u043e\u0440\u0442", "size": "\u0411\u043e\u043b\u044c\u0448\u043e\u0439", "UN_LOCODE": "USGRB", "country": "[US] USA", "longitude": -88.01731, "latitude": 44.51674, "link": "https://www.myshiptracking.com//ru/ports/port-of-green-bay-in-us-usa-id-6295"},
{"name": "GREENCASTLE", "type": "\u041f\u043e\u0440\u0442", "size": "X\u041c\u0430\u043b\u044b\u0439", "UN_LOCODE": "IEGNC", "country": "[IE] Ireland", "longitude": -6.98486, "latitude": 55.2025, "link": "https://www.myshiptracking.com//ru/ports/port-of-greencastle-in-ie-ireland-id-2497"},
{"name": "GREENCASTLE", "type": "\u041f\u043e\u0440\u0442", "size": "\u041c\u0430\u043b\u0435\u043d\u044c\u043a\u0438\u0439", "UN_LOCODE": "GBGNC", "country": "[GB] United Kingdom", "longitude": -6.10119, "latitude": 54.03839, "link": "https://www.myshiptracking.com//ru/ports/port-of-greencastle-in-gb-united-kingdom-id-1615"},
{"name": "GREENOCK", "type": "\u041f\u043e\u0440\u0442", "size": "\u0421\u0440\u0435\u0434\u043d\u0438\u0439", "UN_LOCODE": "GBGRK", "country": "[GB] United Kingdom", "longitude": -4.74037, "latitude": 55.9499, "link": "https://www.myshiptracking.com//ru/ports/port-of-greenock-in-gb-united-kingdom-id-296"},
{"name": "GREENORE", "type": "\u041f\u043e\u0440\u0442", "size": "X\u041c\u0430\u043b\u044b\u0439", "UN_LOCODE": "IEGRN", "country": "[IE] Ireland", "longitude": -6.13208, "latitude": 54.0351, "link": "https://www.myshiptracking.com//ru/ports/port-of-greenore-in-ie-ireland-id-273"},
{"name": "GREETSIEL", "type": "\u041f\u043e\u0440\u0442", "size": "\u041c\u0430\u043b\u0435\u043d\u044c\u043a\u0438\u0439", "UN_LOCODE": "DEGRE", "country": "[DE] Germany", "longitude": 7.10384, "latitude": 53.50481, "link": "https://www.myshiptracking.com//ru/ports/port-of-greetsiel-in-de-germany-id-1380"},
{"name": "GRENAA", "type": "\u041f\u043e\u0440\u0442", "size": "\u041c\u0430\u043b\u0435\u043d\u044c\u043a\u0438\u0439", "UN_LOCODE": "DKGRE", "country": "[DK] Denmark", "longitude": 10.9281, "latitude": 56.4128, "link": "https://www.myshiptracking.com//ru/ports/port-of-grenaa-in-dk-denmark-id-272"},
{"name": "GRENVILLE", "type": "\u041f\u043e\u0440\u0442", "size": "X\u041c\u0430\u043b\u044b\u0439", "UN_LOCODE": "GDGRE", "country": "[GD] Grenada", "longitude": -61.62022, "latitude": 12.12253, "link": "https://www.myshiptracking.com//ru/ports/port-of-grenville-in-gd-grenada-id-7046"},
{"name": "GRESIK", "type": "\u041f\u043e\u0440\u0442", "size": "X\u0411\u043e\u043b\u044c\u0449\u043e\u0439", "UN_LOCODE": "IDGRE", "country": "[ID] Indonesia", "longitude": 112.66083, "latitude": -7.1382, "link": "https://www.myshiptracking.com//ru/ports/port-of-gresik-in-id-indonesia-id-3800"},
{"name": "GREY RIVER", "type": "\u041f\u043e\u0440\u0442", "size": "X\u041c\u0430\u043b\u044b\u0439", "UN_LOCODE": "---", "country": "[CA] Canada", "longitude": -57.10097, "latitude": 47.58836, "link": "https://www.myshiptracking.com//ru/ports/port-of-grey-river-in-ca-canada-id-6453"},
{"name": "GREYMOUTH", "type": "\u041f\u043e\u0440\u0442", "size": "\u041c\u0430\u043b\u0435\u043d\u044c\u043a\u0438\u0439", "UN_LOCODE": "NZGMN", "country": "[NZ] New Zealand", "longitude": 171.20325, "latitude": -42.44516, "link": "https://www.myshiptracking.com//ru/ports/port-of-greymouth-in-nz-new-zealand-id-4048"},
{"name": "GREYSTONES", "type": "\u041f\u043e\u0440\u0442", "size": "X\u041c\u0430\u043b\u044b\u0439", "UN_LOCODE": "IEGRY", "country": "[IE] Ireland", "longitude": -6.0649, "latitude": 53.1513, "link": "https://www.myshiptracking.com//ru/ports/port-of-greystones-in-ie-ireland-id-2499"},
{"name": "GRIEFSWALD GRISTOW C", "type": "\u0413\u0430\u0432\u0430\u043d\u044c", "size": "X\u041c\u0430\u043b\u044b\u0439", "UN_LOCODE": "---", "country": "[DE] Germany", "longitude": 13.33283, "latitude": 54.17068, "link": "https://www.myshiptracking.com//ru/ports/marina-of-griefswald-gristow-c-in-de-germany-id-1315"},
{"name": "GRIESHEIM", "type": "\u041f\u043e\u0440\u0442", "size": "X\u041c\u0430\u043b\u044b\u0439", "UN_LOCODE": "DEFAG", "country": "[DE] Germany", "longitude": 8.60558, "latitude": 50.08991, "link": "https://www.myshiptracking.com//ru/ports/port-of-griesheim-in-de-germany-id-1287"},
{"name": "GRIETH", "type": "\u041f\u043e\u0440\u0442", "size": "\u041c\u0430\u043b\u0435\u043d\u044c\u043a\u0438\u0439", "UN_LOCODE": "DEITH", "country": "[DE] Germany", "longitude": 6.31914, "latitude": 51.78751, "link": "https://www.myshiptracking.com//ru/ports/port-of-grieth-in-de-germany-id-2559"},
{"name": "GRIMSBY", "type": "\u041f\u043e\u0440\u0442", "size": "\u041c\u0430\u043b\u0435\u043d\u044c\u043a\u0438\u0439", "UN_LOCODE": "GBGSY", "country": "[GB] United Kingdom", "longitude": -0.06824, "latitude": 53.5786, "link": "https://www.myshiptracking.com//ru/ports/port-of-grimsby-in-gb-united-kingdom-id-260"},
{"name": "GRIMSEY", "type": "\u041f\u043e\u0440\u0442", "size": "X\u041c\u0430\u043b\u044b\u0439", "UN_LOCODE": "ISGRY", "country": "[IS] Iceland", "longitude": -18.01398, "latitude": 66.53775, "link": "https://www.myshiptracking.com//ru/ports/port-of-grimsey-in-is-iceland-id-5581"},
{"name": "GRIMSTAD", "type": "\u041f\u043e\u0440\u0442", "size": "\u041c\u0430\u043b\u0435\u043d\u044c\u043a\u0438\u0439", "UN_LOCODE": "NOGTD", "country": "[NO] Norway", "longitude": 8.59734, "latitude": 58.33811, "link": "https://www.myshiptracking.com//ru/ports/port-of-grimstad-in-no-norway-id-5143"},
{"name": "GRINDAVIK", "type": "\u041f\u043e\u0440\u0442", "size": "\u041c\u0430\u043b\u0435\u043d\u044c\u043a\u0438\u0439", "UN_LOCODE": "ISGRI", "country": "[IS] Iceland", "longitude": -22.42731, "latitude": 63.83627, "link": "https://www.myshiptracking.com//ru/ports/port-of-grindavik-in-is-iceland-id-5583"},
{"name": "GROIKOS", "type": "\u0413\u0430\u0432\u0430\u043d\u044c", "size": "\u041c\u0430\u043b\u0435\u043d\u044c\u043a\u0438\u0439", "UN_LOCODE": "---", "country": "[GR] Greece", "longitude": 26.56275, "latitude": 37.30019, "link": "https://www.myshiptracking.com//ru/ports/marina-of-groikos-in-gr-greece-id-608"},
{"name": "GROIX", "type": "\u041f\u043e\u0440\u0442", "size": "X\u041c\u0430\u043b\u044b\u0439", "UN_LOCODE": "FRG2X", "country": "[FR] France", "longitude": -3.44661, "latitude": 47.64448, "link": "https://www.myshiptracking.com//ru/ports/port-of-groix-in-fr-france-id-1779"},
{"name": "GROMITZ", "type": "\u041f\u043e\u0440\u0442", "size": "\u041c\u0430\u043b\u0435\u043d\u044c\u043a\u0438\u0439", "UN_LOCODE": "DEGMZ", "country": "[DE] Germany", "longitude": 10.96102, "latitude": 54.13875, "link": "https://www.myshiptracking.com//ru/ports/port-of-gromitz-in-de-germany-id-1395"},
{"name": "GRONHOGEN", "type": "\u041f\u043e\u0440\u0442", "size": "\u041c\u0430\u043b\u0435\u043d\u044c\u043a\u0438\u0439", "UN_LOCODE": "SEGNG", "country": "[SE] Sweden", "longitude": 16.39519, "latitude": 56.26608, "link": "https://www.myshiptracking.com//ru/ports/port-of-gronhogen-in-se-sweden-id-2197"},
{"name": "GRONINGEN", "type": "\u041f\u043e\u0440\u0442", "size": "X\u0411\u043e\u043b\u044c\u0449\u043e\u0439", "UN_LOCODE": "NLGRQ", "country": "[NL] Netherlands", "longitude": 6.56757, "latitude": 53.21874, "link": "https://www.myshiptracking.com//ru/ports/port-of-groningen-in-nl-netherlands-id-1223"},
{"name": "GROOMSPORT", "type": "\u0413\u0430\u0432\u0430\u043d\u044c", "size": "X\u041c\u0430\u043b\u044b\u0439", "UN_LOCODE": "---", "country": "[GB] United Kingdom", "longitude": -5.61909, "latitude": 54.67766, "link": "https://www.myshiptracking.com//ru/ports/marina-of-groomsport-in-gb-united-kingdom-id-2465"},
{"name": "GROOT AMMERS", "type": "\u041f\u043e\u0440\u0442", "size": "\u041c\u0430\u043b\u0435\u043d\u044c\u043a\u0438\u0439", "UN_LOCODE": "NLGRO", "country": "[NL] Netherlands", "longitude": 4.81416, "latitude": 51.92486, "link": "https://www.myshiptracking.com//ru/ports/port-of-groot-ammers-in-nl-netherlands-id-1486"},
{"name": "GROSSAUHEIM", "type": "\u041f\u043e\u0440\u0442", "size": "\u041c\u0430\u043b\u0435\u043d\u044c\u043a\u0438\u0439", "UN_LOCODE": "DEGSS", "country": "[DE] Germany", "longitude": 8.94496, "latitude": 50.08692, "link": "https://www.myshiptracking.com//ru/ports/port-of-grossauheim-in-de-germany-id-1386"},
{"name": "GROSSENSIEL", "type": "\u041f\u043e\u0440\u0442", "size": "\u041c\u0430\u043b\u0435\u043d\u044c\u043a\u0438\u0439", "UN_LOCODE": "DEGSI", "country": "[DE] Germany", "longitude": 8.48265, "latitude": 53.46648, "link": "https://www.myshiptracking.com//ru/ports/port-of-grossensiel-in-de-germany-id-2576"},
{"name": "GROSSKROTZENBURG", "type": "\u041f\u043e\u0440\u0442", "size": "X\u041c\u0430\u043b\u044b\u0439", "UN_LOCODE": "DEGKG", "country": "[DE] Germany", "longitude": 8.96293, "latitude": 50.07971, "link": "https://www.myshiptracking.com//ru/ports/port-of-grosskrotzenburg-in-de-germany-id-1420"},
{"name": "GROTO", "type": "\u041f\u043e\u0440\u0442", "size": "X\u041c\u0430\u043b\u044b\u0439", "UN_LOCODE": "SEGOO", "country": "[SE] Sweden", "longitude": 11.68688, "latitude": 57.69473, "link": "https://www.myshiptracking.com//ru/ports/port-of-groto-in-se-sweden-id-2180"},
{"name": "GROU", "type": "\u041f\u043e\u0440\u0442", "size": "\u041c\u0430\u043b\u0435\u043d\u044c\u043a\u0438\u0439", "UN_LOCODE": "NLGRU", "country": "[NL] Netherlands", "longitude": 5.84048, "latitude": 53.09752, "link": "https://www.myshiptracking.com//ru/ports/port-of-grou-in-nl-netherlands-id-1091"},
