{"name": "FIUMICINO", "type": "\u041f\u043e\u0440\u0442", "size": "\u0411\u043e\u043b\u044c\u0448\u043e\u0439", "UN_LOCODE": "ITFCO", "country": "[IT] Italy", "longitude": 12.21926, "latitude": 41.76743, "link": "https://www.myshiptracking.com//ru/ports/port-of-fiumicino-in-it-italy-id-2076"},
{"name": "FJALLBACKA", "type": "\u041f\u043e\u0440\u0442", "size": "\u0421\u0440\u0435\u0434\u043d\u0438\u0439", "UN_LOCODE": "SEFJA", "country": "[SE] Sweden", "longitude": 11.27814, "latitude": 58.5995, "link": "https://www.myshiptracking.com//ru/ports/port-of-fjallbacka-in-se-sweden-id-2253"},
{"name": "FLAM", "type": "\u041f\u043e\u0440\u0442", "size": "\u041c\u0430\u043b\u0435\u043d\u044c\u043a\u0438\u0439", "UN_LOCODE": "NOFLA", "country": "[NO] Norway", "longitude": 7.1237, "latitude": 60.864, "link": "https://www.myshiptracking.com//ru/ports/port-of-flam-in-no-norway-id-5198"},
{"name": "FLAMINGO", "type": "\u041f\u043e\u0440\u0442", "size": "X\u041c\u0430\u043b\u044b\u0439", "UN_LOCODE": "CRFMG", "country": "[CR] Costa Rica", "longitude": -85.78682, "latitude": 10.43987, "link": "https://www.myshiptracking.com//ru/ports/port-of-flamingo-in-cr-costa-rica-id-6978"},
{"name": "FLATEYRI", "type": "\u041f\u043e\u0440\u0442", "size": "X\u041c\u0430\u043b\u044b\u0439", "UN_LOCODE": "ISFLA", "country": "[IS] Iceland", "longitude": -23.50634, "latitude": 66.04797, "link": "https://www.myshiptracking.com//ru/ports/port-of-flateyri-in-is-iceland-id-5594"},
{"name": "FLATOY", "type": "\u041f\u043e\u0440\u0442", "size": "X\u041c\u0430\u043b\u044b\u0439", "UN_LOCODE": "NOFAY", "country": "[NO] Norway", "longitude": 5.25336, "latitude": 60.53455, "link": "https://www.myshiptracking.com//ru/ports/port-of-flatoy-in-no-norway-id-5100"},
{"name": "FLEETWOOD", "type": "\u041f\u043e\u0440\u0442", "size": "\u041c\u0430\u043b\u0435\u043d\u044c\u043a\u0438\u0439", "UN_LOCODE": "GBFLE", "country": "[GB] United Kingdom", "longitude": -3.01096, "latitude": 53.9175, "link": "https://www.myshiptracking.com//ru/ports/port-of-fleetwood-in-gb-united-kingdom-id-1695"},
{"name": "FLEKKEFJORD", "type": "\u041f\u043e\u0440\u0442", "size": "\u041c\u0430\u043b\u0435\u043d\u044c\u043a\u0438\u0439", "UN_LOCODE": "NOFFD", "country": "[NO] Norway", "longitude": 6.65563, "latitude": 58.29197, "link": "https://www.myshiptracking.com//ru/ports/port-of-flekkefjord-in-no-norway-id-5091"},
{"name": "FLENSBURG", "type": "\u041f\u043e\u0440\u0442", "size": "\u041c\u0430\u043b\u0435\u043d\u044c\u043a\u0438\u0439", "UN_LOCODE": "DEFLF", "country": "[DE] Germany", "longitude": 9.43379, "latitude": 54.7996, "link": "https://www.myshiptracking.com//ru/ports/port-of-flensburg-in-de-germany-id-168"},
{"name": "FLESNES", "type": "\u041f\u043e\u0440\u0442", "size": "X\u041c\u0430\u043b\u044b\u0439", "UN_LOCODE": "---", "country": "[NO] Norway", "longitude": 15.92062, "latitude": 68.67318, "link": "https://www.myshiptracking.com//ru/ports/port-of-flesnes-in-no-norway-id-5168"},
{"name": "FLEVO MARINA", "type": "\u0413\u0430\u0432\u0430\u043d\u044c", "size": "X\u041c\u0430\u043b\u044b\u0439", "UN_LOCODE": "---", "country": "[NL] Netherlands", "longitude": 5.45917, "latitude": 52.55298, "link": "https://www.myshiptracking.com//ru/ports/marina-of-flevo-marina-in-nl-netherlands-id-932"},
{"name": "FLEVOSTRAND", "type": "\u0413\u0430\u0432\u0430\u043d\u044c", "size": "X\u041c\u0430\u043b\u044b\u0439", "UN_LOCODE": "---", "country": "[NL] Netherlands", "longitude": 5.63607, "latitude": 52.38372, "link": "https://www.myshiptracking.com//ru/ports/marina-of-flevostrand-in-nl-netherlands-id-1210"},
{"name": "FLINDERS", "type": "\u041f\u043e\u0440\u0442", "size": "\u041c\u0430\u043b\u0435\u043d\u044c\u043a\u0438\u0439", "UN_LOCODE": "AUFIT", "country": "[AU] Australia", "longitude": 145.02781, "latitude": -38.47514, "link": "https://www.myshiptracking.com//ru/ports/port-of-flinders-in-au-australia-id-3958"},
{"name": "FLINDERS ISLAND", "type": "\u041f\u043e\u0440\u0442", "size": "\u0411\u043e\u043b\u044c\u0448\u043e\u0439", "UN_LOCODE": "AUFLS", "country": "[AU] Australia", "longitude": 148.24404, "latitude": -40.2164, "link": "https://www.myshiptracking.com//ru/ports/port-of-flinders-island-in-au-australia-id-3865"},
{"name": "FLISVOS", "type": "\u0413\u0430\u0432\u0430\u043d\u044c", "size": "\u041c\u0430\u043b\u0435\u043d\u044c\u043a\u0438\u0439", "UN_LOCODE": "---", "country": "[GR] Greece", "longitude": 23.6831, "latitude": 37.9345, "link": "https://www.myshiptracking.com//ru/ports/marina-of-flisvos-in-gr-greece-id-169"},
{"name": "FLIXBOROUGH", "type": "\u041f\u043e\u0440\u0442", "size": "\u041c\u0430\u043b\u0435\u043d\u044c\u043a\u0438\u0439", "UN_LOCODE": "GBFLX", "country": "[GB] United Kingdom", "longitude": -0.70209, "latitude": 53.6191, "link": "https://www.myshiptracking.com//ru/ports/port-of-flixborough-in-gb-united-kingdom-id-2460"},
{"name": "FLORO", "type": "\u041f\u043e\u0440\u0442", "size": "\u041c\u0430\u043b\u0435\u043d\u044c\u043a\u0438\u0439", "UN_LOCODE": "NOFRO", "country": "[NO] Norway", "longitude": 5.02985, "latitude": 61.60221, "link": "https://www.myshiptracking.com//ru/ports/port-of-floro-in-no-norway-id-170"},
{"name": "FLORVAG", "type": "\u041f\u043e\u0440\u0442", "size": "\u041c\u0430\u043b\u0435\u043d\u044c\u043a\u0438\u0439", "UN_LOCODE": "NOFLO", "country": "[NO] Norway", "longitude": 5.24287, "latitude": 60.41284, "link": "https://www.myshiptracking.com//ru/ports/port-of-florvag-in-no-norway-id-5223"},
{"name": "FLOTTA", "type": "\u041f\u043e\u0440\u0442", "size": "\u041c\u0430\u043b\u0435\u043d\u044c\u043a\u0438\u0439", "UN_LOCODE": "GBFLH", "country": "[GB] United Kingdom", "longitude": -3.13265, "latitude": 58.83872, "link": "https://www.myshiptracking.com//ru/ports/port-of-flotta-in-gb-united-kingdom-id-1664"},
