{"name": "VENTURA", "type": "\u041f\u043e\u0440\u0442", "size": "\u0421\u0440\u0435\u0434\u043d\u0438\u0439", "UN_LOCODE": "USVNT", "country": "[US] USA", "longitude": -119.26752, "latitude": 34.2498, "link": "https://www.myshiptracking.com//ru/ports/port-of-ventura-in-us-usa-id-6360"},
{"name": "VENTURA PIER", "type": "\u041f\u043e\u0440\u0442", "size": "\u041c\u0430\u043b\u0435\u043d\u044c\u043a\u0438\u0439", "UN_LOCODE": "---", "country": "[US] USA", "longitude": -119.29313, "latitude": 34.27171, "link": "https://www.myshiptracking.com//ru/ports/port-of-ventura-pier-in-us-usa-id-6211"},
{"name": "VERACRUZ", "type": "\u041f\u043e\u0440\u0442", "size": "\u0421\u0440\u0435\u0434\u043d\u0438\u0439", "UN_LOCODE": "MXVER", "country": "[MX] Mexico", "longitude": -96.12562, "latitude": 19.20287, "link": "https://www.myshiptracking.com//ru/ports/port-of-veracruz-in-mx-mexico-id-6569"},
{"name": "VERAVAL", "type": "\u041f\u043e\u0440\u0442", "size": "\u0421\u0440\u0435\u0434\u043d\u0438\u0439", "UN_LOCODE": "INVVA", "country": "[IN] India", "longitude": 70.37318, "latitude": 20.9003, "link": "https://www.myshiptracking.com//ru/ports/port-of-veraval-in-in-india-id-3647"},
{"name": "VERDAL", "type": "\u041f\u043e\u0440\u0442", "size": "\u0421\u0440\u0435\u0434\u043d\u0438\u0439", "UN_LOCODE": "NOVER", "country": "[NO] Norway", "longitude": 11.4271, "latitude": 63.78992, "link": "https://www.myshiptracking.com//ru/ports/port-of-verdal-in-no-norway-id-5136"},
{"name": "VERDUN", "type": "\u041f\u043e\u0440\u0442", "size": "\u0411\u043e\u043b\u044c\u0448\u043e\u0439", "UN_LOCODE": "FRVRD", "country": "[FR] France", "longitude": 5.38706, "latitude": 49.16297, "link": "https://www.myshiptracking.com//ru/ports/port-of-verdun-in-fr-france-id-2644"},
{"name": "VERMILION", "type": "\u041f\u043e\u0440\u0442", "size": "X\u041c\u0430\u043b\u044b\u0439", "UN_LOCODE": "---", "country": "[US] USA", "longitude": -92.11566, "latitude": 29.89433, "link": "https://www.myshiptracking.com//ru/ports/port-of-vermilion-in-us-usa-id-6366"},
{"name": "VERNON", "type": "\u041f\u043e\u0440\u0442", "size": "X\u041c\u0430\u043b\u044b\u0439", "UN_LOCODE": "FRVRN", "country": "[FR] France", "longitude": 1.48712, "latitude": 49.09731, "link": "https://www.myshiptracking.com//ru/ports/port-of-vernon-in-fr-france-id-1775"},
{"name": "VESTEROE", "type": "\u041f\u043e\u0440\u0442", "size": "X\u041c\u0430\u043b\u044b\u0439", "UN_LOCODE": "DKVES", "country": "[DK] Denmark", "longitude": 10.92251, "latitude": 57.29765, "link": "https://www.myshiptracking.com//ru/ports/port-of-vesteroe-in-dk-denmark-id-2602"},
{"name": "VESTMANNA", "type": "\u041f\u043e\u0440\u0442", "size": "\u041c\u0430\u043b\u0435\u043d\u044c\u043a\u0438\u0439", "UN_LOCODE": "FOVES", "country": "[FO] Faroe Is", "longitude": -7.1656, "latitude": 62.14992, "link": "https://www.myshiptracking.com//ru/ports/port-of-vestmanna-in-fo-faroe-is-id-5703"},
{"name": "VESTMANNAEYJAR", "type": "\u041f\u043e\u0440\u0442", "size": "\u041c\u0430\u043b\u0435\u043d\u044c\u043a\u0438\u0439", "UN_LOCODE": "ISVES", "country": "[IS] Iceland", "longitude": -20.26325, "latitude": 63.44558, "link": "https://www.myshiptracking.com//ru/ports/port-of-vestmannaeyjar-in-is-iceland-id-5598"},
{"name": "VESTNES", "type": "\u041f\u043e\u0440\u0442", "size": "X\u041c\u0430\u043b\u044b\u0439", "UN_LOCODE": "NOVST", "country": "[NO] Norway", "longitude": 7.09541, "latitude": 62.62267, "link": "https://www.myshiptracking.com//ru/ports/port-of-vestnes-in-no-norway-id-5046"},
{"name": "VESTRE BOKN", "type": "\u041f\u043e\u0440\u0442", "size": "\u041c\u0430\u043b\u0435\u043d\u044c\u043a\u0438\u0439", "UN_LOCODE": "NOBOK", "country": "[NO] Norway", "longitude": 5.45867, "latitude": 59.22102, "link": "https://www.myshiptracking.com//ru/ports/port-of-vestre-bokn-in-no-norway-id-5153"},
{"name": "VESUVIUS (BC)", "type": "\u041f\u043e\u0440\u0442", "size": "\u041c\u0430\u043b\u0435\u043d\u044c\u043a\u0438\u0439", "UN_LOCODE": "---", "country": "[CA] Canada", "longitude": -123.57483, "latitude": 48.88205, "link": "https://www.myshiptracking.com//ru/ports/port-of-vesuvius-bc-in-ca-canada-id-6512"},
{"name": "VETTNET", "type": "\u041f\u043e\u0440\u0442", "size": "X\u041c\u0430\u043b\u044b\u0439", "UN_LOCODE": "SEVNK", "country": "[SE] Sweden", "longitude": 11.02135, "latitude": 58.90318, "link": "https://www.myshiptracking.com//ru/ports/port-of-vettnet-in-se-sweden-id-5351"},
{"name": "VIANA DO CASTELO", "type": "\u041f\u043e\u0440\u0442", "size": "\u0411\u043e\u043b\u044c\u0448\u043e\u0439", "UN_LOCODE": "PTVDC", "country": "[PT] Portugal", "longitude": -8.83267, "latitude": 41.68635, "link": "https://www.myshiptracking.com//ru/ports/port-of-viana-do-castelo-in-pt-portugal-id-2726"},
{"name": "VIANEN", "type": "\u041f\u043e\u0440\u0442", "size": "\u041c\u0430\u043b\u0435\u043d\u044c\u043a\u0438\u0439", "UN_LOCODE": "NLVAN", "country": "[NL] Netherlands", "longitude": 5.09759, "latitude": 51.99145, "link": "https://www.myshiptracking.com//ru/ports/port-of-vianen-in-nl-netherlands-id-1094"},
{"name": "VIAREGGIO", "type": "\u041f\u043e\u0440\u0442", "size": "\u041c\u0430\u043b\u0435\u043d\u044c\u043a\u0438\u0439", "UN_LOCODE": "ITVIA", "country": "[IT] Italy", "longitude": 10.23897, "latitude": 43.86074, "link": "https://www.myshiptracking.com//ru/ports/port-of-viareggio-in-it-italy-id-2042"},
{"name": "VICKSBURG", "type": "\u041f\u043e\u0440\u0442", "size": "\u0411\u043e\u043b\u044c\u0448\u043e\u0439", "UN_LOCODE": "USVKS", "country": "[US] USA", "longitude": -90.88843, "latitude": 32.38659, "link": "https://www.myshiptracking.com//ru/ports/port-of-vicksburg-in-us-usa-id-6163"},
{"name": "VICTORIA", "type": "\u041f\u043e\u0440\u0442", "size": "\u0421\u0440\u0435\u0434\u043d\u0438\u0439", "UN_LOCODE": "CAVIC", "country": "[CA] Canada", "longitude": -123.37323, "latitude": 48.42395, "link": "https://www.myshiptracking.com//ru/ports/port-of-victoria-in-ca-canada-id-6439"},
{"name": "VICTORIA POINT", "type": "\u041f\u043e\u0440\u0442", "size": "X\u041c\u0430\u043b\u044b\u0439", "UN_LOCODE": "---", "country": "[AU] Australia", "longitude": 153.31885, "latitude": -27.5815, "link": "https://www.myshiptracking.com//ru/ports/port-of-victoria-point-in-au-australia-id-3819"},
{"name": "VIDEBERGSHAMN", "type": "\u041f\u043e\u0440\u0442", "size": "X\u041c\u0430\u043b\u044b\u0439", "UN_LOCODE": "SEVID", "country": "[SE] Sweden", "longitude": 12.11074, "latitude": 57.24953, "link": "https://www.myshiptracking.com//ru/ports/port-of-videbergshamn-in-se-sweden-id-2234"},
{"name": "VIDIN", "type": "\u041f\u043e\u0440\u0442", "size": "\u041c\u0430\u043b\u0435\u043d\u044c\u043a\u0438\u0439", "UN_LOCODE": "BGVID", "country": "[BG] Bulgaria", "longitude": 22.88005, "latitude": 43.98431, "link": "https://www.myshiptracking.com//ru/ports/port-of-vidin-in-bg-bulgaria-id-2893"},
{"name": "VIDLIN", "type": "\u041f\u043e\u0440\u0442", "size": "\u041c\u0430\u043b\u0435\u043d\u044c\u043a\u0438\u0439", "UN_LOCODE": "GBVID", "country": "[GB] United Kingdom", "longitude": -1.1282, "latitude": 60.37173, "link": "https://www.myshiptracking.com//ru/ports/port-of-vidlin-in-gb-united-kingdom-id-1533"},
{"name": "VIDRADNE", "type": "\u041f\u043e\u0440\u0442", "size": "\u041c\u0430\u043b\u0435\u043d\u044c\u043a\u0438\u0439", "UN_LOCODE": "---", "country": "[UA] Ukraine", "longitude": 34.20197, "latitude": 44.49855, "link": "https://www.myshiptracking.com//ru/ports/port-of-vidradne-in-ua-ukraine-id-2940"},
{"name": "VIEDMA", "type": "\u041f\u043e\u0440\u0442", "size": "\u0421\u0440\u0435\u0434\u043d\u0438\u0439", "UN_LOCODE": "ARVDM", "country": "[AR] Argentina", "longitude": -62.98944, "latitude": -40.8028, "link": "https://www.myshiptracking.com//ru/ports/port-of-viedma-in-ar-argentina-id-6807"},
{"name": "VIENNA (MD)", "type": "\u041f\u043e\u0440\u0442", "size": "\u041c\u0430\u043b\u0435\u043d\u044c\u043a\u0438\u0439", "UN_LOCODE": "USVMD", "country": "[US] USA", "longitude": -75.82141, "latitude": 38.48443, "link": "https://www.myshiptracking.com//ru/ports/port-of-vienna-md-in-us-usa-id-5969"},
{"name": "VIEQUES", "type": "\u041f\u043e\u0440\u0442", "size": "\u041c\u0430\u043b\u0435\u043d\u044c\u043a\u0438\u0439", "UN_LOCODE": "PRVQS", "country": "[PR] Puerto Rico", "longitude": -65.44473, "latitude": 18.152, "link": "https://www.myshiptracking.com//ru/ports/port-of-vieques-in-pr-puerto-rico-id-7180"},
{"name": "VIESTE", "type": "\u041f\u043e\u0440\u0442", "size": "\u041c\u0430\u043b\u0435\u043d\u044c\u043a\u0438\u0439", "UN_LOCODE": "ITVIE", "country": "[IT] Italy", "longitude": 16.18238, "latitude": 41.88825, "link": "https://www.myshiptracking.com//ru/ports/port-of-vieste-in-it-italy-id-2754"},
{"name": "VIEUX BOURG", "type": "\u041f\u043e\u0440\u0442", "size": "X\u041c\u0430\u043b\u044b\u0439", "UN_LOCODE": "---", "country": "[GP] Guadeloupe", "longitude": -61.51023, "latitude": 16.34343, "link": "https://www.myshiptracking.com//ru/ports/port-of-vieux-bourg-in-gp-guadeloupe-id-6984"},
{"name": "VIEUX FORT", "type": "\u041f\u043e\u0440\u0442", "size": "\u041c\u0430\u043b\u0435\u043d\u044c\u043a\u0438\u0439", "UN_LOCODE": "LCVIF", "country": "[LC] St Lucia", "longitude": -60.95485, "latitude": 13.72162, "link": "https://www.myshiptracking.com//ru/ports/port-of-vieux-fort-in-lc-st-lucia-id-7176"},
{"name": "VIGO", "type": "\u041f\u043e\u0440\u0442", "size": "\u0411\u043e\u043b\u044c\u0448\u043e\u0439", "UN_LOCODE": "ESVGO", "country": "[ES] Spain", "longitude": -8.73801, "latitude": 42.2363, "link": "https://www.myshiptracking.com//ru/ports/port-of-vigo-in-es-spain-id-440"},
{"name": "VIJAYDURG", "type": "\u041f\u043e\u0440\u0442", "size": "X\u041c\u0430\u043b\u044b\u0439", "UN_LOCODE": "INVYD", "country": "[IN] India", "longitude": 73.33823, "latitude": 16.55634, "link": "https://www.myshiptracking.com//ru/ports/port-of-vijaydurg-in-in-india-id-3633"},
{"name": "VIKEDAL", "type": "\u041f\u043e\u0440\u0442", "size": "\u041c\u0430\u043b\u0435\u043d\u044c\u043a\u0438\u0439", "UN_LOCODE": "NOVIL", "country": "[NO] Norway", "longitude": 5.89531, "latitude": 59.49488, "link": "https://www.myshiptracking.com//ru/ports/port-of-vikedal-in-no-norway-id-5195"},
{"name": "VILA DO ABRAAO", "type": "\u041f\u043e\u0440\u0442", "size": "\u0421\u0440\u0435\u0434\u043d\u0438\u0439", "UN_LOCODE": "BRIGE", "country": "[BR] Brazil", "longitude": -44.16372, "latitude": -23.13641, "link": "https://www.myshiptracking.com//ru/ports/port-of-vila-do-abraao-in-br-brazil-id-6617"},
{"name": "VILA DO CONDE", "type": "\u041f\u043e\u0440\u0442", "size": "\u0411\u043e\u043b\u044c\u0448\u043e\u0439", "UN_LOCODE": "BRVLC", "country": "[BR] Brazil", "longitude": -48.75522, "latitude": -1.53192, "link": "https://www.myshiptracking.com//ru/ports/port-of-vila-do-conde-in-br-brazil-id-6706"},
{"name": "VILA REAL ST ANTONIO", "type": "\u041f\u043e\u0440\u0442", "size": "\u041c\u0430\u043b\u0435\u043d\u044c\u043a\u0438\u0439", "UN_LOCODE": "PTVRA", "country": "[PT] Portugal", "longitude": -7.41401, "latitude": 37.20116, "link": "https://www.myshiptracking.com//ru/ports/port-of-vila-real-st-antonio-in-pt-portugal-id-2717"},
{"name": "VILANOVA", "type": "\u041f\u043e\u0440\u0442", "size": "\u041c\u0430\u043b\u0435\u043d\u044c\u043a\u0438\u0439", "UN_LOCODE": "ESVLG", "country": "[ES] Spain", "longitude": 1.7331, "latitude": 41.2111, "link": "https://www.myshiptracking.com//ru/ports/port-of-vilanova-in-es-spain-id-1973"},
{"name": "VILARINHO", "type": "\u041f\u043e\u0440\u0442", "size": "\u041c\u0430\u043b\u0435\u043d\u044c\u043a\u0438\u0439", "UN_LOCODE": "PTVIH", "country": "[PT] Portugal", "longitude": -8.86926, "latitude": 41.81473, "link": "https://www.myshiptracking.com//ru/ports/port-of-vilarinho-in-pt-portugal-id-2716"},
{"name": "VILLA CONSTITUTION", "type": "\u041f\u043e\u0440\u0442", "size": "\u041c\u0430\u043b\u0435\u043d\u044c\u043a\u0438\u0439", "UN_LOCODE": "ARVCN", "country": "[AR] Argentina", "longitude": -60.31815, "latitude": -33.2265, "link": "https://www.myshiptracking.com//ru/ports/port-of-villa-constitution-in-ar-argentina-id-6783"},
{"name": "VILLA SAN GIOVANNI", "type": "\u041f\u043e\u0440\u0442", "size": "\u041c\u0430\u043b\u0435\u043d\u044c\u043a\u0438\u0439", "UN_LOCODE": "ITVSG", "country": "[IT] Italy", "longitude": 15.6313, "latitude": 38.2217, "link": "https://www.myshiptracking.com//ru/ports/port-of-villa-san-giovanni-in-it-italy-id-441"},
{"name": "VILLACARLOS", "type": "\u041f\u043e\u0440\u0442", "size": "X\u041c\u0430\u043b\u044b\u0439", "UN_LOCODE": "ESLCL", "country": "[ES] Spain", "longitude": 4.29079, "latitude": 39.8818, "link": "https://www.myshiptracking.com//ru/ports/port-of-villacarlos-in-es-spain-id-1901"},
{"name": "VILLAGARCIA", "type": "\u041f\u043e\u0440\u0442", "size": "\u041c\u0430\u043b\u0435\u043d\u044c\u043a\u0438\u0439", "UN_LOCODE": "ESVIL", "country": "[ES] Spain", "longitude": -8.77563, "latitude": 42.59991, "link": "https://www.myshiptracking.com//ru/ports/port-of-villagarcia-in-es-spain-id-1943"},
{"name": "VILLANUEVA", "type": "\u041f\u043e\u0440\u0442", "size": "\u041c\u0430\u043b\u0435\u043d\u044c\u043a\u0438\u0439", "UN_LOCODE": "PHVNV", "country": "[PH] Philippines", "longitude": 124.7589, "latitude": 8.5775, "link": "https://www.myshiptracking.com//ru/ports/port-of-villanueva-in-ph-philippines-id-5394"},
{"name": "VILLE POMMEROEUL", "type": "\u041f\u043e\u0440\u0442", "size": "\u041c\u0430\u043b\u0435\u043d\u044c\u043a\u0438\u0439", "UN_LOCODE": "BEPME", "country": "[BE] Belgium", "longitude": 3.70587, "latitude": 50.4712, "link": "https://www.myshiptracking.com//ru/ports/port-of-ville-pommeroeul-in-be-belgium-id-2518"},
{"name": "VILLEROT", "type": "\u041f\u043e\u0440\u0442", "size": "X\u041c\u0430\u043b\u044b\u0439", "UN_LOCODE": "BEVLO", "country": "[BE] Belgium", "longitude": 3.78037, "latitude": 50.47965, "link": "https://www.myshiptracking.com//ru/ports/port-of-villerot-in-be-belgium-id-2510"},
{"name": "VILLETA", "type": "\u041f\u043e\u0440\u0442", "size": "\u0411\u043e\u043b\u044c\u0448\u043e\u0439", "UN_LOCODE": "PYVLL", "country": "[PY] Paraguay", "longitude": -57.57297, "latitude": -25.49957, "link": "https://www.myshiptracking.com//ru/ports/port-of-villeta-in-py-paraguay-id-6997"},
{"name": "VINAROS", "type": "\u041f\u043e\u0440\u0442", "size": "\u041c\u0430\u043b\u0435\u043d\u044c\u043a\u0438\u0439", "UN_LOCODE": "---", "country": "[ES] Spain", "longitude": 0.47634, "latitude": 40.46251, "link": "https://www.myshiptracking.com//ru/ports/port-of-vinaros-in-es-spain-id-1977"},
{"name": "VINBRACKA", "type": "\u041f\u043e\u0440\u0442", "size": "\u041c\u0430\u043b\u0435\u043d\u044c\u043a\u0438\u0439", "UN_LOCODE": "SEVIB", "country": "[SE] Sweden", "longitude": 11.44828, "latitude": 58.36792, "link": "https://www.myshiptracking.com//ru/ports/port-of-vinbracka-in-se-sweden-id-2248"},
{"name": "VINEYARD HAVEN", "type": "\u041f\u043e\u0440\u0442", "size": "\u041c\u0430\u043b\u0435\u043d\u044c\u043a\u0438\u0439", "UN_LOCODE": "USVYH", "country": "[US] USA", "longitude": -70.59763, "latitude": 41.45687, "link": "https://www.myshiptracking.com//ru/ports/port-of-vineyard-haven-in-us-usa-id-6014"},
