{"name": "AABENRAA", "type": "\u041f\u043e\u0440\u0442", "size": "\u041c\u0430\u043b\u0435\u043d\u044c\u043a\u0438\u0439", "UN_LOCODE": "DKAAB", "country": "[DK] Denmark", "longitude": 9.4309, "latitude": 55.0397, "link": "https://www.myshiptracking.com//ru/ports/port-of-aabenraa-in-dk-denmark-id-2628"},
{"name": "AAGOTNES", "type": "\u041f\u043e\u0440\u0442", "size": "\u041c\u0430\u043b\u0435\u043d\u044c\u043a\u0438\u0439", "UN_LOCODE": "NOAGO", "country": "[NO] Norway", "longitude": 5.01307, "latitude": 60.42042, "link": "https://www.myshiptracking.com//ru/ports/port-of-aagotnes-in-no-norway-id-5307"},
{"name": "AAHEIM", "type": "\u041f\u043e\u0440\u0442", "size": "\u041c\u0430\u043b\u0435\u043d\u044c\u043a\u0438\u0439", "UN_LOCODE": "NOAHM", "country": "[NO] Norway", "longitude": 5.51667, "latitude": 62.0428, "link": "https://www.myshiptracking.com//ru/ports/port-of-aaheim-in-no-norway-id-5175"},
{"name": "AALBORG", "type": "\u041f\u043e\u0440\u0442", "size": "X\u0411\u043e\u043b\u044c\u0449\u043e\u0439", "UN_LOCODE": "DKAAL", "country": "[DK] Denmark", "longitude": 9.96008, "latitude": 57.0599, "link": "https://www.myshiptracking.com//ru/ports/port-of-aalborg-in-dk-denmark-id-80"},
{"name": "AALSMEER", "type": "\u041f\u043e\u0440\u0442", "size": "\u041c\u0430\u043b\u0435\u043d\u044c\u043a\u0438\u0439", "UN_LOCODE": "NLAAM", "country": "[NL] Netherlands", "longitude": 4.73214, "latitude": 52.25751, "link": "https://www.myshiptracking.com//ru/ports/port-of-aalsmeer-in-nl-netherlands-id-885"},
{"name": "AALST", "type": "\u041f\u043e\u0440\u0442", "size": "X\u041c\u0430\u043b\u044b\u0439", "UN_LOCODE": "NLAAL", "country": "[NL] Netherlands", "longitude": 5.11253, "latitude": 51.78628, "link": "https://www.myshiptracking.com//ru/ports/port-of-aalst-in-nl-netherlands-id-990"},
{"name": "AARHUS", "type": "\u041f\u043e\u0440\u0442", "size": "\u0411\u043e\u043b\u044c\u0448\u043e\u0439", "UN_LOCODE": "DKAAR", "country": "[DK] Denmark", "longitude": 10.23, "latitude": 56.1564, "link": "https://www.myshiptracking.com//ru/ports/port-of-aarhus-in-dk-denmark-id-82"},
{"name": "ABADAN", "type": "\u041f\u043e\u0440\u0442", "size": "X\u0411\u043e\u043b\u044c\u0449\u043e\u0439", "UN_LOCODE": "IRABD", "country": "[IR] Iran", "longitude": 48.27059, "latitude": 30.33739, "link": "https://www.myshiptracking.com//ru/ports/port-of-abadan-in-ir-iran-id-3592"},
{"name": "ABASHIRI", "type": "\u041f\u043e\u0440\u0442", "size": "\u041c\u0430\u043b\u0435\u043d\u044c\u043a\u0438\u0439", "UN_LOCODE": "JPABA", "country": "[JP] Japan", "longitude": 144.2914, "latitude": 44.01287, "link": "https://www.myshiptracking.com//ru/ports/port-of-abashiri-in-jp-japan-id-4523"},
{"name": "ABELNES", "type": "\u041f\u043e\u0440\u0442", "size": "X\u041c\u0430\u043b\u044b\u0439", "UN_LOCODE": "NOABE", "country": "[NO] Norway", "longitude": 6.65538, "latitude": 58.23774, "link": "https://www.myshiptracking.com//ru/ports/port-of-abelnes-in-no-norway-id-5327"},
{"name": "ABERDEEN", "type": "\u041f\u043e\u0440\u0442", "size": "\u0421\u0440\u0435\u0434\u043d\u0438\u0439", "UN_LOCODE": "USGHC", "country": "[US] USA", "longitude": -123.82051, "latitude": 46.96675, "link": "https://www.myshiptracking.com//ru/ports/port-of-aberdeen-in-us-usa-id-6344"},
{"name": "ABERDEEN", "type": "\u041f\u043e\u0440\u0442", "size": "\u0421\u0440\u0435\u0434\u043d\u0438\u0439", "UN_LOCODE": "GBABD", "country": "[GB] United Kingdom", "longitude": -2.07639, "latitude": 57.1418, "link": "https://www.myshiptracking.com//ru/ports/port-of-aberdeen-in-gb-united-kingdom-id-83"},
{"name": "ABERDEEN ANCH", "type": "\u042f\u043a\u043e\u0440\u043d\u0430\u044f \u0441\u0442\u043e\u044f\u043d\u043a\u0430", "size": "\u0421\u0440\u0435\u0434\u043d\u0438\u0439", "UN_LOCODE": "---", "country": "[GB] United Kingdom", "longitude": -2.03008, "latitude": 57.19079, "link": "https://www.myshiptracking.com//ru/ports/anchorage-of-aberdeen-anch-in-gb-united-kingdom-id-2454"},
{"name": "ABERDOUR", "type": "\u041f\u043e\u0440\u0442", "size": "X\u041c\u0430\u043b\u044b\u0439", "UN_LOCODE": "GBAYD", "country": "[GB] United Kingdom", "longitude": -3.29373, "latitude": 56.05039, "link": "https://www.myshiptracking.com//ru/ports/port-of-aberdour-in-gb-united-kingdom-id-1537"},
{"name": "ABIDJAN", "type": "\u041f\u043e\u0440\u0442", "size": "X\u0411\u043e\u043b\u044c\u0449\u043e\u0439", "UN_LOCODE": "CIABJ", "country": "[CI] Ivory Coast", "longitude": -4.02668, "latitude": 5.31653, "link": "https://www.myshiptracking.com//ru/ports/port-of-abidjan-in-ci-ivory-coast-id-3337"},
{"name": "ABRA DE ILOG", "type": "\u041f\u043e\u0440\u0442", "size": "\u041c\u0430\u043b\u0435\u043d\u044c\u043a\u0438\u0439", "UN_LOCODE": "---", "country": "[PH] Philippines", "longitude": 120.77046, "latitude": 13.46789, "link": "https://www.myshiptracking.com//ru/ports/port-of-abra-de-ilog-in-ph-philippines-id-5426"},
{"name": "ABRUKA", "type": "\u041f\u043e\u0440\u0442", "size": "X\u041c\u0430\u043b\u044b\u0439", "UN_LOCODE": "EEABR", "country": "[EE] Estonia", "longitude": 22.52895, "latitude": 58.16331, "link": "https://www.myshiptracking.com//ru/ports/port-of-abruka-in-ee-estonia-id-5642"},
{"name": "ABSHERON", "type": "\u041f\u043e\u0440\u0442", "size": "\u041c\u0430\u043b\u0435\u043d\u044c\u043a\u0438\u0439", "UN_LOCODE": "---", "country": "[AZ] Azerbaijan", "longitude": 50.28857, "latitude": 40.43776, "link": "https://www.myshiptracking.com//ru/ports/port-of-absheron-in-az-azerbaijan-id-5805"},
{"name": "ABU CHOSOUN", "type": "\u041f\u043e\u0440\u0442", "size": "\u041c\u0430\u043b\u0435\u043d\u044c\u043a\u0438\u0439", "UN_LOCODE": "EGABU", "country": "[EG] Egypt", "longitude": 35.20582, "latitude": 24.45205, "link": "https://www.myshiptracking.com//ru/ports/port-of-abu-chosoun-in-eg-egypt-id-3181"},
{"name": "ABU DHABI", "type": "\u041f\u043e\u0440\u0442", "size": "X\u0411\u043e\u043b\u044c\u0449\u043e\u0439", "UN_LOCODE": "AEAUH", "country": "[AE] UAE", "longitude": 54.32162, "latitude": 24.49677, "link": "https://www.myshiptracking.com//ru/ports/port-of-abu-dhabi-in-ae-uae-id-84"},
{"name": "ABU FULUS", "type": "\u041f\u043e\u0440\u0442", "size": "\u041c\u0430\u043b\u0435\u043d\u044c\u043a\u0438\u0439", "UN_LOCODE": "IQALF", "country": "[IQ] Iraq", "longitude": 48.0218, "latitude": 30.45974, "link": "https://www.myshiptracking.com//ru/ports/port-of-abu-fulus-in-iq-iraq-id-5853"},
{"name": "ABU MUSA", "type": "\u041f\u043e\u0440\u0442", "size": "\u041c\u0430\u043b\u0435\u043d\u044c\u043a\u0438\u0439", "UN_LOCODE": "IRAEU", "country": "[IR] Iran", "longitude": 55.0131, "latitude": 25.8688, "link": "https://www.myshiptracking.com//ru/ports/port-of-abu-musa-in-ir-iran-id-3599"},
{"name": "ABU QIR", "type": "\u041f\u043e\u0440\u0442", "size": "\u0411\u043e\u043b\u044c\u0448\u043e\u0439", "UN_LOCODE": "EGAKI", "country": "[EG] Egypt", "longitude": 30.08159, "latitude": 31.31484, "link": "https://www.myshiptracking.com//ru/ports/port-of-abu-qir-in-eg-egypt-id-3173"},
{"name": "ABURATO", "type": "\u041f\u043e\u0440\u0442", "size": "X\u041c\u0430\u043b\u044b\u0439", "UN_LOCODE": "---", "country": "[JP] Japan", "longitude": 139.70617, "latitude": 38.74492, "link": "https://www.myshiptracking.com//ru/ports/port-of-aburato-in-jp-japan-id-4856"},
{"name": "ABURATSU", "type": "\u041f\u043e\u0440\u0442", "size": "\u0421\u0440\u0435\u0434\u043d\u0438\u0439", "UN_LOCODE": "JPABU", "country": "[JP] Japan", "longitude": 131.40431, "latitude": 31.5754, "link": "https://www.myshiptracking.com//ru/ports/port-of-aburatsu-in-jp-japan-id-4696"},
{"name": "ACADIAN CONTRACTORS", "type": "\u041f\u043e\u0440\u0442", "size": "\u041c\u0430\u043b\u0435\u043d\u044c\u043a\u0438\u0439", "UN_LOCODE": "---", "country": "[US] USA", "longitude": -92.11368, "latitude": 29.90051, "link": "https://www.myshiptracking.com//ru/ports/port-of-acadian-contractors-in-us-usa-id-6089"},
{"name": "ACAJUTLA", "type": "\u041f\u043e\u0440\u0442", "size": "\u041c\u0430\u043b\u0435\u043d\u044c\u043a\u0438\u0439", "UN_LOCODE": "SVAQJ", "country": "[SV] El Salvador", "longitude": -89.83842, "latitude": 13.57842, "link": "https://www.myshiptracking.com//ru/ports/port-of-acajutla-in-sv-el-salvador-id-7155"},
{"name": "ACAPULCO", "type": "\u041f\u043e\u0440\u0442", "size": "\u0411\u043e\u043b\u044c\u0448\u043e\u0439", "UN_LOCODE": "MXACA", "country": "[MX] Mexico", "longitude": -99.87767, "latitude": 16.84282, "link": "https://www.myshiptracking.com//ru/ports/port-of-acapulco-in-mx-mexico-id-6616"},
{"name": "ACCRA", "type": "\u041f\u043e\u0440\u0442", "size": "X\u041c\u0430\u043b\u044b\u0439", "UN_LOCODE": "GHACC", "country": "[GH] Ghana", "longitude": -0.20812, "latitude": 5.53483, "link": "https://www.myshiptracking.com//ru/ports/port-of-accra-in-gh-ghana-id-3338"},
{"name": "ACHAO", "type": "\u041f\u043e\u0440\u0442", "size": "X\u041c\u0430\u043b\u044b\u0439", "UN_LOCODE": "CLACH", "country": "[CL] Chile", "longitude": -73.49023, "latitude": -42.46726, "link": "https://www.myshiptracking.com//ru/ports/port-of-achao-in-cl-chile-id-6767"},
{"name": "ACHILLI", "type": "\u0413\u0430\u0432\u0430\u043d\u044c", "size": "\u041c\u0430\u043b\u0435\u043d\u044c\u043a\u0438\u0439", "UN_LOCODE": "---", "country": "[GR] Greece", "longitude": 24.5771, "latitude": 38.87015, "link": "https://www.myshiptracking.com//ru/ports/marina-of-achilli-in-gr-greece-id-777"},
{"name": "ACHILLIO", "type": "\u0413\u0430\u0432\u0430\u043d\u044c", "size": "X\u041c\u0430\u043b\u044b\u0439", "UN_LOCODE": "---", "country": "[GR] Greece", "longitude": 22.96317, "latitude": 39.00667, "link": "https://www.myshiptracking.com//ru/ports/marina-of-achillio-in-gr-greece-id-516"},
{"name": "ACHLADI", "type": "\u041f\u043e\u0440\u0442", "size": "X\u041c\u0430\u043b\u044b\u0439", "UN_LOCODE": "GRACL", "country": "[GR] Greece", "longitude": 22.80564, "latitude": 38.88623, "link": "https://www.myshiptracking.com//ru/ports/port-of-achladi-in-gr-greece-id-528"},
{"name": "ACHNACROISH", "type": "\u041f\u043e\u0440\u0442", "size": "X\u041c\u0430\u043b\u044b\u0439", "UN_LOCODE": "GBAHN", "country": "[GB] United Kingdom", "longitude": -5.49103, "latitude": 56.51167, "link": "https://www.myshiptracking.com//ru/ports/port-of-achnacroish-in-gb-united-kingdom-id-1586"},
{"name": "ACRE", "type": "\u041f\u043e\u0440\u0442", "size": "\u041c\u0430\u043b\u0435\u043d\u044c\u043a\u0438\u0439", "UN_LOCODE": "ILACR", "country": "[IL] Israel", "longitude": 35.07135, "latitude": 32.91849, "link": "https://www.myshiptracking.com//ru/ports/port-of-acre-in-il-israel-id-3159"},
{"name": "ADAK", "type": "\u041f\u043e\u0440\u0442", "size": "\u0421\u0440\u0435\u0434\u043d\u0438\u0439", "UN_LOCODE": "USADK", "country": "[US] USA", "longitude": -176.6376, "latitude": 51.8563, "link": "https://www.myshiptracking.com//ru/ports/port-of-adak-in-us-usa-id-6234"},
{"name": "ADELAIDE", "type": "\u041f\u043e\u0440\u0442", "size": "X\u0411\u043e\u043b\u044c\u0449\u043e\u0439", "UN_LOCODE": "AUADL", "country": "[AU] Australia", "longitude": 138.53066, "latitude": -34.79506, "link": "https://www.myshiptracking.com//ru/ports/port-of-adelaide-in-au-australia-id-3813"},
{"name": "ADEN", "type": "\u041f\u043e\u0440\u0442", "size": "\u0411\u043e\u043b\u044c\u0448\u043e\u0439", "UN_LOCODE": "YEADE", "country": "[YE] Yemen", "longitude": 45.01225, "latitude": 12.80028, "link": "https://www.myshiptracking.com//ru/ports/port-of-aden-in-ye-yemen-id-3454"},
{"name": "ADLER", "type": "\u041f\u043e\u0440\u0442", "size": "\u041c\u0430\u043b\u0435\u043d\u044c\u043a\u0438\u0439", "UN_LOCODE": "RUAEL", "country": "[RU] Russia", "longitude": 39.9359, "latitude": 43.40787, "link": "https://www.myshiptracking.com//ru/ports/port-of-adler-in-ru-russia-id-3053"},
{"name": "ADONY", "type": "\u041f\u043e\u0440\u0442", "size": "\u041c\u0430\u043b\u0435\u043d\u044c\u043a\u0438\u0439", "UN_LOCODE": "HUADY", "country": "[HU] Hungary", "longitude": 18.88392, "latitude": 47.10837, "link": "https://www.myshiptracking.com//ru/ports/port-of-adony-in-hu-hungary-id-5766"},
{"name": "ADRA", "type": "\u041f\u043e\u0440\u0442", "size": "\u041c\u0430\u043b\u0435\u043d\u044c\u043a\u0438\u0439", "UN_LOCODE": "ESADR", "country": "[ES] Spain", "longitude": -3.01657, "latitude": 36.74249, "link": "https://www.myshiptracking.com//ru/ports/port-of-adra-in-es-spain-id-1895"},
{"name": "ADRIA", "type": "\u041f\u043e\u0440\u0442", "size": "\u041c\u0430\u043b\u0435\u043d\u044c\u043a\u0438\u0439", "UN_LOCODE": "ITARA", "country": "[IT] Italy", "longitude": 12.05162, "latitude": 45.05392, "link": "https://www.myshiptracking.com//ru/ports/port-of-adria-in-it-italy-id-2738"},
{"name": "AEGINA", "type": "\u041f\u043e\u0440\u0442", "size": "\u041c\u0430\u043b\u0435\u043d\u044c\u043a\u0438\u0439", "UN_LOCODE": "GRAEG", "country": "[GR] Greece", "longitude": 23.4257, "latitude": 37.7436, "link": "https://www.myshiptracking.com//ru/ports/port-of-aegina-in-gr-greece-id-5"},
{"name": "AEGINA BOATYARD", "type": "\u0413\u0430\u0432\u0430\u043d\u044c", "size": "X\u041c\u0430\u043b\u044b\u0439", "UN_LOCODE": "---", "country": "[GR] Greece", "longitude": 23.45771, "latitude": 37.77211, "link": "https://www.myshiptracking.com//ru/ports/marina-of-aegina-boatyard-in-gr-greece-id-793"},
{"name": "AEGINA MAR", "type": "\u0413\u0430\u0432\u0430\u043d\u044c", "size": "X\u041c\u0430\u043b\u044b\u0439", "UN_LOCODE": "---", "country": "[GR] Greece", "longitude": 23.44568, "latitude": 37.72477, "link": "https://www.myshiptracking.com//ru/ports/marina-of-aegina-mar-in-gr-greece-id-636"},
{"name": "AEGNA", "type": "\u041f\u043e\u0440\u0442", "size": "X\u041c\u0430\u043b\u044b\u0439", "UN_LOCODE": "EEAEN", "country": "[EE] Estonia", "longitude": 24.7581, "latitude": 59.57161, "link": "https://www.myshiptracking.com//ru/ports/port-of-aegna-in-ee-estonia-id-5653"},
{"name": "AEROSKOBING", "type": "\u041f\u043e\u0440\u0442", "size": "X\u041c\u0430\u043b\u044b\u0439", "UN_LOCODE": "DKARK", "country": "[DK] Denmark", "longitude": 10.41321, "latitude": 54.89211, "link": "https://www.myshiptracking.com//ru/ports/port-of-aeroskobing-in-dk-denmark-id-2612"},
{"name": "AETOS", "type": "\u041f\u043e\u0440\u0442", "size": "X\u041c\u0430\u043b\u044b\u0439", "UN_LOCODE": "GRPIS", "country": "[GR] Greece", "longitude": 20.68444, "latitude": 38.34767, "link": "https://www.myshiptracking.com//ru/ports/port-of-aetos-in-gr-greece-id-778"},
{"name": "AFTAB", "type": "\u041f\u043e\u0440\u0442", "size": "X\u041c\u0430\u043b\u044b\u0439", "UN_LOCODE": "---", "country": "[IR] Iran", "longitude": 53.92737, "latitude": 26.71754, "link": "https://www.myshiptracking.com//ru/ports/port-of-aftab-in-ir-iran-id-3578"},
{"name": "AGADIR", "type": "\u041f\u043e\u0440\u0442", "size": "\u0421\u0440\u0435\u0434\u043d\u0438\u0439", "UN_LOCODE": "MAAGA", "country": "[MA] Morocco", "longitude": -9.634, "latitude": 30.4175, "link": "https://www.myshiptracking.com//ru/ports/port-of-agadir-in-ma-morocco-id-3303"},
