{"name": "OSTRAND", "type": "\u041f\u043e\u0440\u0442", "size": "\u0421\u0440\u0435\u0434\u043d\u0438\u0439", "UN_LOCODE": "SEOST", "country": "[SE] Sweden", "longitude": 17.34246, "latitude": 62.47867, "link": "https://www.myshiptracking.com//ru/ports/port-of-ostrand-in-se-sweden-id-5361"},
{"name": "OSTROVNAYA", "type": "\u041f\u043e\u0440\u0442", "size": "X\u041c\u0430\u043b\u044b\u0439", "UN_LOCODE": "---", "country": "[RU] Russia", "longitude": 131.86699, "latitude": 42.96811, "link": "https://www.myshiptracking.com//ru/ports/port-of-ostrovnaya-in-ru-russia-id-3078"},
{"name": "OSUGI", "type": "\u041f\u043e\u0440\u0442", "size": "X\u041c\u0430\u043b\u044b\u0439", "UN_LOCODE": "---", "country": "[JP] Japan", "longitude": 138.36624, "latitude": 37.83513, "link": "https://www.myshiptracking.com//ru/ports/port-of-osugi-in-jp-japan-id-4656"},
{"name": "OSWEGO", "type": "\u041f\u043e\u0440\u0442", "size": "\u0421\u0440\u0435\u0434\u043d\u0438\u0439", "UN_LOCODE": "USOSW", "country": "[US] USA", "longitude": -76.51343, "latitude": 43.46506, "link": "https://www.myshiptracking.com//ru/ports/port-of-oswego-in-us-usa-id-6353"},
{"name": "OTA", "type": "\u041f\u043e\u0440\u0442", "size": "X\u041c\u0430\u043b\u044b\u0439", "UN_LOCODE": "JPOTG", "country": "[JP] Japan", "longitude": 138.48331, "latitude": 37.9113, "link": "https://www.myshiptracking.com//ru/ports/port-of-ota-in-jp-japan-id-4684"},
{"name": "OTAKE", "type": "\u041f\u043e\u0440\u0442", "size": "\u0411\u043e\u043b\u044c\u0448\u043e\u0439", "UN_LOCODE": "JPOTK", "country": "[JP] Japan", "longitude": 132.23389, "latitude": 34.2363, "link": "https://www.myshiptracking.com//ru/ports/port-of-otake-in-jp-japan-id-4622"},
{"name": "OTARU", "type": "\u041f\u043e\u0440\u0442", "size": "\u0411\u043e\u043b\u044c\u0448\u043e\u0439", "UN_LOCODE": "JPOTR", "country": "[JP] Japan", "longitude": 141.01826, "latitude": 43.19538, "link": "https://www.myshiptracking.com//ru/ports/port-of-otaru-in-jp-japan-id-4731"},
{"name": "OTHONI", "type": "\u041f\u043e\u0440\u0442", "size": "X\u041c\u0430\u043b\u044b\u0439", "UN_LOCODE": "GROTH", "country": "[GR] Greece", "longitude": 19.40351, "latitude": 39.8403, "link": "https://www.myshiptracking.com//ru/ports/port-of-othoni-in-gr-greece-id-575"},
{"name": "OTSU", "type": "\u041f\u043e\u0440\u0442", "size": "\u041c\u0430\u043b\u0435\u043d\u044c\u043a\u0438\u0439", "UN_LOCODE": "JPOSJ", "country": "[JP] Japan", "longitude": 140.78738, "latitude": 36.8255, "link": "https://www.myshiptracking.com//ru/ports/port-of-otsu-in-jp-japan-id-4567"},
{"name": "OTTENDORF", "type": "\u0413\u0430\u0432\u0430\u043d\u044c", "size": "X\u041c\u0430\u043b\u044b\u0439", "UN_LOCODE": "---", "country": "[DE] Germany", "longitude": 8.89601, "latitude": 53.82633, "link": "https://www.myshiptracking.com//ru/ports/marina-of-ottendorf-in-de-germany-id-1357"},
{"name": "OTTER BAY", "type": "\u041f\u043e\u0440\u0442", "size": "\u041c\u0430\u043b\u0435\u043d\u044c\u043a\u0438\u0439", "UN_LOCODE": "---", "country": "[CA] Canada", "longitude": -123.31396, "latitude": 48.79815, "link": "https://www.myshiptracking.com//ru/ports/port-of-otter-bay-in-ca-canada-id-6538"},
{"name": "OTTERBACKEN", "type": "\u041f\u043e\u0440\u0442", "size": "\u041c\u0430\u043b\u0435\u043d\u044c\u043a\u0438\u0439", "UN_LOCODE": "SEOTT", "country": "[SE] Sweden", "longitude": 14.03214, "latitude": 58.94796, "link": "https://www.myshiptracking.com//ru/ports/port-of-otterbacken-in-se-sweden-id-5380"},
{"name": "OTTERSOYA", "type": "\u041f\u043e\u0440\u0442", "size": "X\u041c\u0430\u043b\u044b\u0439", "UN_LOCODE": "NOOTA", "country": "[NO] Norway", "longitude": 11.28536, "latitude": 64.85914, "link": "https://www.myshiptracking.com//ru/ports/port-of-ottersoya-in-no-norway-id-5097"},
{"name": "OUD BEIJERLAND", "type": "\u041f\u043e\u0440\u0442", "size": "\u0411\u043e\u043b\u044c\u0448\u043e\u0439", "UN_LOCODE": "NLOBL", "country": "[NL] Netherlands", "longitude": 4.41449, "latitude": 51.82945, "link": "https://www.myshiptracking.com//ru/ports/port-of-oud-beijerland-in-nl-netherlands-id-898"},
{"name": "OUDDORP", "type": "\u041f\u043e\u0440\u0442", "size": "X\u041c\u0430\u043b\u044b\u0439", "UN_LOCODE": "---", "country": "[NL] Netherlands", "longitude": 3.93428, "latitude": 51.79772, "link": "https://www.myshiptracking.com//ru/ports/port-of-ouddorp-in-nl-netherlands-id-1032"},
{"name": "OUDE WETERING", "type": "\u041f\u043e\u0440\u0442", "size": "\u041c\u0430\u043b\u0435\u043d\u044c\u043a\u0438\u0439", "UN_LOCODE": "NLOWG", "country": "[NL] Netherlands", "longitude": 4.64585, "latitude": 52.2151, "link": "https://www.myshiptracking.com//ru/ports/port-of-oude-wetering-in-nl-netherlands-id-860"},
{"name": "OUDE ZEUG", "type": "\u0413\u0430\u0432\u0430\u043d\u044c", "size": "\u041c\u0430\u043b\u0435\u043d\u044c\u043a\u0438\u0439", "UN_LOCODE": "---", "country": "[NL] Netherlands", "longitude": 5.11109, "latitude": 52.85566, "link": "https://www.myshiptracking.com//ru/ports/marina-of-oude-zeug-in-nl-netherlands-id-1212"},
{"name": "OUDEGA", "type": "\u0413\u0430\u0432\u0430\u043d\u044c", "size": "\u041c\u0430\u043b\u0435\u043d\u044c\u043a\u0438\u0439", "UN_LOCODE": "NLOGA", "country": "[NL] Netherlands", "longitude": 6.00033, "latitude": 53.12276, "link": "https://www.myshiptracking.com//ru/ports/marina-of-oudega-in-nl-netherlands-id-1097"},
{"name": "OUDERKERK AAN DEN IJ", "type": "\u041f\u043e\u0440\u0442", "size": "X\u041c\u0430\u043b\u044b\u0439", "UN_LOCODE": "NLOAI", "country": "[NL] Netherlands", "longitude": 4.63354, "latitude": 51.93622, "link": "https://www.myshiptracking.com//ru/ports/port-of-ouderkerk-aan-den-ij-in-nl-netherlands-id-5021"},
{"name": "OUDESCHILD", "type": "\u041f\u043e\u0440\u0442", "size": "\u041c\u0430\u043b\u0435\u043d\u044c\u043a\u0438\u0439", "UN_LOCODE": "NLOHI", "country": "[NL] Netherlands", "longitude": 4.85456, "latitude": 53.04212, "link": "https://www.myshiptracking.com//ru/ports/port-of-oudeschild-in-nl-netherlands-id-1086"},
{"name": "OUDLOOSDRECHT", "type": "\u041f\u043e\u0440\u0442", "size": "\u041c\u0430\u043b\u0435\u043d\u044c\u043a\u0438\u0439", "UN_LOCODE": "---", "country": "[NL] Netherlands", "longitude": 5.0874, "latitude": 52.20576, "link": "https://www.myshiptracking.com//ru/ports/port-of-oudloosdrecht-in-nl-netherlands-id-987"},
{"name": "OUISTREHAM", "type": "\u041f\u043e\u0440\u0442", "size": "\u041c\u0430\u043b\u0435\u043d\u044c\u043a\u0438\u0439", "UN_LOCODE": "FROUI", "country": "[FR] France", "longitude": -0.24747, "latitude": 49.28637, "link": "https://www.myshiptracking.com//ru/ports/port-of-ouistreham-in-fr-france-id-1798"},
{"name": "OULU", "type": "\u041f\u043e\u0440\u0442", "size": "\u0411\u043e\u043b\u044c\u0448\u043e\u0439", "UN_LOCODE": "FIOUL", "country": "[FI] Finland", "longitude": 25.4487, "latitude": 65.0144, "link": "https://www.myshiptracking.com//ru/ports/port-of-oulu-in-fi-finland-id-331"},
{"name": "OUNI", "type": "\u0413\u0430\u0432\u0430\u043d\u044c", "size": "X\u041c\u0430\u043b\u044b\u0439", "UN_LOCODE": "---", "country": "[GR] Greece", "longitude": 23.07797, "latitude": 37.39077, "link": "https://www.myshiptracking.com//ru/ports/marina-of-ouni-in-gr-greece-id-803"},
{"name": "OURA", "type": "\u041f\u043e\u0440\u0442", "size": "\u041c\u0430\u043b\u0435\u043d\u044c\u043a\u0438\u0439", "UN_LOCODE": "JPORR", "country": "[JP] Japan", "longitude": 129.43137, "latitude": 34.67498, "link": "https://www.myshiptracking.com//ru/ports/port-of-oura-in-jp-japan-id-4673"},
{"name": "OURA", "type": "\u041f\u043e\u0440\u0442", "size": "\u041c\u0430\u043b\u0435\u043d\u044c\u043a\u0438\u0439", "UN_LOCODE": "JPOUA", "country": "[JP] Japan", "longitude": 130.36324, "latitude": 32.52657, "link": "https://www.myshiptracking.com//ru/ports/port-of-oura-in-jp-japan-id-4561"},
{"name": "OURA", "type": "\u041f\u043e\u0440\u0442", "size": "\u041c\u0430\u043b\u0435\u043d\u044c\u043a\u0438\u0439", "UN_LOCODE": "---", "country": "[JP] Japan", "longitude": 141.49556, "latitude": 38.45448, "link": "https://www.myshiptracking.com//ru/ports/port-of-oura-in-jp-japan-id-4250"},
{"name": "OURANOUPOLI", "type": "\u041f\u043e\u0440\u0442", "size": "X\u041c\u0430\u043b\u044b\u0439", "UN_LOCODE": "GROUR", "country": "[GR] Greece", "longitude": 23.97812, "latitude": 40.32614, "link": "https://www.myshiptracking.com//ru/ports/port-of-ouranoupoli-in-gr-greece-id-570"},
{"name": "OVERO", "type": "\u041f\u043e\u0440\u0442", "size": "\u041c\u0430\u043b\u0435\u043d\u044c\u043a\u0438\u0439", "UN_LOCODE": "---", "country": "[FI] Finland", "longitude": 20.50911, "latitude": 60.11138, "link": "https://www.myshiptracking.com//ru/ports/port-of-overo-in-fi-finland-id-5611"},
{"name": "OWASE", "type": "\u041f\u043e\u0440\u0442", "size": "\u0421\u0440\u0435\u0434\u043d\u0438\u0439", "UN_LOCODE": "JPOWA", "country": "[JP] Japan", "longitude": 136.2118, "latitude": 34.0711, "link": "https://www.myshiptracking.com//ru/ports/port-of-owase-in-jp-japan-id-4666"},
{"name": "OWASHI", "type": "\u041f\u043e\u0440\u0442", "size": "\u041c\u0430\u043b\u0435\u043d\u044c\u043a\u0438\u0439", "UN_LOCODE": "---", "country": "[JP] Japan", "longitude": 133.04431, "latitude": 35.55632, "link": "https://www.myshiptracking.com//ru/ports/port-of-owashi-in-jp-japan-id-4606"},
{"name": "OWEN SOUND", "type": "\u041f\u043e\u0440\u0442", "size": "\u0411\u043e\u043b\u044c\u0448\u043e\u0439", "UN_LOCODE": "CAOWS", "country": "[CA] Canada", "longitude": -80.9393, "latitude": 44.58245, "link": "https://www.myshiptracking.com//ru/ports/port-of-owen-sound-in-ca-canada-id-6533"},
{"name": "OWENDO", "type": "\u041f\u043e\u0440\u0442", "size": "\u0421\u0440\u0435\u0434\u043d\u0438\u0439", "UN_LOCODE": "GAOWE", "country": "[GA] Gabon", "longitude": 9.507, "latitude": 0.2823, "link": "https://www.myshiptracking.com//ru/ports/port-of-owendo-in-ga-gabon-id-3360"},
{"name": "OWENSBORO", "type": "\u041f\u043e\u0440\u0442", "size": "X\u0411\u043e\u043b\u044c\u0449\u043e\u0439", "UN_LOCODE": "USOWB", "country": "[US] USA", "longitude": -87.11048, "latitude": 37.77808, "link": "https://www.myshiptracking.com//ru/ports/port-of-owensboro-in-us-usa-id-6305"},
{"name": "OXELOSUND", "type": "\u041f\u043e\u0440\u0442", "size": "\u0421\u0440\u0435\u0434\u043d\u0438\u0439", "UN_LOCODE": "SEOXE", "country": "[SE] Sweden", "longitude": 17.1183, "latitude": 58.6592, "link": "https://www.myshiptracking.com//ru/ports/port-of-oxelosund-in-se-sweden-id-332"},
{"name": "OYRI", "type": "\u041f\u043e\u0440\u0442", "size": "X\u041c\u0430\u043b\u044b\u0439", "UN_LOCODE": "---", "country": "[FO] Faroe Is", "longitude": -6.98392, "latitude": 62.18773, "link": "https://www.myshiptracking.com//ru/ports/port-of-oyri-in-fo-faroe-is-id-5673"},
{"name": "OYSTER POND", "type": "\u041f\u043e\u0440\u0442", "size": "\u041c\u0430\u043b\u0435\u043d\u044c\u043a\u0438\u0439", "UN_LOCODE": "---", "country": "MF", "longitude": -63.01358, "latitude": 18.05195, "link": "https://www.myshiptracking.com//ru/ports/port-of-oyster-pond-in-mf-id-7033"},
{"name": "OYSTERBED", "type": "\u0413\u0430\u0432\u0430\u043d\u044c", "size": "X\u041c\u0430\u043b\u044b\u0439", "UN_LOCODE": "---", "country": "[IE] Ireland", "longitude": -9.89668, "latitude": 51.81244, "link": "https://www.myshiptracking.com//ru/ports/marina-of-oysterbed-in-ie-ireland-id-2468"},
{"name": "OZAMIZ", "type": "\u041f\u043e\u0440\u0442", "size": "\u041c\u0430\u043b\u0435\u043d\u044c\u043a\u0438\u0439", "UN_LOCODE": "PHOZC", "country": "[PH] Philippines", "longitude": 123.84371, "latitude": 8.13762, "link": "https://www.myshiptracking.com//ru/ports/port-of-ozamiz-in-ph-philippines-id-5432"},
{"name": "OZASHI", "type": "\u041f\u043e\u0440\u0442", "size": "X\u041c\u0430\u043b\u044b\u0439", "UN_LOCODE": "---", "country": "[JP] Japan", "longitude": 141.52083, "latitude": 38.60875, "link": "https://www.myshiptracking.com//ru/ports/port-of-ozashi-in-jp-japan-id-4916"},
{"name": "OZERSKOYE", "type": "\u041f\u043e\u0440\u0442", "size": "X\u041c\u0430\u043b\u044b\u0439", "UN_LOCODE": "---", "country": "[RU] Russia", "longitude": 143.1171, "latitude": 46.6028, "link": "https://www.myshiptracking.com//ru/ports/port-of-ozerskoye-in-ru-russia-id-3081"},
{"name": "PA-TOU-TZU", "type": "\u041f\u043e\u0440\u0442", "size": "\u041c\u0430\u043b\u0435\u043d\u044c\u043a\u0438\u0439", "UN_LOCODE": "---", "country": "[TW] Taiwan", "longitude": 121.79073, "latitude": 25.14762, "link": "https://www.myshiptracking.com//ru/ports/port-of-pa-tou-tzu-in-tw-taiwan-id-5780"},
{"name": "PAAL", "type": "\u041f\u043e\u0440\u0442", "size": "X\u041c\u0430\u043b\u044b\u0439", "UN_LOCODE": "---", "country": "[NL] Netherlands", "longitude": 4.11107, "latitude": 51.35291, "link": "https://www.myshiptracking.com//ru/ports/port-of-paal-in-nl-netherlands-id-1066"},
{"name": "PACHI", "type": "\u0413\u0430\u0432\u0430\u043d\u044c", "size": "X\u041c\u0430\u043b\u044b\u0439", "UN_LOCODE": "---", "country": "[GR] Greece", "longitude": 23.36223, "latitude": 37.97282, "link": "https://www.myshiptracking.com//ru/ports/marina-of-pachi-in-gr-greece-id-667"},
{"name": "PACHI", "type": "\u041f\u043e\u0440\u0442", "size": "X\u041c\u0430\u043b\u044b\u0439", "UN_LOCODE": "GRPME", "country": "[GR] Greece", "longitude": 23.3805, "latitude": 37.9717, "link": "https://www.myshiptracking.com//ru/ports/port-of-pachi-in-gr-greece-id-658"},
{"name": "PACO DE ARCOS", "type": "\u041f\u043e\u0440\u0442", "size": "X\u041c\u0430\u043b\u044b\u0439", "UN_LOCODE": "PTPCS", "country": "[PT] Portugal", "longitude": -9.29399, "latitude": 38.69078, "link": "https://www.myshiptracking.com//ru/ports/port-of-paco-de-arcos-in-pt-portugal-id-2714"},
{"name": "PADANG BAI", "type": "\u041f\u043e\u0440\u0442", "size": "\u041c\u0430\u043b\u0435\u043d\u044c\u043a\u0438\u0439", "UN_LOCODE": "---", "country": "[ID] Indonesia", "longitude": 115.51161, "latitude": -8.53384, "link": "https://www.myshiptracking.com//ru/ports/port-of-padang-bai-in-id-indonesia-id-3716"},
{"name": "PADDA", "type": "\u041f\u043e\u0440\u0442", "size": "\u041c\u0430\u043b\u0435\u043d\u044c\u043a\u0438\u0439", "UN_LOCODE": "---", "country": "[NO] Norway", "longitude": 10.7742, "latitude": 59.87486, "link": "https://www.myshiptracking.com//ru/ports/port-of-padda-in-no-norway-id-5282"},
{"name": "PADSTOW", "type": "\u041f\u043e\u0440\u0442", "size": "\u041c\u0430\u043b\u0435\u043d\u044c\u043a\u0438\u0439", "UN_LOCODE": "GBPAD", "country": "[GB] United Kingdom", "longitude": -4.93513, "latitude": 50.54114, "link": "https://www.myshiptracking.com//ru/ports/port-of-padstow-in-gb-united-kingdom-id-1659"},
{"name": "PADUCAH", "type": "\u041f\u043e\u0440\u0442", "size": "\u0411\u043e\u043b\u044c\u0448\u043e\u0439", "UN_LOCODE": "USPAH", "country": "[US] USA", "longitude": -88.58997, "latitude": 37.08638, "link": "https://www.myshiptracking.com//ru/ports/port-of-paducah-in-us-usa-id-5912"},
