{"name": "TSUNEISHI", "type": "\u041f\u043e\u0440\u0442", "size": "\u041c\u0430\u043b\u0435\u043d\u044c\u043a\u0438\u0439", "UN_LOCODE": "JPTNI", "country": "[JP] Japan", "longitude": 133.2984, "latitude": 34.38232, "link": "https://www.myshiptracking.com//ru/ports/port-of-tsuneishi-in-jp-japan-id-4562"},
{"name": "TSUNEISHI HEAVY INDUSTRIES", "type": "\u041f\u043e\u0440\u0442", "size": "\u0421\u0440\u0435\u0434\u043d\u0438\u0439", "UN_LOCODE": "---", "country": "[PH] Philippines", "longitude": 123.68518, "latitude": 10.47328, "link": "https://www.myshiptracking.com//ru/ports/port-of-tsuneishi-heavy-industries-in-ph-philippines-id-5459"},
{"name": "TSUNOSHIMA", "type": "\u041f\u043e\u0440\u0442", "size": "\u041c\u0430\u043b\u0435\u043d\u044c\u043a\u0438\u0439", "UN_LOCODE": "JPTNS", "country": "[JP] Japan", "longitude": 130.8557, "latitude": 34.34766, "link": "https://www.myshiptracking.com//ru/ports/port-of-tsunoshima-in-jp-japan-id-4806"},
{"name": "TSURUGA", "type": "\u041f\u043e\u0440\u0442", "size": "\u0411\u043e\u043b\u044c\u0448\u043e\u0439", "UN_LOCODE": "JPTRG", "country": "[JP] Japan", "longitude": 136.06417, "latitude": 35.67458, "link": "https://www.myshiptracking.com//ru/ports/port-of-tsuruga-in-jp-japan-id-4801"},
{"name": "TSUSHI", "type": "\u041f\u043e\u0440\u0442", "size": "X\u041c\u0430\u043b\u044b\u0439", "UN_LOCODE": "JPTSH", "country": "[JP] Japan", "longitude": 134.77836, "latitude": 34.41624, "link": "https://www.myshiptracking.com//ru/ports/port-of-tsushi-in-jp-japan-id-4602"},
{"name": "TSUTSU", "type": "\u041f\u043e\u0440\u0442", "size": "\u041c\u0430\u043b\u0435\u043d\u044c\u043a\u0438\u0439", "UN_LOCODE": "JPTST", "country": "[JP] Japan", "longitude": 129.1853, "latitude": 34.1157, "link": "https://www.myshiptracking.com//ru/ports/port-of-tsutsu-in-jp-japan-id-4610"},
{"name": "TSUWAJI", "type": "\u041f\u043e\u0440\u0442", "size": "\u041c\u0430\u043b\u0435\u043d\u044c\u043a\u0438\u0439", "UN_LOCODE": "---", "country": "[JP] Japan", "longitude": 132.51593, "latitude": 33.98164, "link": "https://www.myshiptracking.com//ru/ports/port-of-tsuwaji-in-jp-japan-id-4260"},
{"name": "TTANGKKEUNMAEUL", "type": "\u041f\u043e\u0440\u0442", "size": "X\u041c\u0430\u043b\u044b\u0439", "UN_LOCODE": "---", "country": "[KR] Korea", "longitude": 126.53105, "latitude": 34.30018, "link": "https://www.myshiptracking.com//ru/ports/port-of-ttangkkeunmaeul-in-kr-korea-id-5510"},
{"name": "TUAL", "type": "\u041f\u043e\u0440\u0442", "size": "\u0421\u0440\u0435\u0434\u043d\u0438\u0439", "UN_LOCODE": "IDTUA", "country": "[ID] Indonesia", "longitude": 132.74192, "latitude": -5.64173, "link": "https://www.myshiptracking.com//ru/ports/port-of-tual-in-id-indonesia-id-3767"},
{"name": "TUAPSE", "type": "\u041f\u043e\u0440\u0442", "size": "\u0421\u0440\u0435\u0434\u043d\u0438\u0439", "UN_LOCODE": "RUTUA", "country": "[RU] Russia", "longitude": 39.06759, "latitude": 44.08883, "link": "https://www.myshiptracking.com//ru/ports/port-of-tuapse-in-ru-russia-id-2964"},
{"name": "TUBAN", "type": "\u041f\u043e\u0440\u0442", "size": "\u0421\u0440\u0435\u0434\u043d\u0438\u0439", "UN_LOCODE": "IDTBN", "country": "[ID] Indonesia", "longitude": 111.89374, "latitude": -6.7839, "link": "https://www.myshiptracking.com//ru/ports/port-of-tuban-in-id-indonesia-id-3709"},
{"name": "TUBAY", "type": "\u041f\u043e\u0440\u0442", "size": "\u041c\u0430\u043b\u0435\u043d\u044c\u043a\u0438\u0439", "UN_LOCODE": "---", "country": "[PH] Philippines", "longitude": 125.52846, "latitude": 9.18199, "link": "https://www.myshiptracking.com//ru/ports/port-of-tubay-in-ph-philippines-id-5396"},
{"name": "TUBIGON", "type": "\u041f\u043e\u0440\u0442", "size": "\u041c\u0430\u043b\u0435\u043d\u044c\u043a\u0438\u0439", "UN_LOCODE": "PHTON", "country": "[PH] Philippines", "longitude": 123.95879, "latitude": 9.95735, "link": "https://www.myshiptracking.com//ru/ports/port-of-tubigon-in-ph-philippines-id-5462"},
{"name": "TUDY", "type": "\u041f\u043e\u0440\u0442", "size": "X\u041c\u0430\u043b\u044b\u0439", "UN_LOCODE": "FRTTU", "country": "[FR] France", "longitude": -4.17109, "latitude": 47.84014, "link": "https://www.myshiptracking.com//ru/ports/port-of-tudy-in-fr-france-id-1848"},
{"name": "TULAGI", "type": "\u041f\u043e\u0440\u0442", "size": "\u041c\u0430\u043b\u0435\u043d\u044c\u043a\u0438\u0439", "UN_LOCODE": "SBTLG", "country": "[SB] Solomon Is", "longitude": 160.15319, "latitude": -9.10405, "link": "https://www.myshiptracking.com//ru/ports/port-of-tulagi-in-sb-solomon-is-id-5819"},
{"name": "TULCEA", "type": "\u041f\u043e\u0440\u0442", "size": "\u0411\u043e\u043b\u044c\u0448\u043e\u0439", "UN_LOCODE": "ROTCE", "country": "[RO] Romania", "longitude": 28.79679, "latitude": 45.18091, "link": "https://www.myshiptracking.com//ru/ports/port-of-tulcea-in-ro-romania-id-2914"},
{"name": "TULEAR", "type": "\u041f\u043e\u0440\u0442", "size": "\u041c\u0430\u043b\u0435\u043d\u044c\u043a\u0438\u0439", "UN_LOCODE": "MGTLE", "country": "[MG] Madagascar", "longitude": 43.6665, "latitude": -23.37704, "link": "https://www.myshiptracking.com//ru/ports/port-of-tulear-in-mg-madagascar-id-6963"},
{"name": "TULLN", "type": "\u041f\u043e\u0440\u0442", "size": "X\u041c\u0430\u043b\u044b\u0439", "UN_LOCODE": "ATTLN", "country": "[AT] Austria", "longitude": 16.05221, "latitude": 48.33413, "link": "https://www.myshiptracking.com//ru/ports/port-of-tulln-in-at-austria-id-5748"},
{"name": "TUMBY", "type": "\u041f\u043e\u0440\u0442", "size": "\u041c\u0430\u043b\u0435\u043d\u044c\u043a\u0438\u0439", "UN_LOCODE": "---", "country": "[AU] Australia", "longitude": 136.1095, "latitude": -34.38594, "link": "https://www.myshiptracking.com//ru/ports/port-of-tumby-in-au-australia-id-3860"},
{"name": "TUNAS DE ZAZA", "type": "\u041f\u043e\u0440\u0442", "size": "\u041c\u0430\u043b\u0435\u043d\u044c\u043a\u0438\u0439", "UN_LOCODE": "CUTDZ", "country": "[CU] Cuba", "longitude": -79.55319, "latitude": 21.63314, "link": "https://www.myshiptracking.com//ru/ports/port-of-tunas-de-zaza-in-cu-cuba-id-6838"},
{"name": "TUNCURRY", "type": "\u041f\u043e\u0440\u0442", "size": "\u041c\u0430\u043b\u0435\u043d\u044c\u043a\u0438\u0439", "UN_LOCODE": "---", "country": "[AU] Australia", "longitude": 152.50221, "latitude": -32.17688, "link": "https://www.myshiptracking.com//ru/ports/port-of-tuncurry-in-au-australia-id-3960"},
{"name": "TUNO", "type": "\u041f\u043e\u0440\u0442", "size": "X\u041c\u0430\u043b\u044b\u0439", "UN_LOCODE": "DKTNO", "country": "[DK] Denmark", "longitude": 10.45528, "latitude": 55.94872, "link": "https://www.myshiptracking.com//ru/ports/port-of-tuno-in-dk-denmark-id-2597"},
{"name": "TURANJ", "type": "\u041f\u043e\u0440\u0442", "size": "\u041c\u0430\u043b\u0435\u043d\u044c\u043a\u0438\u0439", "UN_LOCODE": "HRTUR", "country": "[HR] Croatia", "longitude": 15.40631, "latitude": 43.96681, "link": "https://www.myshiptracking.com//ru/ports/port-of-turanj-in-hr-croatia-id-2787"},
{"name": "TURBO", "type": "\u041f\u043e\u0440\u0442", "size": "X\u0411\u043e\u043b\u044c\u0449\u043e\u0439", "UN_LOCODE": "COTRB", "country": "[CO] Colombia", "longitude": -76.7848, "latitude": 8.03368, "link": "https://www.myshiptracking.com//ru/ports/port-of-turbo-in-co-colombia-id-7052"},
{"name": "TURGUTREIS", "type": "\u0413\u0430\u0432\u0430\u043d\u044c", "size": "\u041c\u0430\u043b\u0435\u043d\u044c\u043a\u0438\u0439", "UN_LOCODE": "---", "country": "[TR] Turkey", "longitude": 27.25542, "latitude": 37.00109, "link": "https://www.myshiptracking.com//ru/ports/marina-of-turgutreis-in-tr-turkey-id-2166"},
{"name": "TURKAN", "type": "\u041f\u043e\u0440\u0442", "size": "\u041c\u0430\u043b\u0435\u043d\u044c\u043a\u0438\u0439", "UN_LOCODE": "---", "country": "[AZ] Azerbaijan", "longitude": 50.1566, "latitude": 40.35643, "link": "https://www.myshiptracking.com//ru/ports/port-of-turkan-in-az-azerbaijan-id-5806"},
{"name": "TURKMENBASHI", "type": "\u041f\u043e\u0440\u0442", "size": "\u0411\u043e\u043b\u044c\u0448\u043e\u0439", "UN_LOCODE": "TMKRW", "country": "[TM] Turkmenistan", "longitude": 53.02037, "latitude": 39.99463, "link": "https://www.myshiptracking.com//ru/ports/port-of-turkmenbashi-in-tm-turkmenistan-id-5844"},
{"name": "TURKU", "type": "\u041f\u043e\u0440\u0442", "size": "\u0411\u043e\u043b\u044c\u0448\u043e\u0439", "UN_LOCODE": "FITKU", "country": "[FI] Finland", "longitude": 22.20851, "latitude": 60.4336, "link": "https://www.myshiptracking.com//ru/ports/port-of-turku-in-fi-finland-id-432"},
{"name": "TURTLE ISLAND", "type": "\u041f\u043e\u0440\u0442", "size": "\u041c\u0430\u043b\u0435\u043d\u044c\u043a\u0438\u0439", "UN_LOCODE": "FJTTL", "country": "[FJ] Fiji", "longitude": 177.36969, "latitude": -16.96179, "link": "https://www.myshiptracking.com//ru/ports/port-of-turtle-island-in-fj-fiji-id-5754"},
{"name": "TUSCALOOSA", "type": "\u041f\u043e\u0440\u0442", "size": "\u0411\u043e\u043b\u044c\u0448\u043e\u0439", "UN_LOCODE": "USZZH", "country": "[US] USA", "longitude": -87.57034, "latitude": 33.21534, "link": "https://www.myshiptracking.com//ru/ports/port-of-tuscaloosa-in-us-usa-id-6350"},
{"name": "TUSSCHENLOEGEN", "type": "\u0413\u0430\u0432\u0430\u043d\u044c", "size": "X\u041c\u0430\u043b\u044b\u0439", "UN_LOCODE": "---", "country": "[NL] Netherlands", "longitude": 6.87497, "latitude": 53.16253, "link": "https://www.myshiptracking.com//ru/ports/marina-of-tusschenloegen-in-nl-netherlands-id-1175"},
{"name": "TUTICORIN", "type": "\u041f\u043e\u0440\u0442", "size": "\u0411\u043e\u043b\u044c\u0448\u043e\u0439", "UN_LOCODE": "INTUT", "country": "[IN] India", "longitude": 78.21148, "latitude": 8.76617, "link": "https://www.myshiptracking.com//ru/ports/port-of-tuticorin-in-in-india-id-3650"},
{"name": "TUXPAN", "type": "\u041f\u043e\u0440\u0442", "size": "\u0411\u043e\u043b\u044c\u0448\u043e\u0439", "UN_LOCODE": "MXTUX", "country": "[MX] Mexico", "longitude": -97.32757, "latitude": 20.96291, "link": "https://www.myshiptracking.com//ru/ports/port-of-tuxpan-in-mx-mexico-id-6548"},
{"name": "TUZLA", "type": "\u041f\u043e\u0440\u0442", "size": "\u0411\u043e\u043b\u044c\u0448\u043e\u0439", "UN_LOCODE": "TRTUZ", "country": "[TR] Turkey", "longitude": 29.26655, "latitude": 40.83265, "link": "https://www.myshiptracking.com//ru/ports/port-of-tuzla-in-tr-turkey-id-2123"},
{"name": "TVER", "type": "\u041f\u043e\u0440\u0442", "size": "X\u041c\u0430\u043b\u044b\u0439", "UN_LOCODE": "RUTVR", "country": "[RU] Russia", "longitude": 35.97733, "latitude": 56.82707, "link": "https://www.myshiptracking.com//ru/ports/port-of-tver-in-ru-russia-id-3043"},
{"name": "TWEED HEADS", "type": "\u041f\u043e\u0440\u0442", "size": "\u0411\u043e\u043b\u044c\u0448\u043e\u0439", "UN_LOCODE": "AUTHS", "country": "[AU] Australia", "longitude": 153.54842, "latitude": -28.17146, "link": "https://www.myshiptracking.com//ru/ports/port-of-tweed-heads-in-au-australia-id-3911"},
{"name": "TWIN LIGHTS", "type": "\u041f\u043e\u0440\u0442", "size": "X\u041c\u0430\u043b\u044b\u0439", "UN_LOCODE": "---", "country": "[US] USA", "longitude": -73.98229, "latitude": 40.40128, "link": "https://www.myshiptracking.com//ru/ports/port-of-twin-lights-in-us-usa-id-6061"},
{"name": "TWO HARBORS", "type": "\u041f\u043e\u0440\u0442", "size": "\u041c\u0430\u043b\u0435\u043d\u044c\u043a\u0438\u0439", "UN_LOCODE": "USTHB", "country": "[US] USA", "longitude": -91.6715, "latitude": 47.013, "link": "https://www.myshiptracking.com//ru/ports/port-of-two-harbors-in-us-usa-id-6291"},
{"name": "TWO RIVERS", "type": "\u041f\u043e\u0440\u0442", "size": "\u0421\u0440\u0435\u0434\u043d\u0438\u0439", "UN_LOCODE": "USTWR", "country": "[US] USA", "longitude": -87.56313, "latitude": 44.14495, "link": "https://www.myshiptracking.com//ru/ports/port-of-two-rivers-in-us-usa-id-5990"},
{"name": "TWO ROCKS", "type": "\u041f\u043e\u0440\u0442", "size": "\u041c\u0430\u043b\u0435\u043d\u044c\u043a\u0438\u0439", "UN_LOCODE": "---", "country": "[AU] Australia", "longitude": 115.58153, "latitude": -31.49637, "link": "https://www.myshiptracking.com//ru/ports/port-of-two-rocks-in-au-australia-id-3818"},
{"name": "TYNE", "type": "\u041f\u043e\u0440\u0442", "size": "\u0411\u043e\u043b\u044c\u0448\u043e\u0439", "UN_LOCODE": "GBTYN", "country": "[GB] United Kingdom", "longitude": -1.45852, "latitude": 54.9873, "link": "https://www.myshiptracking.com//ru/ports/port-of-tyne-in-gb-united-kingdom-id-433"},
{"name": "TYUMEN", "type": "\u041f\u043e\u0440\u0442", "size": "X\u0411\u043e\u043b\u044c\u0449\u043e\u0439", "UN_LOCODE": "RUTJM", "country": "[RU] Russia", "longitude": 65.55492, "latitude": 57.1636, "link": "https://www.myshiptracking.com//ru/ports/port-of-tyumen-in-ru-russia-id-2972"},
{"name": "UBATUBA", "type": "\u041f\u043e\u0440\u0442", "size": "\u041c\u0430\u043b\u0435\u043d\u044c\u043a\u0438\u0439", "UN_LOCODE": "BRUBT", "country": "[BR] Brazil", "longitude": -45.11769, "latitude": -23.50309, "link": "https://www.myshiptracking.com//ru/ports/port-of-ubatuba-in-br-brazil-id-6636"},
{"name": "UBE", "type": "\u041f\u043e\u0440\u0442", "size": "X\u0411\u043e\u043b\u044c\u0449\u043e\u0439", "UN_LOCODE": "JPUBJ", "country": "[JP] Japan", "longitude": 131.21338, "latitude": 33.93225, "link": "https://www.myshiptracking.com//ru/ports/port-of-ube-in-jp-japan-id-4252"},
{"name": "UBLI", "type": "\u041f\u043e\u0440\u0442", "size": "\u041c\u0430\u043b\u0435\u043d\u044c\u043a\u0438\u0439", "UN_LOCODE": "HRUBL", "country": "[HR] Croatia", "longitude": 16.8239, "latitude": 42.74792, "link": "https://www.myshiptracking.com//ru/ports/port-of-ubli-in-hr-croatia-id-2817"},
{"name": "UBUYU", "type": "\u041f\u043e\u0440\u0442", "size": "X\u041c\u0430\u043b\u044b\u0439", "UN_LOCODE": "JPUBY", "country": "[JP] Japan", "longitude": 135.08206, "latitude": 33.91163, "link": "https://www.myshiptracking.com//ru/ports/port-of-ubuyu-in-jp-japan-id-4473"},
{"name": "UCHINOURA", "type": "\u041f\u043e\u0440\u0442", "size": "\u041c\u0430\u043b\u0435\u043d\u044c\u043a\u0438\u0439", "UN_LOCODE": "JPUUR", "country": "[JP] Japan", "longitude": 131.08415, "latitude": 31.27821, "link": "https://www.myshiptracking.com//ru/ports/port-of-uchinoura-in-jp-japan-id-4686"},
{"name": "UCHIUMI", "type": "\u041f\u043e\u0440\u0442", "size": "\u041c\u0430\u043b\u0435\u043d\u044c\u043a\u0438\u0439", "UN_LOCODE": "JPUCH", "country": "[JP] Japan", "longitude": 131.47557, "latitude": 31.75585, "link": "https://www.myshiptracking.com//ru/ports/port-of-uchiumi-in-jp-japan-id-4911"},
{"name": "UCHIURA", "type": "\u041f\u043e\u0440\u0442", "size": "\u041c\u0430\u043b\u0435\u043d\u044c\u043a\u0438\u0439", "UN_LOCODE": "---", "country": "[JP] Japan", "longitude": 140.19181, "latitude": 35.12313, "link": "https://www.myshiptracking.com//ru/ports/port-of-uchiura-in-jp-japan-id-4698"},
{"name": "UCHIURA", "type": "\u041f\u043e\u0440\u0442", "size": "X\u041c\u0430\u043b\u044b\u0439", "UN_LOCODE": "JPUCR", "country": "[JP] Japan", "longitude": 139.25822, "latitude": 38.46692, "link": "https://www.myshiptracking.com//ru/ports/port-of-uchiura-in-jp-japan-id-4489"},
