{"name": "MINA AL FAHL", "type": "\u041f\u043e\u0440\u0442", "size": "X\u041c\u0430\u043b\u044b\u0439", "UN_LOCODE": "OMMFH", "country": "[OM] Oman", "longitude": 58.50881, "latitude": 23.63779, "link": "https://www.myshiptracking.com//ru/ports/port-of-mina-al-fahl-in-om-oman-id-3471"},
{"name": "MINA SAQR", "type": "\u041f\u043e\u0440\u0442", "size": "\u0411\u043e\u043b\u044c\u0448\u043e\u0439", "UN_LOCODE": "AEMSA", "country": "[AE] UAE", "longitude": 56.04897, "latitude": 25.97612, "link": "https://www.myshiptracking.com//ru/ports/port-of-mina-saqr-in-ae-uae-id-3511"},
{"name": "MINA SULMAN", "type": "\u041f\u043e\u0440\u0442", "size": "\u0411\u043e\u043b\u044c\u0448\u043e\u0439", "UN_LOCODE": "BHMIN", "country": "[BH] Bahrain", "longitude": 50.61192, "latitude": 26.19274, "link": "https://www.myshiptracking.com//ru/ports/port-of-mina-sulman-in-bh-bahrain-id-5891"},
{"name": "MINAMATA", "type": "\u041f\u043e\u0440\u0442", "size": "\u0421\u0440\u0435\u0434\u043d\u0438\u0439", "UN_LOCODE": "JPMIN", "country": "[JP] Japan", "longitude": 130.37368, "latitude": 32.18997, "link": "https://www.myshiptracking.com//ru/ports/port-of-minamata-in-jp-japan-id-4288"},
{"name": "MINAMI", "type": "\u041f\u043e\u0440\u0442", "size": "\u041c\u0430\u043b\u0435\u043d\u044c\u043a\u0438\u0439", "UN_LOCODE": "JPMNM", "country": "[JP] Japan", "longitude": 133.09991, "latitude": 36.07083, "link": "https://www.myshiptracking.com//ru/ports/port-of-minami-in-jp-japan-id-4751"},
{"name": "MINATO", "type": "\u041f\u043e\u0440\u0442", "size": "\u041c\u0430\u043b\u0435\u043d\u044c\u043a\u0438\u0439", "UN_LOCODE": "---", "country": "[JP] Japan", "longitude": 138.37004, "latitude": 34.92084, "link": "https://www.myshiptracking.com//ru/ports/port-of-minato-in-jp-japan-id-4360"},
{"name": "MINDARIE", "type": "\u0413\u0430\u0432\u0430\u043d\u044c", "size": "\u041c\u0430\u043b\u0435\u043d\u044c\u043a\u0438\u0439", "UN_LOCODE": "AUMDE", "country": "[AU] Australia", "longitude": 115.70006, "latitude": -31.6908, "link": "https://www.myshiptracking.com//ru/ports/marina-of-mindarie-in-au-australia-id-3873"},
{"name": "MINDEN", "type": "\u041f\u043e\u0440\u0442", "size": "\u0411\u043e\u043b\u044c\u0448\u043e\u0439", "UN_LOCODE": "DEMID", "country": "[DE] Germany", "longitude": 8.92008, "latitude": 52.30223, "link": "https://www.myshiptracking.com//ru/ports/port-of-minden-in-de-germany-id-2578"},
{"name": "MINE", "type": "\u041f\u043e\u0440\u0442", "size": "\u041c\u0430\u043b\u0435\u043d\u044c\u043a\u0438\u0439", "UN_LOCODE": "JPMNE", "country": "[JP] Japan", "longitude": 129.3723, "latitude": 34.4536, "link": "https://www.myshiptracking.com//ru/ports/port-of-mine-in-jp-japan-id-4409"},
{"name": "MINECHOMINE", "type": "\u041f\u043e\u0440\u0442", "size": "\u041c\u0430\u043b\u0435\u043d\u044c\u043a\u0438\u0439", "UN_LOCODE": "---", "country": "[JP] Japan", "longitude": 129.30841, "latitude": 34.46153, "link": "https://www.myshiptracking.com//ru/ports/port-of-minechomine-in-jp-japan-id-4600"},
{"name": "MINNEAPOLIS", "type": "\u041f\u043e\u0440\u0442", "size": "\u0411\u043e\u043b\u044c\u0448\u043e\u0439", "UN_LOCODE": "USMES", "country": "[US] USA", "longitude": -93.26275, "latitude": 44.98442, "link": "https://www.myshiptracking.com//ru/ports/port-of-minneapolis-in-us-usa-id-5940"},
{"name": "MIO", "type": "\u041f\u043e\u0440\u0442", "size": "\u041c\u0430\u043b\u0435\u043d\u044c\u043a\u0438\u0439", "UN_LOCODE": "---", "country": "[JP] Japan", "longitude": 135.081, "latitude": 33.8891, "link": "https://www.myshiptracking.com//ru/ports/port-of-mio-in-jp-japan-id-4253"},
{"name": "MIQUELON", "type": "\u041f\u043e\u0440\u0442", "size": "\u041c\u0430\u043b\u0435\u043d\u044c\u043a\u0438\u0439", "UN_LOCODE": "PMMQC", "country": "[PM] St Pierre Miquelon", "longitude": -56.37414, "latitude": 47.10341, "link": "https://www.myshiptracking.com//ru/ports/port-of-miquelon-in-pm-st-pierre-miquelon-id-7168"},
{"name": "MIRAMAR", "type": "\u041f\u043e\u0440\u0442", "size": "\u0421\u0440\u0435\u0434\u043d\u0438\u0439", "UN_LOCODE": "MXMIR", "country": "[MX] Mexico", "longitude": -110.94902, "latitude": 27.92037, "link": "https://www.myshiptracking.com//ru/ports/port-of-miramar-in-mx-mexico-id-6559"},
{"name": "MIRAMICHI", "type": "\u041f\u043e\u0440\u0442", "size": "\u0411\u043e\u043b\u044c\u0448\u043e\u0439", "UN_LOCODE": "CAMIR", "country": "[CA] Canada", "longitude": -65.5445, "latitude": 47.01308, "link": "https://www.myshiptracking.com//ru/ports/port-of-miramichi-in-ca-canada-id-6386"},
{"name": "MIRBAT", "type": "\u041f\u043e\u0440\u0442", "size": "\u041c\u0430\u043b\u0435\u043d\u044c\u043a\u0438\u0439", "UN_LOCODE": "---", "country": "[OM] Oman", "longitude": 54.68764, "latitude": 16.98902, "link": "https://www.myshiptracking.com//ru/ports/port-of-mirbat-in-om-oman-id-3475"},
{"name": "MIRI", "type": "\u041f\u043e\u0440\u0442", "size": "X\u0411\u043e\u043b\u044c\u0449\u043e\u0439", "UN_LOCODE": "MYMYY", "country": "[MY] Malaysia", "longitude": 113.97509, "latitude": 4.39506, "link": "https://www.myshiptracking.com//ru/ports/port-of-miri-in-my-malaysia-id-5728"},
{"name": "MISAKA", "type": "\u041f\u043e\u0440\u0442", "size": "X\u041c\u0430\u043b\u044b\u0439", "UN_LOCODE": "---", "country": "[JP] Japan", "longitude": 138.82352, "latitude": 34.61531, "link": "https://www.myshiptracking.com//ru/ports/port-of-misaka-in-jp-japan-id-4312"},
{"name": "MISAKI", "type": "\u041f\u043e\u0440\u0442", "size": "\u0421\u0440\u0435\u0434\u043d\u0438\u0439", "UN_LOCODE": "JPMSX", "country": "[JP] Japan", "longitude": 132.11366, "latitude": 33.38679, "link": "https://www.myshiptracking.com//ru/ports/port-of-misaki-in-jp-japan-id-4652"},
{"name": "MISAKIMACHI SHIPYARD", "type": "\u041f\u043e\u0440\u0442", "size": "X\u041c\u0430\u043b\u044b\u0439", "UN_LOCODE": "---", "country": "[JP] Japan", "longitude": 139.62703, "latitude": 35.1344, "link": "https://www.myshiptracking.com//ru/ports/port-of-misakimachi-shipyard-in-jp-japan-id-4320"},
{"name": "MISAWA", "type": "\u041f\u043e\u0440\u0442", "size": "\u041c\u0430\u043b\u0435\u043d\u044c\u043a\u0438\u0439", "UN_LOCODE": "JPMSJ", "country": "[JP] Japan", "longitude": 141.44099, "latitude": 40.6805, "link": "https://www.myshiptracking.com//ru/ports/port-of-misawa-in-jp-japan-id-4516"},
{"name": "MISHO", "type": "\u041f\u043e\u0440\u0442", "size": "\u0421\u0440\u0435\u0434\u043d\u0438\u0439", "UN_LOCODE": "JPMSO", "country": "[JP] Japan", "longitude": 132.53755, "latitude": 32.96592, "link": "https://www.myshiptracking.com//ru/ports/port-of-misho-in-jp-japan-id-4799"},
{"name": "MISNJAK", "type": "\u041f\u043e\u0440\u0442", "size": "\u041c\u0430\u043b\u0435\u043d\u044c\u043a\u0438\u0439", "UN_LOCODE": "HRMNK", "country": "[HR] Croatia", "longitude": 14.86217, "latitude": 44.70551, "link": "https://www.myshiptracking.com//ru/ports/port-of-misnjak-in-hr-croatia-id-2864"},
{"name": "MISS CROIX", "type": "\u041f\u043e\u0440\u0442", "size": "X\u041c\u0430\u043b\u044b\u0439", "UN_LOCODE": "---", "country": "[US] USA", "longitude": -92.79537, "latitude": 44.74273, "link": "https://www.myshiptracking.com//ru/ports/port-of-miss-croix-in-us-usa-id-5929"},
{"name": "MISSION", "type": "\u041f\u043e\u0440\u0442", "size": "\u041c\u0430\u043b\u0435\u043d\u044c\u043a\u0438\u0439", "UN_LOCODE": "CAMIB", "country": "[CA] Canada", "longitude": -122.31433, "latitude": 49.12286, "link": "https://www.myshiptracking.com//ru/ports/port-of-mission-in-ca-canada-id-6470"},
{"name": "MISSUNDER", "type": "\u0413\u0430\u0432\u0430\u043d\u044c", "size": "\u041c\u0430\u043b\u0435\u043d\u044c\u043a\u0438\u0439", "UN_LOCODE": "---", "country": "[DE] Germany", "longitude": 9.7209, "latitude": 54.52418, "link": "https://www.myshiptracking.com//ru/ports/marina-of-missunder-in-de-germany-id-1372"},
{"name": "MISTEN", "type": "\u041f\u043e\u0440\u0442", "size": "X\u041c\u0430\u043b\u044b\u0439", "UN_LOCODE": "NOMIT", "country": "[NO] Norway", "longitude": 14.72988, "latitude": 67.45198, "link": "https://www.myshiptracking.com//ru/ports/port-of-misten-in-no-norway-id-5152"},
{"name": "MISTLEY", "type": "\u041f\u043e\u0440\u0442", "size": "\u041c\u0430\u043b\u0435\u043d\u044c\u043a\u0438\u0439", "UN_LOCODE": "GBMIS", "country": "[GB] United Kingdom", "longitude": 1.08364, "latitude": 51.94565, "link": "https://www.myshiptracking.com//ru/ports/port-of-mistley-in-gb-united-kingdom-id-1593"},
{"name": "MISUMI", "type": "\u041f\u043e\u0440\u0442", "size": "\u0421\u0440\u0435\u0434\u043d\u0438\u0439", "UN_LOCODE": "JPMMI", "country": "[JP] Japan", "longitude": 131.9274, "latitude": 34.78982, "link": "https://www.myshiptracking.com//ru/ports/port-of-misumi-in-jp-japan-id-4899"},
{"name": "MISUMISHIMO", "type": "\u041f\u043e\u0440\u0442", "size": "\u041c\u0430\u043b\u0435\u043d\u044c\u043a\u0438\u0439", "UN_LOCODE": "---", "country": "[JP] Japan", "longitude": 131.24987, "latitude": 34.38344, "link": "https://www.myshiptracking.com//ru/ports/port-of-misumishimo-in-jp-japan-id-4299"},
{"name": "MISURATA", "type": "\u041f\u043e\u0440\u0442", "size": "\u0411\u043e\u043b\u044c\u0448\u043e\u0439", "UN_LOCODE": "LYMRA", "country": "[LY] Libya", "longitude": 15.23702, "latitude": 32.35851, "link": "https://www.myshiptracking.com//ru/ports/port-of-misurata-in-ly-libya-id-3197"},
{"name": "MITA", "type": "\u041f\u043e\u0440\u0442", "size": "\u041c\u0430\u043b\u0435\u043d\u044c\u043a\u0438\u0439", "UN_LOCODE": "JPMXT", "country": "[JP] Japan", "longitude": 133.00781, "latitude": 36.10243, "link": "https://www.myshiptracking.com//ru/ports/port-of-mita-in-jp-japan-id-4378"},
{"name": "MITAJIRI", "type": "\u041f\u043e\u0440\u0442", "size": "\u0411\u043e\u043b\u044c\u0448\u043e\u0439", "UN_LOCODE": "JPMJR", "country": "[JP] Japan", "longitude": 131.59413, "latitude": 34.0313, "link": "https://www.myshiptracking.com//ru/ports/port-of-mitajiri-in-jp-japan-id-4693"},
{"name": "MITAKA", "type": "\u041f\u043e\u0440\u0442", "size": "\u041c\u0430\u043b\u0435\u043d\u044c\u043a\u0438\u0439", "UN_LOCODE": "JPMIT", "country": "[JP] Japan", "longitude": 132.40829, "latitude": 34.26016, "link": "https://www.myshiptracking.com//ru/ports/port-of-mitaka-in-jp-japan-id-4310"},
{"name": "MITHYMNA", "type": "\u0413\u0430\u0432\u0430\u043d\u044c", "size": "X\u041c\u0430\u043b\u044b\u0439", "UN_LOCODE": "---", "country": "[GR] Greece", "longitude": 26.16885, "latitude": 39.36829, "link": "https://www.myshiptracking.com//ru/ports/marina-of-mithymna-in-gr-greece-id-821"},
{"name": "MITSU", "type": "\u041f\u043e\u0440\u0442", "size": "\u041c\u0430\u043b\u0435\u043d\u044c\u043a\u0438\u0439", "UN_LOCODE": "---", "country": "[JP] Japan", "longitude": 133.02744, "latitude": 35.5406, "link": "https://www.myshiptracking.com//ru/ports/port-of-mitsu-in-jp-japan-id-4844"},
{"name": "MITSUKE", "type": "\u041f\u043e\u0440\u0442", "size": "\u041c\u0430\u043b\u0435\u043d\u044c\u043a\u0438\u0439", "UN_LOCODE": "JPMSE", "country": "[JP] Japan", "longitude": 132.24753, "latitude": 33.45884, "link": "https://www.myshiptracking.com//ru/ports/port-of-mitsuke-in-jp-japan-id-4794"},
{"name": "MITSUSHIMACHO", "type": "\u041f\u043e\u0440\u0442", "size": "\u041c\u0430\u043b\u0435\u043d\u044c\u043a\u0438\u0439", "UN_LOCODE": "---", "country": "[JP] Japan", "longitude": 129.37824, "latitude": 34.36973, "link": "https://www.myshiptracking.com//ru/ports/port-of-mitsushimacho-in-jp-japan-id-4708"},
{"name": "MIYAJIMA", "type": "\u041f\u043e\u0440\u0442", "size": "\u041c\u0430\u043b\u0435\u043d\u044c\u043a\u0438\u0439", "UN_LOCODE": "---", "country": "[JP] Japan", "longitude": 132.32161, "latitude": 34.3035, "link": "https://www.myshiptracking.com//ru/ports/port-of-miyajima-in-jp-japan-id-4441"},
{"name": "MIYAJIMAGUCHI", "type": "\u041f\u043e\u0440\u0442", "size": "X\u041c\u0430\u043b\u044b\u0439", "UN_LOCODE": "---", "country": "[JP] Japan", "longitude": 132.30814, "latitude": 34.31151, "link": "https://www.myshiptracking.com//ru/ports/port-of-miyajimaguchi-in-jp-japan-id-4838"},
{"name": "MIYAKO", "type": "\u041f\u043e\u0440\u0442", "size": "\u0421\u0440\u0435\u0434\u043d\u0438\u0439", "UN_LOCODE": "JPMYK", "country": "[JP] Japan", "longitude": 141.9684, "latitude": 39.638, "link": "https://www.myshiptracking.com//ru/ports/port-of-miyako-in-jp-japan-id-4849"},
{"name": "MIYANOURA", "type": "\u041f\u043e\u0440\u0442", "size": "\u041c\u0430\u043b\u0435\u043d\u044c\u043a\u0438\u0439", "UN_LOCODE": "---", "country": "[JP] Japan", "longitude": 133.97251, "latitude": 34.45663, "link": "https://www.myshiptracking.com//ru/ports/port-of-miyanoura-in-jp-japan-id-4750"},
{"name": "MIYAZAKI", "type": "\u041f\u043e\u0440\u0442", "size": "\u041c\u0430\u043b\u0435\u043d\u044c\u043a\u0438\u0439", "UN_LOCODE": "JPKMI", "country": "[JP] Japan", "longitude": 131.46134, "latitude": 31.90861, "link": "https://www.myshiptracking.com//ru/ports/port-of-miyazaki-in-jp-japan-id-4638"},
{"name": "MIYAZU", "type": "\u041f\u043e\u0440\u0442", "size": "\u0421\u0440\u0435\u0434\u043d\u0438\u0439", "UN_LOCODE": "JPMIY", "country": "[JP] Japan", "longitude": 135.19612, "latitude": 35.54513, "link": "https://www.myshiptracking.com//ru/ports/port-of-miyazu-in-jp-japan-id-4587"},
{"name": "MIZUHAMA", "type": "\u041f\u043e\u0440\u0442", "size": "\u041c\u0430\u043b\u0435\u043d\u044c\u043a\u0438\u0439", "UN_LOCODE": "---", "country": "[JP] Japan", "longitude": 141.48959, "latitude": 38.50158, "link": "https://www.myshiptracking.com//ru/ports/port-of-mizuhama-in-jp-japan-id-4614"},
{"name": "MIZUNOSHITA", "type": "\u041f\u043e\u0440\u0442", "size": "\u041c\u0430\u043b\u0435\u043d\u044c\u043a\u0438\u0439", "UN_LOCODE": "---", "country": "[JP] Japan", "longitude": 140.86935, "latitude": 40.94355, "link": "https://www.myshiptracking.com//ru/ports/port-of-mizunoshita-in-jp-japan-id-4429"},
{"name": "MIZUSAKI", "type": "\u041f\u043e\u0440\u0442", "size": "\u041c\u0430\u043b\u0435\u043d\u044c\u043a\u0438\u0439", "UN_LOCODE": "JPMZS", "country": "[JP] Japan", "longitude": 129.26748, "latitude": 34.35536, "link": "https://www.myshiptracking.com//ru/ports/port-of-mizusaki-in-jp-japan-id-4781"},
{"name": "MIZUSHIMA", "type": "\u041f\u043e\u0440\u0442", "size": "X\u0411\u043e\u043b\u044c\u0449\u043e\u0439", "UN_LOCODE": "JPMIZ", "country": "[JP] Japan", "longitude": 133.69299, "latitude": 34.47909, "link": "https://www.myshiptracking.com//ru/ports/port-of-mizushima-in-jp-japan-id-4285"},
{"name": "MJOLSTADNESET ", "type": "\u041f\u043e\u0440\u0442", "size": "\u041c\u0430\u043b\u0435\u043d\u044c\u043a\u0438\u0439", "UN_LOCODE": "NOMSD", "country": "[NO] Norway", "longitude": 5.66882, "latitude": 62.32132, "link": "https://www.myshiptracking.com//ru/ports/port-of-mjolstadneset--in-no-norway-id-5216"},
{"name": "MOA", "type": "\u041f\u043e\u0440\u0442", "size": "\u041c\u0430\u043b\u0435\u043d\u044c\u043a\u0438\u0439", "UN_LOCODE": "CUMOA", "country": "[CU] Cuba", "longitude": -74.93764, "latitude": 20.66753, "link": "https://www.myshiptracking.com//ru/ports/port-of-moa-in-cu-cuba-id-6829"},
