{"name": "IPSOS SOUTH", "type": "\u0413\u0430\u0432\u0430\u043d\u044c", "size": "X\u041c\u0430\u043b\u044b\u0439", "UN_LOCODE": "---", "country": "[GR] Greece", "longitude": 19.83923, "latitude": 39.6948, "link": "https://www.myshiptracking.com//ru/ports/marina-of-ipsos-south-in-gr-greece-id-530"},
{"name": "IPSWICH", "type": "\u041f\u043e\u0440\u0442", "size": "\u0421\u0440\u0435\u0434\u043d\u0438\u0439", "UN_LOCODE": "GBIPS", "country": "[GB] United Kingdom", "longitude": 1.15925, "latitude": 52.0439, "link": "https://www.myshiptracking.com//ru/ports/port-of-ipswich-in-gb-united-kingdom-id-226"},
{"name": "IQUIQUE", "type": "\u041f\u043e\u0440\u0442", "size": "\u0421\u0440\u0435\u0434\u043d\u0438\u0439", "UN_LOCODE": "CLIQQ", "country": "[CL] Chile", "longitude": -70.15303, "latitude": -20.20341, "link": "https://www.myshiptracking.com//ru/ports/port-of-iquique-in-cl-chile-id-6762"},
{"name": "IQUITOS", "type": "\u041f\u043e\u0440\u0442", "size": "\u041c\u0430\u043b\u0435\u043d\u044c\u043a\u0438\u0439", "UN_LOCODE": "PEIQT", "country": "[PE] Peru", "longitude": -73.23724, "latitude": -3.72671, "link": "https://www.myshiptracking.com//ru/ports/port-of-iquitos-in-pe-peru-id-6932"},
{"name": "IRAKLIA", "type": "\u041f\u043e\u0440\u0442", "size": "\u041c\u0430\u043b\u0435\u043d\u044c\u043a\u0438\u0439", "UN_LOCODE": "GRHRK", "country": "[GR] Greece", "longitude": 25.4726, "latitude": 36.8661, "link": "https://www.myshiptracking.com//ru/ports/port-of-iraklia-in-gr-greece-id-67"},
{"name": "IRAKO", "type": "\u041f\u043e\u0440\u0442", "size": "\u041c\u0430\u043b\u0435\u043d\u044c\u043a\u0438\u0439", "UN_LOCODE": "---", "country": "[JP] Japan", "longitude": 137.02113, "latitude": 34.58597, "link": "https://www.myshiptracking.com//ru/ports/port-of-irako-in-jp-japan-id-4626"},
{"name": "IRIA", "type": "\u0413\u0430\u0432\u0430\u043d\u044c", "size": "X\u041c\u0430\u043b\u044b\u0439", "UN_LOCODE": "---", "country": "[GR] Greece", "longitude": 22.99874, "latitude": 37.47798, "link": "https://www.myshiptracking.com//ru/ports/marina-of-iria-in-gr-greece-id-853"},
{"name": "IROZAKI", "type": "\u041f\u043e\u0440\u0442", "size": "X\u041c\u0430\u043b\u044b\u0439", "UN_LOCODE": "---", "country": "[JP] Japan", "longitude": 138.84317, "latitude": 34.6079, "link": "https://www.myshiptracking.com//ru/ports/port-of-irozaki-in-jp-japan-id-4716"},
{"name": "IRVINE", "type": "\u0413\u0430\u0432\u0430\u043d\u044c", "size": "X\u041c\u0430\u043b\u044b\u0439", "UN_LOCODE": "GBIRV", "country": "[GB] United Kingdom", "longitude": -4.68348, "latitude": 55.6085, "link": "https://www.myshiptracking.com//ru/ports/marina-of-irvine-in-gb-united-kingdom-id-2365"},
{"name": "ISABEL", "type": "\u041f\u043e\u0440\u0442", "size": "\u0411\u043e\u043b\u044c\u0448\u043e\u0439", "UN_LOCODE": "PHISL", "country": "[PH] Philippines", "longitude": 124.43199, "latitude": 10.91957, "link": "https://www.myshiptracking.com//ru/ports/port-of-isabel-in-ph-philippines-id-5395"},
{"name": "ISAFJORDUR", "type": "\u041f\u043e\u0440\u0442", "size": "\u0421\u0440\u0435\u0434\u043d\u0438\u0439", "UN_LOCODE": "ISISA", "country": "[IS] Iceland", "longitude": -23.11099, "latitude": 66.07061, "link": "https://www.myshiptracking.com//ru/ports/port-of-isafjordur-in-is-iceland-id-5571"},
{"name": "ISCHIA", "type": "\u041f\u043e\u0440\u0442", "size": "X\u041c\u0430\u043b\u044b\u0439", "UN_LOCODE": "ITPDI", "country": "[IT] Italy", "longitude": 13.94114, "latitude": 40.74504, "link": "https://www.myshiptracking.com//ru/ports/port-of-ischia-in-it-italy-id-2092"},
{"name": "ISDALSTO", "type": "\u041f\u043e\u0440\u0442", "size": "X\u041c\u0430\u043b\u044b\u0439", "UN_LOCODE": "NOISD", "country": "[NO] Norway", "longitude": 5.26959, "latitude": 60.55359, "link": "https://www.myshiptracking.com//ru/ports/port-of-isdalsto-in-no-norway-id-5260"},
{"name": "ISHIKARIWANSHIN", "type": "\u041f\u043e\u0440\u0442", "size": "\u0411\u043e\u043b\u044c\u0448\u043e\u0439", "UN_LOCODE": "JPISI", "country": "[JP] Japan", "longitude": 141.28508, "latitude": 43.20193, "link": "https://www.myshiptracking.com//ru/ports/port-of-ishikariwanshin-in-jp-japan-id-4680"},
{"name": "ISHINOMAKI", "type": "\u041f\u043e\u0440\u0442", "size": "\u0411\u043e\u043b\u044c\u0448\u043e\u0439", "UN_LOCODE": "JPISM", "country": "[JP] Japan", "longitude": 141.28102, "latitude": 38.40112, "link": "https://www.myshiptracking.com//ru/ports/port-of-ishinomaki-in-jp-japan-id-227"},
{"name": "ISKENDERUN", "type": "\u041f\u043e\u0440\u0442", "size": "X\u0411\u043e\u043b\u044c\u0449\u043e\u0439", "UN_LOCODE": "TRISK", "country": "[TR] Turkey", "longitude": 36.17515, "latitude": 36.61097, "link": "https://www.myshiptracking.com//ru/ports/port-of-iskenderun-in-tr-turkey-id-3130"},
{"name": "ISLA ARENA", "type": "\u041f\u043e\u0440\u0442", "size": "\u041c\u0430\u043b\u0435\u043d\u044c\u043a\u0438\u0439", "UN_LOCODE": "---", "country": "[MX] Mexico", "longitude": -90.45409, "latitude": 20.68848, "link": "https://www.myshiptracking.com//ru/ports/port-of-isla-arena-in-mx-mexico-id-6552"},
{"name": "ISLA CRISTINA", "type": "\u041f\u043e\u0440\u0442", "size": "\u041c\u0430\u043b\u0435\u043d\u044c\u043a\u0438\u0439", "UN_LOCODE": "ESZGA", "country": "[ES] Spain", "longitude": -7.3279, "latitude": 37.19647, "link": "https://www.myshiptracking.com//ru/ports/port-of-isla-cristina-in-es-spain-id-1963"},
{"name": "ISLA DE AROSA", "type": "\u041f\u043e\u0440\u0442", "size": "\u041c\u0430\u043b\u0435\u043d\u044c\u043a\u0438\u0439", "UN_LOCODE": "ESIAL", "country": "[ES] Spain", "longitude": -8.86677, "latitude": 42.56668, "link": "https://www.myshiptracking.com//ru/ports/port-of-isla-de-arosa-in-es-spain-id-1892"},
{"name": "ISLA GRANDE", "type": "\u041f\u043e\u0440\u0442", "size": "X\u041c\u0430\u043b\u044b\u0439", "UN_LOCODE": "---", "country": "[PA] Panama", "longitude": -79.56679, "latitude": 9.62787, "link": "https://www.myshiptracking.com//ru/ports/port-of-isla-grande-in-pa-panama-id-6905"},
{"name": "ISLA MUJERES", "type": "\u041f\u043e\u0440\u0442", "size": "\u041c\u0430\u043b\u0435\u043d\u044c\u043a\u0438\u0439", "UN_LOCODE": "MXISJ", "country": "[MX] Mexico", "longitude": -86.74724, "latitude": 21.25121, "link": "https://www.myshiptracking.com//ru/ports/port-of-isla-mujeres-in-mx-mexico-id-6574"},
{"name": "ISLA QUINCHAO", "type": "\u041f\u043e\u0440\u0442", "size": "X\u041c\u0430\u043b\u044b\u0439", "UN_LOCODE": "---", "country": "[CL] Chile", "longitude": -73.65554, "latitude": -42.38719, "link": "https://www.myshiptracking.com//ru/ports/port-of-isla-quinchao-in-cl-chile-id-6728"},
{"name": "ISLAND HARBOUR MARINA", "type": "\u0413\u0430\u0432\u0430\u043d\u044c", "size": "X\u041c\u0430\u043b\u044b\u0439", "UN_LOCODE": "---", "country": "[GB] United Kingdom", "longitude": -1.27746, "latitude": 50.72532, "link": "https://www.myshiptracking.com//ru/ports/marina-of-island-harbour-marina-in-gb-united-kingdom-id-2415"},
{"name": "ISLE OF RAASAY", "type": "\u0413\u0430\u0432\u0430\u043d\u044c", "size": "\u041c\u0430\u043b\u0435\u043d\u044c\u043a\u0438\u0439", "UN_LOCODE": "---", "country": "[GB] United Kingdom", "longitude": -6.08428, "latitude": 57.35045, "link": "https://www.myshiptracking.com//ru/ports/marina-of-isle-of-raasay-in-gb-united-kingdom-id-2310"},
{"name": "ISLE OF WHITHORN", "type": "\u0413\u0430\u0432\u0430\u043d\u044c", "size": "\u041c\u0430\u043b\u0435\u043d\u044c\u043a\u0438\u0439", "UN_LOCODE": "GBWHH", "country": "[GB] United Kingdom", "longitude": -4.36436, "latitude": 54.69796, "link": "https://www.myshiptracking.com//ru/ports/marina-of-isle-of-whithorn-in-gb-united-kingdom-id-2461"},
{"name": "ISLES OF SCILLY", "type": "\u041f\u043e\u0440\u0442", "size": "\u041c\u0430\u043b\u0435\u043d\u044c\u043a\u0438\u0439", "UN_LOCODE": "GBISC", "country": "[GB] United Kingdom", "longitude": -6.31521, "latitude": 49.91961, "link": "https://www.myshiptracking.com//ru/ports/port-of-isles-of-scilly-in-gb-united-kingdom-id-1621"},
{"name": "ISLYAMOVA", "type": "\u041f\u043e\u0440\u0442", "size": "X\u041c\u0430\u043b\u044b\u0439", "UN_LOCODE": "---", "country": "[RU] Russia", "longitude": 131.82691, "latitude": 43.04964, "link": "https://www.myshiptracking.com//ru/ports/port-of-islyamova-in-ru-russia-id-3058"},
{"name": "ISMAILIA", "type": "\u041f\u043e\u0440\u0442", "size": "\u0421\u0440\u0435\u0434\u043d\u0438\u0439", "UN_LOCODE": "EGISM", "country": "[EG] Egypt", "longitude": 32.28709, "latitude": 30.58285, "link": "https://www.myshiptracking.com//ru/ports/port-of-ismailia-in-eg-egypt-id-3175"},
{"name": "ISOHAMA", "type": "\u041f\u043e\u0440\u0442", "size": "\u041c\u0430\u043b\u0435\u043d\u044c\u043a\u0438\u0439", "UN_LOCODE": "---", "country": "[JP] Japan", "longitude": 140.92962, "latitude": 37.90303, "link": "https://www.myshiptracking.com//ru/ports/port-of-isohama-in-jp-japan-id-4922"},
{"name": "ISOMURA", "type": "\u041f\u043e\u0440\u0442", "size": "X\u041c\u0430\u043b\u044b\u0439", "UN_LOCODE": "---", "country": "[JP] Japan", "longitude": 140.10845, "latitude": 35.0936, "link": "https://www.myshiptracking.com//ru/ports/port-of-isomura-in-jp-japan-id-4506"},
{"name": "ISOTAKECHO", "type": "\u041f\u043e\u0440\u0442", "size": "\u041c\u0430\u043b\u0435\u043d\u044c\u043a\u0438\u0439", "UN_LOCODE": "---", "country": "[JP] Japan", "longitude": 132.4187, "latitude": 35.18472, "link": "https://www.myshiptracking.com//ru/ports/port-of-isotakecho-in-jp-japan-id-4556"},
{"name": "ISOZAKI", "type": "\u041f\u043e\u0440\u0442", "size": "\u041c\u0430\u043b\u0435\u043d\u044c\u043a\u0438\u0439", "UN_LOCODE": "JPISX", "country": "[JP] Japan", "longitude": 141.07616, "latitude": 38.3731, "link": "https://www.myshiptracking.com//ru/ports/port-of-isozaki-in-jp-japan-id-4978"},
{"name": "IST", "type": "\u041f\u043e\u0440\u0442", "size": "\u041c\u0430\u043b\u0435\u043d\u044c\u043a\u0438\u0439", "UN_LOCODE": "HRIST", "country": "[HR] Croatia", "longitude": 14.7676, "latitude": 44.2696, "link": "https://www.myshiptracking.com//ru/ports/port-of-ist-in-hr-croatia-id-2788"},
{"name": "ISTANBUL", "type": "\u041f\u043e\u0440\u0442", "size": "X\u0411\u043e\u043b\u044c\u0449\u043e\u0439", "UN_LOCODE": "TRIST", "country": "[TR] Turkey", "longitude": 28.99726, "latitude": 41.02042, "link": "https://www.myshiptracking.com//ru/ports/port-of-istanbul-in-tr-turkey-id-2171"},
{"name": "ITABASHI", "type": "\u041f\u043e\u0440\u0442", "size": "X\u041c\u0430\u043b\u044b\u0439", "UN_LOCODE": "---", "country": "[JP] Japan", "longitude": 141.54537, "latitude": 38.71041, "link": "https://www.myshiptracking.com//ru/ports/port-of-itabashi-in-jp-japan-id-4825"},
{"name": "ITACOATIARA", "type": "\u041f\u043e\u0440\u0442", "size": "\u041c\u0430\u043b\u0435\u043d\u044c\u043a\u0438\u0439", "UN_LOCODE": "BRITA", "country": "[BR] Brazil", "longitude": -58.44709, "latitude": -3.15077, "link": "https://www.myshiptracking.com//ru/ports/port-of-itacoatiara-in-br-brazil-id-6643"},
{"name": "ITAGUAI", "type": "\u041f\u043e\u0440\u0442", "size": "\u0421\u0440\u0435\u0434\u043d\u0438\u0439", "UN_LOCODE": "BRIGI", "country": "[BR] Brazil", "longitude": -43.84969, "latitude": -22.93413, "link": "https://www.myshiptracking.com//ru/ports/port-of-itaguai-in-br-brazil-id-6705"},
{"name": "ITAIPAVA", "type": "\u041f\u043e\u0440\u0442", "size": "\u041c\u0430\u043b\u0435\u043d\u044c\u043a\u0438\u0439", "UN_LOCODE": "BRITV", "country": "[BR] Brazil", "longitude": -40.77163, "latitude": -20.8931, "link": "https://www.myshiptracking.com//ru/ports/port-of-itaipava-in-br-brazil-id-6700"},
{"name": "ITAJAI", "type": "\u041f\u043e\u0440\u0442", "size": "\u041c\u0430\u043b\u0435\u043d\u044c\u043a\u0438\u0439", "UN_LOCODE": "BRITJ", "country": "[BR] Brazil", "longitude": -48.66068, "latitude": -26.90088, "link": "https://www.myshiptracking.com//ru/ports/port-of-itajai-in-br-brazil-id-6638"},
{"name": "ITANHAEM", "type": "\u041f\u043e\u0440\u0442", "size": "\u041c\u0430\u043b\u0435\u043d\u044c\u043a\u0438\u0439", "UN_LOCODE": "BRITH", "country": "[BR] Brazil", "longitude": -46.79546, "latitude": -24.18901, "link": "https://www.myshiptracking.com//ru/ports/port-of-itanhaem-in-br-brazil-id-6630"},
{"name": "ITAORNA", "type": "\u041f\u043e\u0440\u0442", "size": "\u041c\u0430\u043b\u0435\u043d\u044c\u043a\u0438\u0439", "UN_LOCODE": "---", "country": "[BR] Brazil", "longitude": -44.46214, "latitude": -23.01218, "link": "https://www.myshiptracking.com//ru/ports/port-of-itaorna-in-br-brazil-id-6659"},
{"name": "ITAPOA", "type": "\u041f\u043e\u0440\u0442", "size": "\u041c\u0430\u043b\u0435\u043d\u044c\u043a\u0438\u0439", "UN_LOCODE": "BRIOA", "country": "[BR] Brazil", "longitude": -48.60292, "latitude": -26.18592, "link": "https://www.myshiptracking.com//ru/ports/port-of-itapoa-in-br-brazil-id-6678"},
{"name": "ITAQUI", "type": "\u041f\u043e\u0440\u0442", "size": "\u0421\u0440\u0435\u0434\u043d\u0438\u0439", "UN_LOCODE": "BRITQ", "country": "[BR] Brazil", "longitude": -44.37487, "latitude": -2.5763, "link": "https://www.myshiptracking.com//ru/ports/port-of-itaqui-in-br-brazil-id-6680"},
{"name": "ITEA", "type": "\u041f\u043e\u0440\u0442", "size": "\u0411\u043e\u043b\u044c\u0448\u043e\u0439", "UN_LOCODE": "GRITA", "country": "[GR] Greece", "longitude": 22.4211, "latitude": 38.4266, "link": "https://www.myshiptracking.com//ru/ports/port-of-itea-in-gr-greece-id-45"},
{"name": "ITHAKI", "type": "\u041f\u043e\u0440\u0442", "size": "\u041c\u0430\u043b\u0435\u043d\u044c\u043a\u0438\u0439", "UN_LOCODE": "GRITH", "country": "[GR] Greece", "longitude": 20.71516, "latitude": 38.36891, "link": "https://www.myshiptracking.com//ru/ports/port-of-ithaki-in-gr-greece-id-801"},
{"name": "ITO", "type": "\u041f\u043e\u0440\u0442", "size": "\u041c\u0430\u043b\u0435\u043d\u044c\u043a\u0438\u0439", "UN_LOCODE": "JPITJ", "country": "[JP] Japan", "longitude": 139.10539, "latitude": 34.97435, "link": "https://www.myshiptracking.com//ru/ports/port-of-ito-in-jp-japan-id-4563"},
{"name": "ITOIGAWA", "type": "\u041f\u043e\u0440\u0442", "size": "\u041c\u0430\u043b\u0435\u043d\u044c\u043a\u0438\u0439", "UN_LOCODE": "JPITW", "country": "[JP] Japan", "longitude": 137.84393, "latitude": 37.04613, "link": "https://www.myshiptracking.com//ru/ports/port-of-itoigawa-in-jp-japan-id-4943"},
{"name": "ITTEREN", "type": "\u041f\u043e\u0440\u0442", "size": "\u041c\u0430\u043b\u0435\u043d\u044c\u043a\u0438\u0439", "UN_LOCODE": "NLITR", "country": "[NL] Netherlands", "longitude": 5.72091, "latitude": 50.90437, "link": "https://www.myshiptracking.com//ru/ports/port-of-itteren-in-nl-netherlands-id-888"},
{"name": "ITZEHOE", "type": "\u041f\u043e\u0440\u0442", "size": "\u041c\u0430\u043b\u0435\u043d\u044c\u043a\u0438\u0439", "UN_LOCODE": "DEITZ", "country": "[DE] Germany", "longitude": 9.50314, "latitude": 53.9208, "link": "https://www.myshiptracking.com//ru/ports/port-of-itzehoe-in-de-germany-id-1362"},
{"name": "IWAFUNE", "type": "\u041f\u043e\u0440\u0442", "size": "\u041c\u0430\u043b\u0435\u043d\u044c\u043a\u0438\u0439", "UN_LOCODE": "JPIWH", "country": "[JP] Japan", "longitude": 139.42728, "latitude": 38.18689, "link": "https://www.myshiptracking.com//ru/ports/port-of-iwafune-in-jp-japan-id-4331"},
