{"name": "AYACARA", "type": "\u041f\u043e\u0440\u0442", "size": "\u041c\u0430\u043b\u0435\u043d\u044c\u043a\u0438\u0439", "UN_LOCODE": "CLAYA", "country": "[CL] Chile", "longitude": -72.78786, "latitude": -42.31755, "link": "https://www.myshiptracking.com//ru/ports/port-of-ayacara-in-cl-chile-id-6736"},
{"name": "AYAJIN", "type": "\u041f\u043e\u0440\u0442", "size": "\u041c\u0430\u043b\u0435\u043d\u044c\u043a\u0438\u0439", "UN_LOCODE": "---", "country": "[KR] Korea", "longitude": 128.55817, "latitude": 38.27242, "link": "https://www.myshiptracking.com//ru/ports/port-of-ayajin-in-kr-korea-id-5519"},
{"name": "AYR", "type": "\u041f\u043e\u0440\u0442", "size": "\u0421\u0440\u0435\u0434\u043d\u0438\u0439", "UN_LOCODE": "GBAYR", "country": "[GB] United Kingdom", "longitude": -4.6406, "latitude": 55.4688, "link": "https://www.myshiptracking.com//ru/ports/port-of-ayr-in-gb-united-kingdom-id-1601"},
{"name": "AYUKAWA", "type": "\u041f\u043e\u0440\u0442", "size": "\u041c\u0430\u043b\u0435\u043d\u044c\u043a\u0438\u0439", "UN_LOCODE": "JPAYU", "country": "[JP] Japan", "longitude": 141.50696, "latitude": 38.29476, "link": "https://www.myshiptracking.com//ru/ports/port-of-ayukawa-in-jp-japan-id-4585"},
{"name": "AYVALIK", "type": "\u041f\u043e\u0440\u0442", "size": "\u0421\u0440\u0435\u0434\u043d\u0438\u0439", "UN_LOCODE": "TRAYV", "country": "[TR] Turkey", "longitude": 26.69253, "latitude": 39.32679, "link": "https://www.myshiptracking.com//ru/ports/port-of-ayvalik-in-tr-turkey-id-2115"},
{"name": "AZ ZAWIYAH", "type": "\u041f\u043e\u0440\u0442", "size": "\u041c\u0430\u043b\u0435\u043d\u044c\u043a\u0438\u0439", "UN_LOCODE": "LYZAW", "country": "[LY] Libya", "longitude": 12.67835, "latitude": 32.79401, "link": "https://www.myshiptracking.com//ru/ports/port-of-az-zawiyah-in-ly-libya-id-3186"},
{"name": "AZ ZUWAYTINAH", "type": "\u041f\u043e\u0440\u0442", "size": "\u041c\u0430\u043b\u0435\u043d\u044c\u043a\u0438\u0439", "UN_LOCODE": "---", "country": "[LY] Libya", "longitude": 20.06964, "latitude": 30.89981, "link": "https://www.myshiptracking.com//ru/ports/port-of-az-zuwaytinah-in-ly-libya-id-3188"},
{"name": "AZEFFUN", "type": "\u041f\u043e\u0440\u0442", "size": "X\u041c\u0430\u043b\u044b\u0439", "UN_LOCODE": "---", "country": "[DZ] Algeria", "longitude": 4.41986, "latitude": 36.9037, "link": "https://www.myshiptracking.com//ru/ports/port-of-azeffun-in-dz-algeria-id-3245"},
{"name": "AZOV", "type": "\u041f\u043e\u0440\u0442", "size": "\u0421\u0440\u0435\u0434\u043d\u0438\u0439", "UN_LOCODE": "RUAZO", "country": "[RU] Russia", "longitude": 39.40236, "latitude": 47.12064, "link": "https://www.myshiptracking.com//ru/ports/port-of-azov-in-ru-russia-id-3093"},
{"name": "BA NGOI", "type": "\u041f\u043e\u0440\u0442", "size": "\u0411\u043e\u043b\u044c\u0448\u043e\u0439", "UN_LOCODE": "VNBNO", "country": "[VN] Vietnam", "longitude": 109.14559, "latitude": 11.89045, "link": "https://www.myshiptracking.com//ru/ports/port-of-ba-ngoi-in-vn-vietnam-id-4082"},
{"name": "BAAMBRUGGE", "type": "\u0413\u0430\u0432\u0430\u043d\u044c", "size": "X\u041c\u0430\u043b\u044b\u0439", "UN_LOCODE": "---", "country": "[NL] Netherlands", "longitude": 4.96363, "latitude": 52.23467, "link": "https://www.myshiptracking.com//ru/ports/marina-of-baambrugge-in-nl-netherlands-id-960"},
{"name": "BAARN", "type": "\u041f\u043e\u0440\u0442", "size": "\u041c\u0430\u043b\u0435\u043d\u044c\u043a\u0438\u0439", "UN_LOCODE": "NLBAA", "country": "[NL] Netherlands", "longitude": 5.30107, "latitude": 52.21316, "link": "https://www.myshiptracking.com//ru/ports/port-of-baarn-in-nl-netherlands-id-972"},
{"name": "BAASRODE", "type": "\u041f\u043e\u0440\u0442", "size": "\u041c\u0430\u043b\u0435\u043d\u044c\u043a\u0438\u0439", "UN_LOCODE": "BEBSR", "country": "[BE] Belgium", "longitude": 4.16792, "latitude": 51.03708, "link": "https://www.myshiptracking.com//ru/ports/port-of-baasrode-in-be-belgium-id-2532"},
{"name": "BABA ISLAND", "type": "\u041f\u043e\u0440\u0442", "size": "X\u041c\u0430\u043b\u044b\u0439", "UN_LOCODE": "---", "country": "[PK] Pakistan", "longitude": 66.96124, "latitude": 24.8217, "link": "https://www.myshiptracking.com//ru/ports/port-of-baba-island-in-pk-pakistan-id-3612"},
{"name": "BABOSLAR", "type": "\u041f\u043e\u0440\u0442", "size": "\u041c\u0430\u043b\u0435\u043d\u044c\u043a\u0438\u0439", "UN_LOCODE": "IRBBL", "country": "[IR] Iran", "longitude": 52.65629, "latitude": 36.71635, "link": "https://www.myshiptracking.com//ru/ports/port-of-baboslar-in-ir-iran-id-3545"},
{"name": "BACHAQUERO", "type": "\u041f\u043e\u0440\u0442", "size": "\u041c\u0430\u043b\u0435\u043d\u044c\u043a\u0438\u0439", "UN_LOCODE": "VEBAV", "country": "[VE] Venezuela", "longitude": -71.15259, "latitude": 9.94315, "link": "https://www.myshiptracking.com//ru/ports/port-of-bachaquero-in-ve-venezuela-id-6876"},
{"name": "BACK BAY HARBOUR", "type": "\u041f\u043e\u0440\u0442", "size": "\u041c\u0430\u043b\u0435\u043d\u044c\u043a\u0438\u0439", "UN_LOCODE": "---", "country": "[CA] Canada", "longitude": -66.86093, "latitude": 45.05502, "link": "https://www.myshiptracking.com//ru/ports/port-of-back-bay-harbour-in-ca-canada-id-6425"},
{"name": "BACKA PALANKA", "type": "\u041f\u043e\u0440\u0442", "size": "\u041c\u0430\u043b\u0435\u043d\u044c\u043a\u0438\u0439", "UN_LOCODE": "RSBPA", "country": "[RS] Serbia", "longitude": 19.41572, "latitude": 45.23903, "link": "https://www.myshiptracking.com//ru/ports/port-of-backa-palanka-in-rs-serbia-id-5829"},
{"name": "BACKALAND (EDAY)", "type": "\u041f\u043e\u0440\u0442", "size": "\u041c\u0430\u043b\u0435\u043d\u044c\u043a\u0438\u0439", "UN_LOCODE": "GBBKC", "country": "[GB] United Kingdom", "longitude": -2.75004, "latitude": 59.15664, "link": "https://www.myshiptracking.com//ru/ports/port-of-backaland-eday-in-gb-united-kingdom-id-1653"},
{"name": "BACOLOD", "type": "\u041f\u043e\u0440\u0442", "size": "\u0411\u043e\u043b\u044c\u0448\u043e\u0439", "UN_LOCODE": "PHBCD", "country": "[PH] Philippines", "longitude": 122.93192, "latitude": 10.68094, "link": "https://www.myshiptracking.com//ru/ports/port-of-bacolod-in-ph-philippines-id-5454"},
{"name": "BAD DEUTSCH", "type": "\u041f\u043e\u0440\u0442", "size": "\u041c\u0430\u043b\u0435\u043d\u044c\u043a\u0438\u0439", "UN_LOCODE": "ATBDG", "country": "[AT] Austria", "longitude": 16.90109, "latitude": 48.14173, "link": "https://www.myshiptracking.com//ru/ports/port-of-bad-deutsch-in-at-austria-id-5742"},
{"name": "BAD WIMPFEN", "type": "\u041f\u043e\u0440\u0442", "size": "X\u041c\u0430\u043b\u044b\u0439", "UN_LOCODE": "DEBWF", "country": "[DE] Germany", "longitude": 9.16928, "latitude": 49.23049, "link": "https://www.myshiptracking.com//ru/ports/port-of-bad-wimpfen-in-de-germany-id-2570"},
{"name": "BADALONA", "type": "\u041f\u043e\u0440\u0442", "size": "\u041c\u0430\u043b\u0435\u043d\u044c\u043a\u0438\u0439", "UN_LOCODE": "ESBAD", "country": "[ES] Spain", "longitude": 2.2421, "latitude": 41.4346, "link": "https://www.myshiptracking.com//ru/ports/port-of-badalona-in-es-spain-id-1940"},
{"name": "BADAS", "type": "\u041f\u043e\u0440\u0442", "size": "\u041c\u0430\u043b\u0435\u043d\u044c\u043a\u0438\u0439", "UN_LOCODE": "IDPBB", "country": "[ID] Indonesia", "longitude": 117.3746, "latitude": -8.46217, "link": "https://www.myshiptracking.com//ru/ports/port-of-badas-in-id-indonesia-id-3768"},
{"name": "BAEKPOBUK", "type": "\u041f\u043e\u0440\u0442", "size": "\u041c\u0430\u043b\u0435\u043d\u044c\u043a\u0438\u0439", "UN_LOCODE": "---", "country": "[KR] Korea", "longitude": 126.45161, "latitude": 33.5003, "link": "https://www.myshiptracking.com//ru/ports/port-of-baekpobuk-in-kr-korea-id-5494"},
{"name": "BAHIA BLANCA", "type": "\u041f\u043e\u0440\u0442", "size": "\u0421\u0440\u0435\u0434\u043d\u0438\u0439", "UN_LOCODE": "ARBHI", "country": "[AR] Argentina", "longitude": -62.2737, "latitude": -38.79203, "link": "https://www.myshiptracking.com//ru/ports/port-of-bahia-blanca-in-ar-argentina-id-6795"},
{"name": "BAIA DE VITORIA", "type": "\u041f\u043e\u0440\u0442", "size": "\u0411\u043e\u043b\u044c\u0448\u043e\u0439", "UN_LOCODE": "BRVIX", "country": "[BR] Brazil", "longitude": -40.31372, "latitude": -20.32306, "link": "https://www.myshiptracking.com//ru/ports/port-of-baia-de-vitoria-in-br-brazil-id-6658"},
{"name": "BAIE COMEAU", "type": "\u041f\u043e\u0440\u0442", "size": "\u041c\u0430\u043b\u0435\u043d\u044c\u043a\u0438\u0439", "UN_LOCODE": "CABCO", "country": "[CA] Canada", "longitude": -68.13013, "latitude": 49.24223, "link": "https://www.myshiptracking.com//ru/ports/port-of-baie-comeau-in-ca-canada-id-6483"},
{"name": "BAIE DE PRONY", "type": "\u041f\u043e\u0440\u0442", "size": "\u041c\u0430\u043b\u0435\u043d\u044c\u043a\u0438\u0439", "UN_LOCODE": "NCBDB", "country": "[NC] New Caledonia", "longitude": 166.88983, "latitude": -22.35242, "link": "https://www.myshiptracking.com//ru/ports/port-of-baie-de-prony-in-nc-new-caledonia-id-5864"},
{"name": "BAIE MAHAULT", "type": "\u041f\u043e\u0440\u0442", "size": "\u041c\u0430\u043b\u0435\u043d\u044c\u043a\u0438\u0439", "UN_LOCODE": "GPBMH", "country": "[GP] Guadeloupe", "longitude": -61.59131, "latitude": 16.27016, "link": "https://www.myshiptracking.com//ru/ports/port-of-baie-mahault-in-gp-guadeloupe-id-7175"},
{"name": "BAINBRIDGE ISLAND", "type": "\u041f\u043e\u0440\u0442", "size": "\u0421\u0440\u0435\u0434\u043d\u0438\u0439", "UN_LOCODE": "USBII", "country": "[US] USA", "longitude": -122.50584, "latitude": 47.62003, "link": "https://www.myshiptracking.com//ru/ports/port-of-bainbridge-island-in-us-usa-id-5994"},
{"name": "BAIONA", "type": "\u041f\u043e\u0440\u0442", "size": "\u041c\u0430\u043b\u0435\u043d\u044c\u043a\u0438\u0439", "UN_LOCODE": "ESZHR", "country": "[ES] Spain", "longitude": -8.84434, "latitude": 42.12238, "link": "https://www.myshiptracking.com//ru/ports/port-of-baiona-in-es-spain-id-1920"},
{"name": "BAJA", "type": "\u041f\u043e\u0440\u0442", "size": "\u0421\u0440\u0435\u0434\u043d\u0438\u0439", "UN_LOCODE": "HUBAA", "country": "[HU] Hungary", "longitude": 18.92697, "latitude": 46.18693, "link": "https://www.myshiptracking.com//ru/ports/port-of-baja-in-hu-hungary-id-5767"},
{"name": "BAJO GRANDE", "type": "\u041f\u043e\u0440\u0442", "size": "\u0411\u043e\u043b\u044c\u0448\u043e\u0439", "UN_LOCODE": "VEBJV", "country": "[VE] Venezuela", "longitude": -71.61978, "latitude": 10.49937, "link": "https://www.myshiptracking.com//ru/ports/port-of-bajo-grande-in-ve-venezuela-id-6873"},
{"name": "BAJOE", "type": "\u041f\u043e\u0440\u0442", "size": "\u041c\u0430\u043b\u0435\u043d\u044c\u043a\u0438\u0439", "UN_LOCODE": "---", "country": "[ID] Indonesia", "longitude": 120.40859, "latitude": -4.54561, "link": "https://www.myshiptracking.com//ru/ports/port-of-bajoe-in-id-indonesia-id-3770"},
{"name": "BAKAR", "type": "\u041f\u043e\u0440\u0442", "size": "\u041c\u0430\u043b\u0435\u043d\u044c\u043a\u0438\u0439", "UN_LOCODE": "HRBAK", "country": "[HR] Croatia", "longitude": 14.54283, "latitude": 45.30294, "link": "https://www.myshiptracking.com//ru/ports/port-of-bakar-in-hr-croatia-id-2830"},
{"name": "BAKAUHENI", "type": "\u041f\u043e\u0440\u0442", "size": "\u041c\u0430\u043b\u0435\u043d\u044c\u043a\u0438\u0439", "UN_LOCODE": "IDTKG", "country": "[ID] Indonesia", "longitude": 105.75527, "latitude": -5.8708, "link": "https://www.myshiptracking.com//ru/ports/port-of-bakauheni-in-id-indonesia-id-3747"},
{"name": "BAKHUIZEN", "type": "\u041f\u043e\u0440\u0442", "size": "\u041c\u0430\u043b\u0435\u043d\u044c\u043a\u0438\u0439", "UN_LOCODE": "NLBKH", "country": "[NL] Netherlands", "longitude": 5.45601, "latitude": 52.87159, "link": "https://www.myshiptracking.com//ru/ports/port-of-bakhuizen-in-nl-netherlands-id-961"},
{"name": "BAKIRKOY", "type": "\u041f\u043e\u0440\u0442", "size": "\u041c\u0430\u043b\u0435\u043d\u044c\u043a\u0438\u0439", "UN_LOCODE": "TRBAK", "country": "[TR] Turkey", "longitude": 28.87902, "latitude": 40.9733, "link": "https://www.myshiptracking.com//ru/ports/port-of-bakirkoy-in-tr-turkey-id-2142"},
{"name": "BAKKAFJORDDUR", "type": "\u041f\u043e\u0440\u0442", "size": "X\u041c\u0430\u043b\u044b\u0439", "UN_LOCODE": "ISBAK", "country": "[IS] Iceland", "longitude": -14.8268, "latitude": 66.0217, "link": "https://www.myshiptracking.com//ru/ports/port-of-bakkafjorddur-in-is-iceland-id-5600"},
{"name": "BAKU", "type": "\u041f\u043e\u0440\u0442", "size": "X\u0411\u043e\u043b\u044c\u0449\u043e\u0439", "UN_LOCODE": "AZBAK", "country": "[AZ] Azerbaijan", "longitude": 49.92161, "latitude": 40.33065, "link": "https://www.myshiptracking.com//ru/ports/port-of-baku-in-az-azerbaijan-id-5807"},
{"name": "BALAKLAVSKYI", "type": "\u041f\u043e\u0440\u0442", "size": "\u041c\u0430\u043b\u0435\u043d\u044c\u043a\u0438\u0439", "UN_LOCODE": "---", "country": "[UA] Ukraine", "longitude": 33.59886, "latitude": 44.49873, "link": "https://www.myshiptracking.com//ru/ports/port-of-balaklavskyi-in-ua-ukraine-id-2954"},
{"name": "BALAKOVO", "type": "\u041f\u043e\u0440\u0442", "size": "\u0411\u043e\u043b\u044c\u0448\u043e\u0439", "UN_LOCODE": "RUBWO", "country": "[RU] Russia", "longitude": 47.80754, "latitude": 52.02487, "link": "https://www.myshiptracking.com//ru/ports/port-of-balakovo-in-ru-russia-id-2971"},
{"name": "BALATERO", "type": "\u041f\u043e\u0440\u0442", "size": "\u041c\u0430\u043b\u0435\u043d\u044c\u043a\u0438\u0439", "UN_LOCODE": "---", "country": "[PH] Philippines", "longitude": 120.93429, "latitude": 13.50753, "link": "https://www.myshiptracking.com//ru/ports/port-of-balatero-in-ph-philippines-id-5435"},
{"name": "BALBOA", "type": "\u041f\u043e\u0440\u0442", "size": "\u041c\u0430\u043b\u0435\u043d\u044c\u043a\u0438\u0439", "UN_LOCODE": "PABLB", "country": "[PA] Panama", "longitude": -79.56777, "latitude": 8.95606, "link": "https://www.myshiptracking.com//ru/ports/port-of-balboa-in-pa-panama-id-6896"},
{"name": "BALCHIK", "type": "\u041f\u043e\u0440\u0442", "size": "\u041c\u0430\u043b\u0435\u043d\u044c\u043a\u0438\u0439", "UN_LOCODE": "BGBAL", "country": "[BG] Bulgaria", "longitude": 28.1621, "latitude": 43.4014, "link": "https://www.myshiptracking.com//ru/ports/port-of-balchik-in-bg-bulgaria-id-2894"},
{"name": "BALHAF", "type": "\u041f\u043e\u0440\u0442", "size": "\u0421\u0440\u0435\u0434\u043d\u0438\u0439", "UN_LOCODE": "YEBLH", "country": "[YE] Yemen", "longitude": 48.17549, "latitude": 13.98427, "link": "https://www.myshiptracking.com//ru/ports/port-of-balhaf-in-ye-yemen-id-3461"},
{"name": "BALIKPAPAN", "type": "\u041f\u043e\u0440\u0442", "size": "\u0411\u043e\u043b\u044c\u0448\u043e\u0439", "UN_LOCODE": "IDBPN", "country": "[ID] Indonesia", "longitude": 116.80403, "latitude": -1.27431, "link": "https://www.myshiptracking.com//ru/ports/port-of-balikpapan-in-id-indonesia-id-3772"},
{"name": "BALINTORE", "type": "\u0413\u0430\u0432\u0430\u043d\u044c", "size": "X\u041c\u0430\u043b\u044b\u0439", "UN_LOCODE": "GBBLI", "country": "[GB] United Kingdom", "longitude": -3.90995, "latitude": 57.75436, "link": "https://www.myshiptracking.com//ru/ports/marina-of-balintore-in-gb-united-kingdom-id-2423"},
{"name": "BALK", "type": "\u041f\u043e\u0440\u0442", "size": "\u041c\u0430\u043b\u0435\u043d\u044c\u043a\u0438\u0439", "UN_LOCODE": "NLBAL", "country": "[NL] Netherlands", "longitude": 5.58113, "latitude": 52.89891, "link": "https://www.myshiptracking.com//ru/ports/port-of-balk-in-nl-netherlands-id-979"},
