{"name": "BONNY", "type": "\u041f\u043e\u0440\u0442", "size": "\u0411\u043e\u043b\u044c\u0448\u043e\u0439", "UN_LOCODE": "NGBON", "country": "[NG] Nigeria", "longitude": 7.13769, "latitude": 4.41936, "link": "https://www.myshiptracking.com//ru/ports/port-of-bonny-in-ng-nigeria-id-3348"},
{"name": "BONTHE", "type": "\u041f\u043e\u0440\u0442", "size": "X\u041c\u0430\u043b\u044b\u0439", "UN_LOCODE": "SLBTE", "country": "[SL] Sierra Leone", "longitude": -12.49987, "latitude": 7.52684, "link": "https://www.myshiptracking.com//ru/ports/port-of-bonthe-in-sl-sierra-leone-id-3331"},
{"name": "BONVERHUUR", "type": "\u0413\u0430\u0432\u0430\u043d\u044c", "size": "X\u041c\u0430\u043b\u044b\u0439", "UN_LOCODE": "---", "country": "[NL] Netherlands", "longitude": 4.95078, "latitude": 52.25267, "link": "https://www.myshiptracking.com//ru/ports/marina-of-bonverhuur-in-nl-netherlands-id-1192"},
{"name": "BOOKER BAY", "type": "\u041f\u043e\u0440\u0442", "size": "\u041c\u0430\u043b\u0435\u043d\u044c\u043a\u0438\u0439", "UN_LOCODE": "---", "country": "[AU] Australia", "longitude": 151.34664, "latitude": -33.51003, "link": "https://www.myshiptracking.com//ru/ports/port-of-booker-bay-in-au-australia-id-3921"},
{"name": "BOORNZWAAG", "type": "\u041f\u043e\u0440\u0442", "size": "\u041c\u0430\u043b\u0435\u043d\u044c\u043a\u0438\u0439", "UN_LOCODE": "NLBZW", "country": "[NL] Netherlands", "longitude": 5.74746, "latitude": 52.95862, "link": "https://www.myshiptracking.com//ru/ports/port-of-boornzwaag-in-nl-netherlands-id-1188"},
{"name": "BOPPARD", "type": "\u041f\u043e\u0440\u0442", "size": "X\u041c\u0430\u043b\u044b\u0439", "UN_LOCODE": "DEBOD", "country": "[DE] Germany", "longitude": 7.58874, "latitude": 50.23331, "link": "https://www.myshiptracking.com//ru/ports/port-of-boppard-in-de-germany-id-1276"},
{"name": "BORACAY", "type": "\u041f\u043e\u0440\u0442", "size": "X\u041c\u0430\u043b\u044b\u0439", "UN_LOCODE": "PHBOR", "country": "[PH] Philippines", "longitude": 121.93891, "latitude": 11.93923, "link": "https://www.myshiptracking.com//ru/ports/port-of-boracay-in-ph-philippines-id-5442"},
{"name": "BORDEAUX", "type": "\u041f\u043e\u0440\u0442", "size": "X\u0411\u043e\u043b\u044c\u0449\u043e\u0439", "UN_LOCODE": "FRBOD", "country": "[FR] France", "longitude": -0.56833, "latitude": 44.84742, "link": "https://www.myshiptracking.com//ru/ports/port-of-bordeaux-in-fr-france-id-1739"},
{"name": "BORGSTEDT", "type": "\u041f\u043e\u0440\u0442", "size": "\u041c\u0430\u043b\u0435\u043d\u044c\u043a\u0438\u0439", "UN_LOCODE": "DEBYT", "country": "[DE] Germany", "longitude": 9.71644, "latitude": 54.33328, "link": "https://www.myshiptracking.com//ru/ports/port-of-borgstedt-in-de-germany-id-1292"},
{"name": "BORGUNDVAG", "type": "\u041f\u043e\u0440\u0442", "size": "\u041c\u0430\u043b\u0435\u043d\u044c\u043a\u0438\u0439", "UN_LOCODE": "---", "country": "[NO] Norway", "longitude": 5.307, "latitude": 62.15112, "link": "https://www.myshiptracking.com//ru/ports/port-of-borgundvag-in-no-norway-id-5192"},
{"name": "BORKUM", "type": "\u041f\u043e\u0440\u0442", "size": "\u041c\u0430\u043b\u0435\u043d\u044c\u043a\u0438\u0439", "UN_LOCODE": "DEBMK", "country": "[DE] Germany", "longitude": 6.75813, "latitude": 53.56117, "link": "https://www.myshiptracking.com//ru/ports/port-of-borkum-in-de-germany-id-1365"},
{"name": "BORYEONG", "type": "\u041f\u043e\u0440\u0442", "size": "\u0421\u0440\u0435\u0434\u043d\u0438\u0439", "UN_LOCODE": "KRBOR", "country": "[KR] Korea", "longitude": 126.48128, "latitude": 36.39625, "link": "https://www.myshiptracking.com//ru/ports/port-of-boryeong-in-kr-korea-id-5482"},
{"name": "BOSASO", "type": "\u041f\u043e\u0440\u0442", "size": "\u041c\u0430\u043b\u0435\u043d\u044c\u043a\u0438\u0439", "UN_LOCODE": "SOBSA", "country": "[SO] Somalia", "longitude": 49.17657, "latitude": 11.28907, "link": "https://www.myshiptracking.com//ru/ports/port-of-bosaso-in-so-somalia-id-3420"},
{"name": "BOSHNYAKOVO", "type": "\u041f\u043e\u0440\u0442", "size": "\u041c\u0430\u043b\u0435\u043d\u044c\u043a\u0438\u0439", "UN_LOCODE": "RUBOS", "country": "[RU] Russia", "longitude": 142.15522, "latitude": 49.64326, "link": "https://www.myshiptracking.com//ru/ports/port-of-boshnyakovo-in-ru-russia-id-3001"},
{"name": "BOSSUIT", "type": "\u041f\u043e\u0440\u0442", "size": "\u041c\u0430\u043b\u0435\u043d\u044c\u043a\u0438\u0439", "UN_LOCODE": "BEBSU", "country": "[BE] Belgium", "longitude": 3.41074, "latitude": 50.75069, "link": "https://www.myshiptracking.com//ru/ports/port-of-bossuit-in-be-belgium-id-2537"},
{"name": "BOSTANCI", "type": "\u041f\u043e\u0440\u0442", "size": "X\u041c\u0430\u043b\u044b\u0439", "UN_LOCODE": "TRBOS", "country": "[TR] Turkey", "longitude": 29.09441, "latitude": 40.95088, "link": "https://www.myshiptracking.com//ru/ports/port-of-bostanci-in-tr-turkey-id-2161"},
{"name": "BOSTANO", "type": "\u041f\u043e\u0440\u0442", "size": "\u041c\u0430\u043b\u0435\u043d\u044c\u043a\u0438\u0439", "UN_LOCODE": "---", "country": "[IR] Iran", "longitude": 52.99479, "latitude": 27.12671, "link": "https://www.myshiptracking.com//ru/ports/port-of-bostano-in-ir-iran-id-3601"},
{"name": "BOSTON", "type": "\u041f\u043e\u0440\u0442", "size": "X\u0411\u043e\u043b\u044c\u0449\u043e\u0439", "UN_LOCODE": "USBOS", "country": "[US] USA", "longitude": -71.048, "latitude": 42.3639, "link": "https://www.myshiptracking.com//ru/ports/port-of-boston-in-us-usa-id-105"},
{"name": "BOSTON", "type": "\u041f\u043e\u0440\u0442", "size": "\u0411\u043e\u043b\u044c\u0448\u043e\u0439", "UN_LOCODE": "GBBOS", "country": "[GB] United Kingdom", "longitude": -0.01734, "latitude": 52.96849, "link": "https://www.myshiptracking.com//ru/ports/port-of-boston-in-gb-united-kingdom-id-1543"},
{"name": "BOTANY", "type": "\u041f\u043e\u0440\u0442", "size": "\u0421\u0440\u0435\u0434\u043d\u0438\u0439", "UN_LOCODE": "AUBTB", "country": "[AU] Australia", "longitude": 151.20771, "latitude": -33.96653, "link": "https://www.myshiptracking.com//ru/ports/port-of-botany-in-au-australia-id-106"},
{"name": "BOTLEK - ROTTERDAM", "type": "\u041f\u043e\u0440\u0442", "size": "\u0411\u043e\u043b\u044c\u0448\u043e\u0439", "UN_LOCODE": "NLBOT", "country": "[NL] Netherlands", "longitude": 4.29109, "latitude": 51.88177, "link": "https://www.myshiptracking.com//ru/ports/port-of-botlek-rotterdam-in-nl-netherlands-id-1193"},
{"name": "BOTNHAMN", "type": "\u041f\u043e\u0440\u0442", "size": "\u041c\u0430\u043b\u0435\u043d\u044c\u043a\u0438\u0439", "UN_LOCODE": "NOBTH", "country": "[NO] Norway", "longitude": 17.91352, "latitude": 69.50799, "link": "https://www.myshiptracking.com//ru/ports/port-of-botnhamn-in-no-norway-id-5261"},
{"name": "BOTTROP", "type": "\u041f\u043e\u0440\u0442", "size": "\u0411\u043e\u043b\u044c\u0448\u043e\u0439", "UN_LOCODE": "DEBOT", "country": "[DE] Germany", "longitude": 6.95776, "latitude": 51.50251, "link": "https://www.myshiptracking.com//ru/ports/port-of-bottrop-in-de-germany-id-1417"},
{"name": "BOTWOOD", "type": "\u041f\u043e\u0440\u0442", "size": "\u041c\u0430\u043b\u0435\u043d\u044c\u043a\u0438\u0439", "UN_LOCODE": "CABWD", "country": "[CA] Canada", "longitude": -55.3332, "latitude": 49.14756, "link": "https://www.myshiptracking.com//ru/ports/port-of-botwood-in-ca-canada-id-6524"},
{"name": "BOU HAROUN", "type": "\u041f\u043e\u0440\u0442", "size": "X\u041c\u0430\u043b\u044b\u0439", "UN_LOCODE": "---", "country": "[DZ] Algeria", "longitude": 2.65533, "latitude": 36.62731, "link": "https://www.myshiptracking.com//ru/ports/port-of-bou-haroun-in-dz-algeria-id-3278"},
{"name": "BOU ZADJAR", "type": "\u041f\u043e\u0440\u0442", "size": "X\u041c\u0430\u043b\u044b\u0439", "UN_LOCODE": "---", "country": "[DZ] Algeria", "longitude": -1.16573, "latitude": 35.57502, "link": "https://www.myshiptracking.com//ru/ports/port-of-bou-zadjar-in-dz-algeria-id-3275"},
{"name": "BOUGHRANA", "type": "\u041f\u043e\u0440\u0442", "size": "\u041c\u0430\u043b\u0435\u043d\u044c\u043a\u0438\u0439", "UN_LOCODE": "---", "country": "[TN] Tunisia", "longitude": 10.68834, "latitude": 33.54101, "link": "https://www.myshiptracking.com//ru/ports/port-of-boughrana-in-tn-tunisia-id-3239"},
{"name": "BOULOGNE BILLANCOURT", "type": "\u041f\u043e\u0440\u0442", "size": "\u0421\u0440\u0435\u0434\u043d\u0438\u0439", "UN_LOCODE": "FROGB", "country": "[FR] France", "longitude": 2.23604, "latitude": 48.82389, "link": "https://www.myshiptracking.com//ru/ports/port-of-boulogne-billancourt-in-fr-france-id-1766"},
{"name": "BOULOGNE-SUR-MER", "type": "\u041f\u043e\u0440\u0442", "size": "\u0411\u043e\u043b\u044c\u0448\u043e\u0439", "UN_LOCODE": "FRBOL", "country": "[FR] France", "longitude": 1.59381, "latitude": 50.72811, "link": "https://www.myshiptracking.com//ru/ports/port-of-boulogne-sur-mer-in-fr-france-id-1822"},
{"name": "BOUNO", "type": "\u0413\u0430\u0432\u0430\u043d\u044c", "size": "X\u041c\u0430\u043b\u044b\u0439", "UN_LOCODE": "---", "country": "[GR] Greece", "longitude": 22.97753, "latitude": 36.33856, "link": "https://www.myshiptracking.com//ru/ports/marina-of-bouno-in-gr-greece-id-825"},
{"name": "BOURNEMOUTH PIER", "type": "\u0413\u0430\u0432\u0430\u043d\u044c", "size": "\u041c\u0430\u043b\u0435\u043d\u044c\u043a\u0438\u0439", "UN_LOCODE": "---", "country": "[GB] United Kingdom", "longitude": -1.8743, "latitude": 50.71378, "link": "https://www.myshiptracking.com//ru/ports/marina-of-bournemouth-pier-in-gb-united-kingdom-id-2313"},
{"name": "BOVENKARSPEL", "type": "\u041f\u043e\u0440\u0442", "size": "\u041c\u0430\u043b\u0435\u043d\u044c\u043a\u0438\u0439", "UN_LOCODE": "NLBOV", "country": "[NL] Netherlands", "longitude": 5.265, "latitude": 52.68611, "link": "https://www.myshiptracking.com//ru/ports/port-of-bovenkarspel-in-nl-netherlands-id-1152"},
{"name": "BOWEN", "type": "\u041f\u043e\u0440\u0442", "size": "\u041c\u0430\u043b\u0435\u043d\u044c\u043a\u0438\u0439", "UN_LOCODE": "AUZBO", "country": "[AU] Australia", "longitude": 148.25177, "latitude": -20.02392, "link": "https://www.myshiptracking.com//ru/ports/port-of-bowen-in-au-australia-id-3822"},
{"name": "BOWEN ISLAND", "type": "\u041f\u043e\u0440\u0442", "size": "\u041c\u0430\u043b\u0435\u043d\u044c\u043a\u0438\u0439", "UN_LOCODE": "CABNI", "country": "[CA] Canada", "longitude": -123.32721, "latitude": 49.37987, "link": "https://www.myshiptracking.com//ru/ports/port-of-bowen-island-in-ca-canada-id-6400"},
{"name": "BOWLING", "type": "\u0413\u0430\u0432\u0430\u043d\u044c", "size": "\u041c\u0430\u043b\u0435\u043d\u044c\u043a\u0438\u0439", "UN_LOCODE": "GBBOW", "country": "[GB] United Kingdom", "longitude": -4.48478, "latitude": 55.92983, "link": "https://www.myshiptracking.com//ru/ports/marina-of-bowling-in-gb-united-kingdom-id-2280"},
{"name": "BOXMEER", "type": "\u0413\u0430\u0432\u0430\u043d\u044c", "size": "X\u041c\u0430\u043b\u044b\u0439", "UN_LOCODE": "NLBOX", "country": "[NL] Netherlands", "longitude": 5.9573, "latitude": 51.66891, "link": "https://www.myshiptracking.com//ru/ports/marina-of-boxmeer-in-nl-netherlands-id-921"},
{"name": "BOYNE CITY", "type": "\u041f\u043e\u0440\u0442", "size": "\u0421\u0440\u0435\u0434\u043d\u0438\u0439", "UN_LOCODE": "USBYZ", "country": "[US] USA", "longitude": -85.022, "latitude": 45.2155, "link": "https://www.myshiptracking.com//ru/ports/port-of-boyne-city-in-us-usa-id-6057"},
{"name": "BOZBURUN", "type": "\u041f\u043e\u0440\u0442", "size": "\u0421\u0440\u0435\u0434\u043d\u0438\u0439", "UN_LOCODE": "TRBZB", "country": "[TR] Turkey", "longitude": 28.04263, "latitude": 36.6863, "link": "https://www.myshiptracking.com//ru/ports/port-of-bozburun-in-tr-turkey-id-2102"},
{"name": "BOZCAADA", "type": "\u041f\u043e\u0440\u0442", "size": "X\u041c\u0430\u043b\u044b\u0439", "UN_LOCODE": "TRBZC", "country": "[TR] Turkey", "longitude": 26.07524, "latitude": 39.83481, "link": "https://www.myshiptracking.com//ru/ports/port-of-bozcaada-in-tr-turkey-id-2110"},
{"name": "BRAEFOOT ", "type": "\u041f\u043e\u0440\u0442", "size": "X\u041c\u0430\u043b\u044b\u0439", "UN_LOCODE": "GBBFB", "country": "[GB] United Kingdom", "longitude": -3.31052, "latitude": 56.03572, "link": "https://www.myshiptracking.com//ru/ports/port-of-braefoot--in-gb-united-kingdom-id-1572"},
{"name": "BRAILA", "type": "\u041f\u043e\u0440\u0442", "size": "\u0411\u043e\u043b\u044c\u0448\u043e\u0439", "UN_LOCODE": "ROBRA", "country": "[RO] Romania", "longitude": 27.97931, "latitude": 45.26579, "link": "https://www.myshiptracking.com//ru/ports/port-of-braila-in-ro-romania-id-2910"},
{"name": "BRAKE", "type": "\u041f\u043e\u0440\u0442", "size": "\u0411\u043e\u043b\u044c\u0448\u043e\u0439", "UN_LOCODE": "DEBKE", "country": "[DE] Germany", "longitude": 8.49646, "latitude": 53.34177, "link": "https://www.myshiptracking.com//ru/ports/port-of-brake-in-de-germany-id-1448"},
{"name": "BRAMSCHE", "type": "\u041f\u043e\u0440\u0442", "size": "\u041c\u0430\u043b\u0435\u043d\u044c\u043a\u0438\u0439", "UN_LOCODE": "DEBRM", "country": "[DE] Germany", "longitude": 7.99636, "latitude": 52.39901, "link": "https://www.myshiptracking.com//ru/ports/port-of-bramsche-in-de-germany-id-1262"},
{"name": "BRANDENBURG", "type": "\u041f\u043e\u0440\u0442", "size": "\u0411\u043e\u043b\u044c\u0448\u043e\u0439", "UN_LOCODE": "DEBBG", "country": "[DE] Germany", "longitude": 12.56199, "latitude": 52.42425, "link": "https://www.myshiptracking.com//ru/ports/port-of-brandenburg-in-de-germany-id-2558"},
{"name": "BRANNO", "type": "\u041f\u043e\u0440\u0442", "size": "X\u041c\u0430\u043b\u044b\u0439", "UN_LOCODE": "SEBRN", "country": "[SE] Sweden", "longitude": 11.78627, "latitude": 57.64814, "link": "https://www.myshiptracking.com//ru/ports/port-of-branno-in-se-sweden-id-5378"},
{"name": "BRATISLAVA", "type": "\u041f\u043e\u0440\u0442", "size": "\u0411\u043e\u043b\u044c\u0448\u043e\u0439", "UN_LOCODE": "SKBTS", "country": "[SK] Slovakia", "longitude": 17.12402, "latitude": 48.13782, "link": "https://www.myshiptracking.com//ru/ports/port-of-bratislava-in-sk-slovakia-id-5898"},
{"name": "BRATTVAG", "type": "\u041f\u043e\u0440\u0442", "size": "\u041c\u0430\u043b\u0435\u043d\u044c\u043a\u0438\u0439", "UN_LOCODE": "NOBRV", "country": "[NO] Norway", "longitude": 6.4494, "latitude": 62.60801, "link": "https://www.myshiptracking.com//ru/ports/port-of-brattvag-in-no-norway-id-5121"},
{"name": "BRAUNSCHWEIG", "type": "\u041f\u043e\u0440\u0442", "size": "\u041c\u0430\u043b\u0435\u043d\u044c\u043a\u0438\u0439", "UN_LOCODE": "DEBWE", "country": "[DE] Germany", "longitude": 10.48288, "latitude": 52.31595, "link": "https://www.myshiptracking.com//ru/ports/port-of-braunschweig-in-de-germany-id-2583"},
{"name": "BRAXATI", "type": "\u041f\u043e\u0440\u0442", "size": "X\u041c\u0430\u043b\u044b\u0439", "UN_LOCODE": "---", "country": "[GR] Greece", "longitude": 22.8092, "latitude": 37.9637, "link": "https://www.myshiptracking.com//ru/ports/port-of-braxati-in-gr-greece-id-66"},
{"name": "BRAYTON POINT", "type": "\u041f\u043e\u0440\u0442", "size": "\u041c\u0430\u043b\u0435\u043d\u044c\u043a\u0438\u0439", "UN_LOCODE": "USBNP", "country": "[US] USA", "longitude": -71.18525, "latitude": 41.70813, "link": "https://www.myshiptracking.com//ru/ports/port-of-brayton-point-in-us-usa-id-6055"},
