{"name": "SAN JULIAN", "type": "\u041f\u043e\u0440\u0442", "size": "\u041c\u0430\u043b\u0435\u043d\u044c\u043a\u0438\u0439", "UN_LOCODE": "ARULA", "country": "[AR] Argentina", "longitude": -67.71685, "latitude": -49.30053, "link": "https://www.myshiptracking.com//ru/ports/port-of-san-julian-in-ar-argentina-id-6815"},
{"name": "SAN LORENZO", "type": "\u041f\u043e\u0440\u0442", "size": "X\u041c\u0430\u043b\u044b\u0439", "UN_LOCODE": "HNSLO", "country": "[HN] Honduras", "longitude": -87.42415, "latitude": 13.40319, "link": "https://www.myshiptracking.com//ru/ports/port-of-san-lorenzo-in-hn-honduras-id-7028"},
{"name": "SAN LORENZO", "type": "\u041f\u043e\u0440\u0442", "size": "X\u0411\u043e\u043b\u044c\u0449\u043e\u0439", "UN_LOCODE": "ARSLO", "country": "[AR] Argentina", "longitude": -60.7236, "latitude": -32.74264, "link": "https://www.myshiptracking.com//ru/ports/port-of-san-lorenzo-in-ar-argentina-id-6777"},
{"name": "SAN MARCOS", "type": "\u041f\u043e\u0440\u0442", "size": "\u041c\u0430\u043b\u0435\u043d\u044c\u043a\u0438\u0439", "UN_LOCODE": "MXSMI", "country": "[MX] Mexico", "longitude": -112.08494, "latitude": 27.18946, "link": "https://www.myshiptracking.com//ru/ports/port-of-san-marcos-in-mx-mexico-id-6597"},
{"name": "SAN NICOLA", "type": "\u041f\u043e\u0440\u0442", "size": "X\u041c\u0430\u043b\u044b\u0439", "UN_LOCODE": "---", "country": "[IT] Italy", "longitude": 15.50172, "latitude": 42.11923, "link": "https://www.myshiptracking.com//ru/ports/port-of-san-nicola-in-it-italy-id-2761"},
{"name": "SAN NICOLAS", "type": "\u041f\u043e\u0440\u0442", "size": "\u0411\u043e\u043b\u044c\u0448\u043e\u0439", "UN_LOCODE": "ARSNS", "country": "[AR] Argentina", "longitude": -60.17175, "latitude": -33.35138, "link": "https://www.myshiptracking.com//ru/ports/port-of-san-nicolas-in-ar-argentina-id-6792"},
{"name": "SAN NICOLAS", "type": "\u041f\u043e\u0440\u0442", "size": "\u0411\u043e\u043b\u044c\u0448\u043e\u0439", "UN_LOCODE": "PESNX", "country": "[PE] Peru", "longitude": -75.23977, "latitude": -15.2494, "link": "https://www.myshiptracking.com//ru/ports/port-of-san-nicolas-in-pe-peru-id-6943"},
{"name": "SAN PEDRO", "type": "\u041f\u043e\u0440\u0442", "size": "\u041c\u0430\u043b\u0435\u043d\u044c\u043a\u0438\u0439", "UN_LOCODE": "CISPY", "country": "[CI] Ivory Coast", "longitude": -6.61586, "latitude": 4.74018, "link": "https://www.myshiptracking.com//ru/ports/port-of-san-pedro-in-ci-ivory-coast-id-3336"},
{"name": "SAN PEDRO (AR)", "type": "\u041f\u043e\u0440\u0442", "size": "\u0421\u0440\u0435\u0434\u043d\u0438\u0439", "UN_LOCODE": "ARSPD", "country": "[AR] Argentina", "longitude": -59.65029, "latitude": -33.67164, "link": "https://www.myshiptracking.com//ru/ports/port-of-san-pedro-ar-in-ar-argentina-id-6787"},
{"name": "SAN PEDRO (BZ)", "type": "\u041f\u043e\u0440\u0442", "size": "\u041c\u0430\u043b\u0435\u043d\u044c\u043a\u0438\u0439", "UN_LOCODE": "BZSPR", "country": "[BZ] Belize", "longitude": -87.96228, "latitude": 17.91507, "link": "https://www.myshiptracking.com//ru/ports/port-of-san-pedro-bz-in-bz-belize-id-7112"},
{"name": "SAN PEDRO DE MACORIS", "type": "\u041f\u043e\u0440\u0442", "size": "\u0411\u043e\u043b\u044c\u0448\u043e\u0439", "UN_LOCODE": "DOSPM", "country": "[DO] Dominican Rep", "longitude": -69.31625, "latitude": 18.44153, "link": "https://www.myshiptracking.com//ru/ports/port-of-san-pedro-de-macoris-in-do-dominican-rep-id-6949"},
{"name": "SAN VICENTE", "type": "\u041f\u043e\u0440\u0442", "size": "\u0411\u043e\u043b\u044c\u0448\u043e\u0439", "UN_LOCODE": "CLSVE", "country": "[CL] Chile", "longitude": -73.14843, "latitude": -36.7427, "link": "https://www.myshiptracking.com//ru/ports/port-of-san-vicente-in-cl-chile-id-6758"},
{"name": "SANBONMATSU", "type": "\u041f\u043e\u0440\u0442", "size": "\u041c\u0430\u043b\u0435\u043d\u044c\u043a\u0438\u0439", "UN_LOCODE": "JPSAN", "country": "[JP] Japan", "longitude": 134.3412, "latitude": 34.25745, "link": "https://www.myshiptracking.com//ru/ports/port-of-sanbonmatsu-in-jp-japan-id-4917"},
{"name": "SANCHEZ", "type": "\u041f\u043e\u0440\u0442", "size": "\u041c\u0430\u043b\u0435\u043d\u044c\u043a\u0438\u0439", "UN_LOCODE": "DOSNZ", "country": "[DO] Dominican Rep", "longitude": -69.61604, "latitude": 19.22257, "link": "https://www.myshiptracking.com//ru/ports/port-of-sanchez-in-do-dominican-rep-id-6954"},
{"name": "SAND POINT", "type": "\u041f\u043e\u0440\u0442", "size": "\u041c\u0430\u043b\u0435\u043d\u044c\u043a\u0438\u0439", "UN_LOCODE": "USSDP", "country": "[US] USA", "longitude": -160.50199, "latitude": 55.33358, "link": "https://www.myshiptracking.com//ru/ports/port-of-sand-point-in-us-usa-id-6348"},
{"name": "SANDAKAN", "type": "\u041f\u043e\u0440\u0442", "size": "\u0421\u0440\u0435\u0434\u043d\u0438\u0439", "UN_LOCODE": "MYSDK", "country": "[MY] Malaysia", "longitude": 118.08414, "latitude": 5.80653, "link": "https://www.myshiptracking.com//ru/ports/port-of-sandakan-in-my-malaysia-id-5731"},
{"name": "SANDANE", "type": "\u041f\u043e\u0440\u0442", "size": "\u0421\u0440\u0435\u0434\u043d\u0438\u0439", "UN_LOCODE": "NOSDN", "country": "[NO] Norway", "longitude": 6.2015, "latitude": 61.77714, "link": "https://www.myshiptracking.com//ru/ports/port-of-sandane-in-no-norway-id-5035"},
{"name": "SANDBANK", "type": "\u041f\u043e\u0440\u0442", "size": "X\u041c\u0430\u043b\u044b\u0439", "UN_LOCODE": "GBHLO", "country": "[GB] United Kingdom", "longitude": -4.94605, "latitude": 55.9837, "link": "https://www.myshiptracking.com//ru/ports/port-of-sandbank-in-gb-united-kingdom-id-1565"},
{"name": "SANDEFJORD", "type": "\u041f\u043e\u0440\u0442", "size": "\u041c\u0430\u043b\u0435\u043d\u044c\u043a\u0438\u0439", "UN_LOCODE": "NOSAD", "country": "[NO] Norway", "longitude": 10.2265, "latitude": 59.1133, "link": "https://www.myshiptracking.com//ru/ports/port-of-sandefjord-in-no-norway-id-367"},
{"name": "SANDEND", "type": "\u0413\u0430\u0432\u0430\u043d\u044c", "size": "\u041c\u0430\u043b\u0435\u043d\u044c\u043a\u0438\u0439", "UN_LOCODE": "---", "country": "[GB] United Kingdom", "longitude": -2.74666, "latitude": 57.68722, "link": "https://www.myshiptracking.com//ru/ports/marina-of-sandend-in-gb-united-kingdom-id-2329"},
{"name": "SANDGERDI", "type": "\u041f\u043e\u0440\u0442", "size": "X\u041c\u0430\u043b\u044b\u0439", "UN_LOCODE": "ISSAN", "country": "[IS] Iceland", "longitude": -22.71981, "latitude": 64.03765, "link": "https://www.myshiptracking.com//ru/ports/port-of-sandgerdi-in-is-iceland-id-5580"},
{"name": "SANDHAVEN", "type": "\u0413\u0430\u0432\u0430\u043d\u044c", "size": "\u041c\u0430\u043b\u0435\u043d\u044c\u043a\u0438\u0439", "UN_LOCODE": "GBSPI", "country": "[GB] United Kingdom", "longitude": -2.05623, "latitude": 57.69628, "link": "https://www.myshiptracking.com//ru/ports/marina-of-sandhaven-in-gb-united-kingdom-id-2309"},
{"name": "SANDNES", "type": "\u041f\u043e\u0440\u0442", "size": "\u0421\u0440\u0435\u0434\u043d\u0438\u0439", "UN_LOCODE": "NOSAS", "country": "[NO] Norway", "longitude": 5.75038, "latitude": 58.85875, "link": "https://www.myshiptracking.com//ru/ports/port-of-sandnes-in-no-norway-id-5204"},
{"name": "SANDNESSJOEN", "type": "\u041f\u043e\u0440\u0442", "size": "\u041c\u0430\u043b\u0435\u043d\u044c\u043a\u0438\u0439", "UN_LOCODE": "NOSSJ", "country": "[NO] Norway", "longitude": 12.642, "latitude": 66.02569, "link": "https://www.myshiptracking.com//ru/ports/port-of-sandnessjoen-in-no-norway-id-5087"},
{"name": "SANDOWN", "type": "\u041f\u043e\u0440\u0442", "size": "X\u041c\u0430\u043b\u044b\u0439", "UN_LOCODE": "GBSDO", "country": "[GB] United Kingdom", "longitude": -1.15307, "latitude": 50.65096, "link": "https://www.myshiptracking.com//ru/ports/port-of-sandown-in-gb-united-kingdom-id-1560"},
{"name": "SANDSOYA", "type": "\u041f\u043e\u0440\u0442", "size": "\u041c\u0430\u043b\u0435\u043d\u044c\u043a\u0438\u0439", "UN_LOCODE": "NOSAY", "country": "[NO] Norway", "longitude": 16.67078, "latitude": 68.94124, "link": "https://www.myshiptracking.com//ru/ports/port-of-sandsoya-in-no-norway-id-5202"},
{"name": "SANDSTONE", "type": "\u041f\u043e\u0440\u0442", "size": "\u041c\u0430\u043b\u0435\u043d\u044c\u043a\u0438\u0439", "UN_LOCODE": "AUDEB", "country": "[AU] Australia", "longitude": 153.1359, "latitude": -27.06892, "link": "https://www.myshiptracking.com//ru/ports/port-of-sandstone-in-au-australia-id-3999"},
{"name": "SANDUR", "type": "\u041f\u043e\u0440\u0442", "size": "X\u041c\u0430\u043b\u044b\u0439", "UN_LOCODE": "---", "country": "[FO] Faroe Is", "longitude": -6.80802, "latitude": 61.8306, "link": "https://www.myshiptracking.com//ru/ports/port-of-sandur-in-fo-faroe-is-id-5677"},
{"name": "SANDUSKY", "type": "\u041f\u043e\u0440\u0442", "size": "\u0411\u043e\u043b\u044c\u0448\u043e\u0439", "UN_LOCODE": "USSKY", "country": "[US] USA", "longitude": -82.70593, "latitude": 41.46476, "link": "https://www.myshiptracking.com//ru/ports/port-of-sandusky-in-us-usa-id-6260"},
{"name": "SANDVIK", "type": "\u041f\u043e\u0440\u0442", "size": "\u041c\u0430\u043b\u0435\u043d\u044c\u043a\u0438\u0439", "UN_LOCODE": "SESTR", "country": "[SE] Sweden", "longitude": 11.76943, "latitude": 57.62162, "link": "https://www.myshiptracking.com//ru/ports/port-of-sandvik-in-se-sweden-id-2236"},
{"name": "SANDVIKSBERGET", "type": "\u041f\u043e\u0440\u0442", "size": "\u041c\u0430\u043b\u0435\u043d\u044c\u043a\u0438\u0439", "UN_LOCODE": "NOSDI", "country": "[NO] Norway", "longitude": 10.4495, "latitude": 64.3217, "link": "https://www.myshiptracking.com//ru/ports/port-of-sandviksberget-in-no-norway-id-5188"},
{"name": "SANDVIKVAAG", "type": "\u041f\u043e\u0440\u0442", "size": "\u041c\u0430\u043b\u0435\u043d\u044c\u043a\u0438\u0439", "UN_LOCODE": "---", "country": "[NO] Norway", "longitude": 5.33512, "latitude": 59.97178, "link": "https://www.myshiptracking.com//ru/ports/port-of-sandvikvaag-in-no-norway-id-5197"},
{"name": "SANDWICH", "type": "\u041f\u043e\u0440\u0442", "size": "\u041c\u0430\u043b\u0435\u043d\u044c\u043a\u0438\u0439", "UN_LOCODE": "USSWC", "country": "[US] USA", "longitude": -70.50606, "latitude": 41.77288, "link": "https://www.myshiptracking.com//ru/ports/port-of-sandwich-in-us-usa-id-6221"},
{"name": "SANDY POINT", "type": "\u041f\u043e\u0440\u0442", "size": "\u041c\u0430\u043b\u0435\u043d\u044c\u043a\u0438\u0439", "UN_LOCODE": "---", "country": "[ZA] South Africa", "longitude": 18.01647, "latitude": -32.74482, "link": "https://www.myshiptracking.com//ru/ports/port-of-sandy-point-in-za-south-africa-id-3389"},
{"name": "SANGACHAL", "type": "\u041f\u043e\u0440\u0442", "size": "\u0411\u043e\u043b\u044c\u0448\u043e\u0439", "UN_LOCODE": "AZSAN", "country": "[AZ] Azerbaijan", "longitude": 49.5593, "latitude": 40.20555, "link": "https://www.myshiptracking.com//ru/ports/port-of-sangachal-in-az-azerbaijan-id-5812"},
{"name": "SANGANG", "type": "\u041f\u043e\u0440\u0442", "size": "X\u0411\u043e\u043b\u044c\u0449\u043e\u0439", "UN_LOCODE": "---", "country": "[CN] China", "longitude": 121.10493, "latitude": 32.54614, "link": "https://www.myshiptracking.com//ru/ports/port-of-sangang-in-cn-china-id-4123"},
{"name": "SANI", "type": "\u0413\u0430\u0432\u0430\u043d\u044c", "size": "X\u041c\u0430\u043b\u044b\u0439", "UN_LOCODE": "---", "country": "[GR] Greece", "longitude": 23.3105, "latitude": 40.0983, "link": "https://www.myshiptracking.com//ru/ports/marina-of-sani-in-gr-greece-id-845"},
{"name": "SANKT ALDEGUND", "type": "\u041f\u043e\u0440\u0442", "size": "\u041c\u0430\u043b\u0435\u043d\u044c\u043a\u0438\u0439", "UN_LOCODE": "DESAE", "country": "[DE] Germany", "longitude": 7.13246, "latitude": 50.08347, "link": "https://www.myshiptracking.com//ru/ports/port-of-sankt-aldegund-in-de-germany-id-1332"},
{"name": "SANLUCAR DE LA BARRA", "type": "\u041f\u043e\u0440\u0442", "size": "X\u041c\u0430\u043b\u044b\u0439", "UN_LOCODE": "ESSLB", "country": "[ES] Spain", "longitude": -6.35266, "latitude": 36.79008, "link": "https://www.myshiptracking.com//ru/ports/port-of-sanlucar-de-la-barra-in-es-spain-id-2705"},
{"name": "SANREMO", "type": "\u041f\u043e\u0440\u0442", "size": "\u041c\u0430\u043b\u0435\u043d\u044c\u043a\u0438\u0439", "UN_LOCODE": "ITSRE", "country": "[IT] Italy", "longitude": 7.78661, "latitude": 43.81609, "link": "https://www.myshiptracking.com//ru/ports/port-of-sanremo-in-it-italy-id-2088"},
{"name": "SANT ANTONI", "type": "\u041f\u043e\u0440\u0442", "size": "\u041c\u0430\u043b\u0435\u043d\u044c\u043a\u0438\u0439", "UN_LOCODE": "ESPNY", "country": "[ES] Spain", "longitude": 1.29991, "latitude": 38.9759, "link": "https://www.myshiptracking.com//ru/ports/port-of-sant-antoni-in-es-spain-id-1874"},
{"name": "SANTA BARBARA", "type": "\u041f\u043e\u0440\u0442", "size": "\u041c\u0430\u043b\u0435\u043d\u044c\u043a\u0438\u0439", "UN_LOCODE": "USSBA", "country": "[US] USA", "longitude": -119.6869, "latitude": 34.40868, "link": "https://www.myshiptracking.com//ru/ports/port-of-santa-barbara-in-us-usa-id-6278"},
{"name": "SANTA CLARA", "type": "\u041f\u043e\u0440\u0442", "size": "\u041c\u0430\u043b\u0435\u043d\u044c\u043a\u0438\u0439", "UN_LOCODE": "BRSCS", "country": "[BR] Brazil", "longitude": -51.37188, "latitude": -29.90217, "link": "https://www.myshiptracking.com//ru/ports/port-of-santa-clara-in-br-brazil-id-6686"},
{"name": "SANTA CRUZ CA", "type": "\u041f\u043e\u0440\u0442", "size": "\u041c\u0430\u043b\u0435\u043d\u044c\u043a\u0438\u0439", "UN_LOCODE": "USSRU", "country": "[US] USA", "longitude": -122.01896, "latitude": 36.95608, "link": "https://www.myshiptracking.com//ru/ports/port-of-santa-cruz-ca-in-us-usa-id-6059"},
{"name": "SANTA EULARIA", "type": "\u041f\u043e\u0440\u0442", "size": "X\u041c\u0430\u043b\u044b\u0439", "UN_LOCODE": "---", "country": "[ES] Spain", "longitude": 1.53989, "latitude": 38.98367, "link": "https://www.myshiptracking.com//ru/ports/port-of-santa-eularia-in-es-spain-id-1983"},
{"name": "SANTA FE", "type": "\u041f\u043e\u0440\u0442", "size": "\u0421\u0440\u0435\u0434\u043d\u0438\u0439", "UN_LOCODE": "ARSFN", "country": "[AR] Argentina", "longitude": -60.70202, "latitude": -31.65627, "link": "https://www.myshiptracking.com//ru/ports/port-of-santa-fe-in-ar-argentina-id-6773"},
{"name": "SANTA MARIA", "type": "\u041f\u043e\u0440\u0442", "size": "X\u041c\u0430\u043b\u044b\u0439", "UN_LOCODE": "---", "country": "[CU] Cuba", "longitude": -78.57359, "latitude": 21.41261, "link": "https://www.myshiptracking.com//ru/ports/port-of-santa-maria-in-cu-cuba-id-6848"},
{"name": "SANTA MARIA", "type": "\u041f\u043e\u0440\u0442", "size": "\u041c\u0430\u043b\u0435\u043d\u044c\u043a\u0438\u0439", "UN_LOCODE": "PESMG", "country": "[PE] Peru", "longitude": -76.77847, "latitude": -12.40906, "link": "https://www.myshiptracking.com//ru/ports/port-of-santa-maria-in-pe-peru-id-6931"},
{"name": "SANTA MARINELLA", "type": "\u0413\u0430\u0432\u0430\u043d\u044c", "size": "X\u041c\u0430\u043b\u044b\u0439", "UN_LOCODE": "ITSMA", "country": "[IT] Italy", "longitude": 11.8727, "latitude": 42.03457, "link": "https://www.myshiptracking.com//ru/ports/marina-of-santa-marinella-in-it-italy-id-2094"},
{"name": "SANTA MARTA", "type": "\u041f\u043e\u0440\u0442", "size": "\u041c\u0430\u043b\u0435\u043d\u044c\u043a\u0438\u0439", "UN_LOCODE": "COSMR", "country": "[CO] Colombia", "longitude": -74.22005, "latitude": 11.24448, "link": "https://www.myshiptracking.com//ru/ports/port-of-santa-marta-in-co-colombia-id-7014"},
