{"name": "KOVERHAR", "type": "\u041f\u043e\u0440\u0442", "size": "\u041c\u0430\u043b\u0435\u043d\u044c\u043a\u0438\u0439", "UN_LOCODE": "FIKVH", "country": "[FI] Finland", "longitude": 23.22833, "latitude": 59.87824, "link": "https://www.myshiptracking.com//ru/ports/port-of-koverhar-in-fi-finland-id-5623"},
{"name": "KOZMINO", "type": "\u041f\u043e\u0440\u0442", "size": "\u0421\u0440\u0435\u0434\u043d\u0438\u0439", "UN_LOCODE": "RUKOZ", "country": "[RU] Russia", "longitude": 133.01276, "latitude": 42.71913, "link": "https://www.myshiptracking.com//ru/ports/port-of-kozmino-in-ru-russia-id-3002"},
{"name": "KOZMODEMYANSK", "type": "\u041f\u043e\u0440\u0442", "size": "X\u041c\u0430\u043b\u044b\u0439", "UN_LOCODE": "---", "country": "[RU] Russia", "longitude": 46.56036, "latitude": 56.34704, "link": "https://www.myshiptracking.com//ru/ports/port-of-kozmodemyansk-in-ru-russia-id-3020"},
{"name": "KOZUKUSHI", "type": "\u041f\u043e\u0440\u0442", "size": "\u041c\u0430\u043b\u0435\u043d\u044c\u043a\u0438\u0439", "UN_LOCODE": "JPKZK", "country": "[JP] Japan", "longitude": 132.71934, "latitude": 32.8814, "link": "https://www.myshiptracking.com//ru/ports/port-of-kozukushi-in-jp-japan-id-4604"},
{"name": "KPEME", "type": "\u041f\u043e\u0440\u0442", "size": "\u041c\u0430\u043b\u0435\u043d\u044c\u043a\u0438\u0439", "UN_LOCODE": "TGKPE", "country": "[TG] Togo", "longitude": 1.51673, "latitude": 6.20004, "link": "https://www.myshiptracking.com//ru/ports/port-of-kpeme-in-tg-togo-id-3342"},
{"name": "KRABI", "type": "\u041f\u043e\u0440\u0442", "size": "\u0411\u043e\u043b\u044c\u0448\u043e\u0439", "UN_LOCODE": "THKBV", "country": "[TH] Thailand", "longitude": 98.90807, "latitude": 8.04322, "link": "https://www.myshiptracking.com//ru/ports/port-of-krabi-in-th-thailand-id-3677"},
{"name": "KRAGERO", "type": "\u041f\u043e\u0440\u0442", "size": "\u041c\u0430\u043b\u0435\u043d\u044c\u043a\u0438\u0439", "UN_LOCODE": "NOKRA", "country": "[NO] Norway", "longitude": 9.41872, "latitude": 58.86905, "link": "https://www.myshiptracking.com//ru/ports/port-of-kragero-in-no-norway-id-5316"},
{"name": "KRAGGENBURG", "type": "\u041f\u043e\u0440\u0442", "size": "\u041c\u0430\u043b\u0435\u043d\u044c\u043a\u0438\u0439", "UN_LOCODE": "NLKGB", "country": "[NL] Netherlands", "longitude": 5.89944, "latitude": 52.66308, "link": "https://www.myshiptracking.com//ru/ports/port-of-kraggenburg-in-nl-netherlands-id-970"},
{"name": "KRAIJEVICA", "type": "\u041f\u043e\u0440\u0442", "size": "\u041c\u0430\u043b\u0435\u043d\u044c\u043a\u0438\u0439", "UN_LOCODE": "HRKRA", "country": "[HR] Croatia", "longitude": 14.56401, "latitude": 45.27425, "link": "https://www.myshiptracking.com//ru/ports/port-of-kraijevica-in-hr-croatia-id-2810"},
{"name": "KRASNOGORSK", "type": "\u041f\u043e\u0440\u0442", "size": "\u0411\u043e\u043b\u044c\u0448\u043e\u0439", "UN_LOCODE": "RUKRS", "country": "[RU] Russia", "longitude": 142.08494, "latitude": 48.40995, "link": "https://www.myshiptracking.com//ru/ports/port-of-krasnogorsk-in-ru-russia-id-3083"},
{"name": "KREFELD", "type": "\u041f\u043e\u0440\u0442", "size": "\u0411\u043e\u043b\u044c\u0448\u043e\u0439", "UN_LOCODE": "DEKRE", "country": "[DE] Germany", "longitude": 6.65656, "latitude": 51.34963, "link": "https://www.myshiptracking.com//ru/ports/port-of-krefeld-in-de-germany-id-1524"},
{"name": "KREMENCHUK", "type": "\u041f\u043e\u0440\u0442", "size": "\u0411\u043e\u043b\u044c\u0448\u043e\u0439", "UN_LOCODE": "UAKRE", "country": "[UA] Ukraine", "longitude": 33.39635, "latitude": 49.06166, "link": "https://www.myshiptracking.com//ru/ports/port-of-kremenchuk-in-ua-ukraine-id-2952"},
{"name": "KREMS", "type": "\u041f\u043e\u0440\u0442", "size": "\u041c\u0430\u043b\u0435\u043d\u044c\u043a\u0438\u0439", "UN_LOCODE": "ATKRE", "country": "[AT] Austria", "longitude": 15.64629, "latitude": 48.40352, "link": "https://www.myshiptracking.com//ru/ports/port-of-krems-in-at-austria-id-5750"},
{"name": "KRIBI", "type": "\u0413\u0430\u0432\u0430\u043d\u044c", "size": "X\u041c\u0430\u043b\u044b\u0439", "UN_LOCODE": "CMKBI", "country": "[CM] Cameroon", "longitude": 9.90637, "latitude": 2.93839, "link": "https://www.myshiptracking.com//ru/ports/marina-of-kribi-in-cm-cameroon-id-3351"},
{"name": "KRIMPEN", "type": "\u041f\u043e\u0440\u0442", "size": "\u041c\u0430\u043b\u0435\u043d\u044c\u043a\u0438\u0439", "UN_LOCODE": "NLKAI", "country": "[NL] Netherlands", "longitude": 4.57632, "latitude": 51.90854, "link": "https://www.myshiptracking.com//ru/ports/port-of-krimpen-in-nl-netherlands-id-1048"},
{"name": "KRIMPEN AAN DE LEK", "type": "\u041f\u043e\u0440\u0442", "size": "\u041c\u0430\u043b\u0435\u043d\u044c\u043a\u0438\u0439", "UN_LOCODE": "NLKRP", "country": "[NL] Netherlands", "longitude": 4.608, "latitude": 51.89575, "link": "https://www.myshiptracking.com//ru/ports/port-of-krimpen-aan-de-lek-in-nl-netherlands-id-1194"},
{"name": "KRISHNAPATNAM", "type": "\u041f\u043e\u0440\u0442", "size": "X\u0411\u043e\u043b\u044c\u0449\u043e\u0439", "UN_LOCODE": "INKRI", "country": "[IN] India", "longitude": 80.142, "latitude": 14.24747, "link": "https://www.myshiptracking.com//ru/ports/port-of-krishnapatnam-in-in-india-id-3623"},
{"name": "KRISTEL", "type": "\u041f\u043e\u0440\u0442", "size": "X\u041c\u0430\u043b\u044b\u0439", "UN_LOCODE": "---", "country": "[DZ] Algeria", "longitude": -0.49154, "latitude": 35.82181, "link": "https://www.myshiptracking.com//ru/ports/port-of-kristel-in-dz-algeria-id-3242"},
{"name": "KRISTIANSAND", "type": "\u041f\u043e\u0440\u0442", "size": "\u0411\u043e\u043b\u044c\u0448\u043e\u0439", "UN_LOCODE": "NOKRS", "country": "[NO] Norway", "longitude": 7.98599, "latitude": 58.13546, "link": "https://www.myshiptracking.com//ru/ports/port-of-kristiansand-in-no-norway-id-5248"},
{"name": "KRISTIANSUND", "type": "\u041f\u043e\u0440\u0442", "size": "\u0421\u0440\u0435\u0434\u043d\u0438\u0439", "UN_LOCODE": "NOKSU", "country": "[NO] Norway", "longitude": 7.7435, "latitude": 63.1134, "link": "https://www.myshiptracking.com//ru/ports/port-of-kristiansund-in-no-norway-id-254"},
{"name": "KRISTINEHAMN", "type": "\u041f\u043e\u0440\u0442", "size": "\u0421\u0440\u0435\u0434\u043d\u0438\u0439", "UN_LOCODE": "SEKHN", "country": "[SE] Sweden", "longitude": 14.08094, "latitude": 59.31748, "link": "https://www.myshiptracking.com//ru/ports/port-of-kristinehamn-in-se-sweden-id-5366"},
{"name": "KRK", "type": "\u041f\u043e\u0440\u0442", "size": "\u041c\u0430\u043b\u0435\u043d\u044c\u043a\u0438\u0439", "UN_LOCODE": "HRKRK", "country": "[HR] Croatia", "longitude": 14.57947, "latitude": 45.0236, "link": "https://www.myshiptracking.com//ru/ports/port-of-krk-in-hr-croatia-id-2849"},
{"name": "KROKEIDE", "type": "\u041f\u043e\u0440\u0442", "size": "X\u041c\u0430\u043b\u044b\u0439", "UN_LOCODE": "---", "country": "[NO] Norway", "longitude": 5.29212, "latitude": 60.22406, "link": "https://www.myshiptracking.com//ru/ports/port-of-krokeide-in-no-norway-id-5306"},
{"name": "KRONG PREAH SIHANOUK", "type": "\u041f\u043e\u0440\u0442", "size": "\u0411\u043e\u043b\u044c\u0448\u043e\u0439", "UN_LOCODE": "KHKOS", "country": "[KH] Cambodia", "longitude": 103.50957, "latitude": 10.65184, "link": "https://www.myshiptracking.com//ru/ports/port-of-krong-preah-sihanouk-in-kh-cambodia-id-4073"},
{"name": "KRONSHTADT", "type": "\u041f\u043e\u0440\u0442", "size": "\u0411\u043e\u043b\u044c\u0448\u043e\u0439", "UN_LOCODE": "RUKDT", "country": "[RU] Russia", "longitude": 29.75009, "latitude": 59.9848, "link": "https://www.myshiptracking.com//ru/ports/port-of-kronshtadt-in-ru-russia-id-3028"},
{"name": "KROPSWOLDE", "type": "\u041f\u043e\u0440\u0442", "size": "\u041c\u0430\u043b\u0435\u043d\u044c\u043a\u0438\u0439", "UN_LOCODE": "---", "country": "[NL] Netherlands", "longitude": 6.71087, "latitude": 53.14348, "link": "https://www.myshiptracking.com//ru/ports/port-of-kropswolde-in-nl-netherlands-id-1231"},
{"name": "KROSLIN", "type": "\u041f\u043e\u0440\u0442", "size": "\u041c\u0430\u043b\u0435\u043d\u044c\u043a\u0438\u0439", "UN_LOCODE": "DEKSL", "country": "[DE] Germany", "longitude": 13.76019, "latitude": 54.12441, "link": "https://www.myshiptracking.com//ru/ports/port-of-kroslin-in-de-germany-id-1371"},
{"name": "KROSSHOLMEN", "type": "\u041f\u043e\u0440\u0442", "size": "\u041c\u0430\u043b\u0435\u043d\u044c\u043a\u0438\u0439", "UN_LOCODE": "SEKSH", "country": "[SE] Sweden", "longitude": 11.77673, "latitude": 57.69371, "link": "https://www.myshiptracking.com//ru/ports/port-of-krossholmen-in-se-sweden-id-2257"},
{"name": "KRUCKAU MUNDUNG", "type": "\u0413\u0430\u0432\u0430\u043d\u044c", "size": "X\u041c\u0430\u043b\u044b\u0439", "UN_LOCODE": "---", "country": "[DE] Germany", "longitude": 9.53, "latitude": 53.71587, "link": "https://www.myshiptracking.com//ru/ports/marina-of-kruckau-mundung-in-de-germany-id-1280"},
{"name": "KRYONERI", "type": "\u0413\u0430\u0432\u0430\u043d\u044c", "size": "X\u041c\u0430\u043b\u044b\u0439", "UN_LOCODE": "GRKRI", "country": "[GR] Greece", "longitude": 21.59457, "latitude": 38.34345, "link": "https://www.myshiptracking.com//ru/ports/marina-of-kryoneri-in-gr-greece-id-626"},
{"name": "KSAR SEGHIR", "type": "\u041f\u043e\u0440\u0442", "size": "\u041c\u0430\u043b\u0435\u043d\u044c\u043a\u0438\u0439", "UN_LOCODE": "---", "country": "[MA] Morocco", "longitude": -5.57173, "latitude": 35.84334, "link": "https://www.myshiptracking.com//ru/ports/port-of-ksar-seghir-in-ma-morocco-id-3283"},
{"name": "KSIBET EL MEDIOUNI", "type": "\u041f\u043e\u0440\u0442", "size": "X\u041c\u0430\u043b\u044b\u0439", "UN_LOCODE": "TNKEM", "country": "[TN] Tunisia", "longitude": 10.84649, "latitude": 35.69172, "link": "https://www.myshiptracking.com//ru/ports/port-of-ksibet-el-mediouni-in-tn-tunisia-id-3219"},
{"name": "KSILOKASTRO", "type": "\u0413\u0430\u0432\u0430\u043d\u044c", "size": "X\u041c\u0430\u043b\u044b\u0439", "UN_LOCODE": "---", "country": "[GR] Greece", "longitude": 22.62371, "latitude": 38.08123, "link": "https://www.myshiptracking.com//ru/ports/marina-of-ksilokastro-in-gr-greece-id-618"},
{"name": "KUALA BELAIT", "type": "\u041f\u043e\u0440\u0442", "size": "\u0421\u0440\u0435\u0434\u043d\u0438\u0439", "UN_LOCODE": "BNKUB", "country": "[BN] Brunei", "longitude": 114.19295, "latitude": 4.57865, "link": "https://www.myshiptracking.com//ru/ports/port-of-kuala-belait-in-bn-brunei-id-5878"},
{"name": "KUALA TERENGGANU", "type": "\u041f\u043e\u0440\u0442", "size": "\u0411\u043e\u043b\u044c\u0448\u043e\u0439", "UN_LOCODE": "MYTGG", "country": "[MY] Malaysia", "longitude": 103.13462, "latitude": 5.34103, "link": "https://www.myshiptracking.com//ru/ports/port-of-kuala-terengganu-in-my-malaysia-id-5721"},
{"name": "KUANTAN", "type": "\u041f\u043e\u0440\u0442", "size": "\u0411\u043e\u043b\u044c\u0448\u043e\u0439", "UN_LOCODE": "MYKUA", "country": "[MY] Malaysia", "longitude": 103.43364, "latitude": 3.97266, "link": "https://www.myshiptracking.com//ru/ports/port-of-kuantan-in-my-malaysia-id-5733"},
{"name": "KUANTAN CITY", "type": "\u041f\u043e\u0440\u0442", "size": "\u0411\u043e\u043b\u044c\u0448\u043e\u0439", "UN_LOCODE": "---", "country": "[MY] Malaysia", "longitude": 103.33564, "latitude": 3.80798, "link": "https://www.myshiptracking.com//ru/ports/port-of-kuantan-city-in-my-malaysia-id-5735"},
{"name": "KUCHING", "type": "\u041f\u043e\u0440\u0442", "size": "X\u0411\u043e\u043b\u044c\u0449\u043e\u0439", "UN_LOCODE": "MYKCH", "country": "[MY] Malaysia", "longitude": 110.40888, "latitude": 1.55907, "link": "https://www.myshiptracking.com//ru/ports/port-of-kuching-in-my-malaysia-id-5714"},
{"name": "KUCHINOTSU", "type": "\u041f\u043e\u0440\u0442", "size": "\u041c\u0430\u043b\u0435\u043d\u044c\u043a\u0438\u0439", "UN_LOCODE": "JPKUC", "country": "[JP] Japan", "longitude": 130.1932, "latitude": 32.6069, "link": "https://www.myshiptracking.com//ru/ports/port-of-kuchinotsu-in-jp-japan-id-4296"},
{"name": "KUCHITAGI", "type": "\u041f\u043e\u0440\u0442", "size": "\u041c\u0430\u043b\u0435\u043d\u044c\u043a\u0438\u0439", "UN_LOCODE": "---", "country": "[JP] Japan", "longitude": 132.58131, "latitude": 35.27244, "link": "https://www.myshiptracking.com//ru/ports/port-of-kuchitagi-in-jp-japan-id-4445"},
{"name": "KUCUKYALI", "type": "\u041f\u043e\u0440\u0442", "size": "\u041c\u0430\u043b\u0435\u043d\u044c\u043a\u0438\u0439", "UN_LOCODE": "TRKUY", "country": "[TR] Turkey", "longitude": 29.10374, "latitude": 40.94022, "link": "https://www.myshiptracking.com//ru/ports/port-of-kucukyali-in-tr-turkey-id-2140"},
{"name": "KUDAMATSU", "type": "\u041f\u043e\u0440\u0442", "size": "\u0411\u043e\u043b\u044c\u0448\u043e\u0439", "UN_LOCODE": "JPKUD", "country": "[JP] Japan", "longitude": 131.8485, "latitude": 34.0024, "link": "https://www.myshiptracking.com//ru/ports/port-of-kudamatsu-in-jp-japan-id-4906"},
{"name": "KUDAT", "type": "\u041f\u043e\u0440\u0442", "size": "\u041c\u0430\u043b\u0435\u043d\u044c\u043a\u0438\u0439", "UN_LOCODE": "MYKUD", "country": "[MY] Malaysia", "longitude": 116.84502, "latitude": 6.87801, "link": "https://www.myshiptracking.com//ru/ports/port-of-kudat-in-my-malaysia-id-5711"},
{"name": "KUDELSTAART", "type": "\u041f\u043e\u0440\u0442", "size": "\u041c\u0430\u043b\u0435\u043d\u044c\u043a\u0438\u0439", "UN_LOCODE": "NLKDS", "country": "[NL] Netherlands", "longitude": 4.74122, "latitude": 52.23543, "link": "https://www.myshiptracking.com//ru/ports/port-of-kudelstaart-in-nl-netherlands-id-1153"},
{"name": "KUEHLUNGSBORN", "type": "\u041f\u043e\u0440\u0442", "size": "\u041c\u0430\u043b\u0435\u043d\u044c\u043a\u0438\u0439", "UN_LOCODE": "---", "country": "[DE] Germany", "longitude": 11.7693, "latitude": 54.15475, "link": "https://www.myshiptracking.com//ru/ports/port-of-kuehlungsborn-in-de-germany-id-1505"},
{"name": "KUGUI", "type": "\u041f\u043e\u0440\u0442", "size": "\u041c\u0430\u043b\u0435\u043d\u044c\u043a\u0438\u0439", "UN_LOCODE": "JPKUG", "country": "[JP] Japan", "longitude": 134.197, "latitude": 34.71905, "link": "https://www.myshiptracking.com//ru/ports/port-of-kugui-in-jp-japan-id-4997"},
{"name": "KUGURIZAKA", "type": "\u041f\u043e\u0440\u0442", "size": "\u0421\u0440\u0435\u0434\u043d\u0438\u0439", "UN_LOCODE": "---", "country": "[JP] Japan", "longitude": 140.83382, "latitude": 40.87264, "link": "https://www.myshiptracking.com//ru/ports/port-of-kugurizaka-in-jp-japan-id-4955"},
{"name": "KUINRE", "type": "\u041f\u043e\u0440\u0442", "size": "\u041c\u0430\u043b\u0435\u043d\u044c\u043a\u0438\u0439", "UN_LOCODE": "---", "country": "[NL] Netherlands", "longitude": 5.83991, "latitude": 52.79279, "link": "https://www.myshiptracking.com//ru/ports/port-of-kuinre-in-nl-netherlands-id-949"},
{"name": "KUIVASTU", "type": "\u041f\u043e\u0440\u0442", "size": "\u041c\u0430\u043b\u0435\u043d\u044c\u043a\u0438\u0439", "UN_LOCODE": "EEKUI", "country": "[EE] Estonia", "longitude": 23.39565, "latitude": 58.57405, "link": "https://www.myshiptracking.com//ru/ports/port-of-kuivastu-in-ee-estonia-id-5638"},
{"name": "KUJI", "type": "\u041f\u043e\u0440\u0442", "size": "\u0411\u043e\u043b\u044c\u0448\u043e\u0439", "UN_LOCODE": "JPKJI", "country": "[JP] Japan", "longitude": 141.81337, "latitude": 40.20099, "link": "https://www.myshiptracking.com//ru/ports/port-of-kuji-in-jp-japan-id-4882"},
