{"name": "L'AMPOLLA", "type": "\u041f\u043e\u0440\u0442", "size": "\u041c\u0430\u043b\u0435\u043d\u044c\u043a\u0438\u0439", "UN_LOCODE": "ESLAA", "country": "[ES] Spain", "longitude": 0.71, "latitude": 40.81, "link": "https://www.myshiptracking.com//ru/ports/port-of-lampolla-in-es-spain-id-1907"},
{"name": "L'ESCALA", "type": "\u041f\u043e\u0440\u0442", "size": "\u041c\u0430\u043b\u0435\u043d\u044c\u043a\u0438\u0439", "UN_LOCODE": "ESGLE", "country": "[ES] Spain", "longitude": 3.14614, "latitude": 42.11817, "link": "https://www.myshiptracking.com//ru/ports/port-of-lescala-in-es-spain-id-1860"},
{"name": "L'ESTARTIT", "type": "\u041f\u043e\u0440\u0442", "size": "\u041c\u0430\u043b\u0435\u043d\u044c\u043a\u0438\u0439", "UN_LOCODE": "ESETT", "country": "[ES] Spain", "longitude": 3.2047, "latitude": 42.0527, "link": "https://www.myshiptracking.com//ru/ports/port-of-lestartit-in-es-spain-id-1937"},
{"name": "L'ILE ROUSSE", "type": "\u041f\u043e\u0440\u0442", "size": "\u041c\u0430\u043b\u0435\u043d\u044c\u043a\u0438\u0439", "UN_LOCODE": "FRILR", "country": "[FR] France", "longitude": 8.93926, "latitude": 42.63991, "link": "https://www.myshiptracking.com//ru/ports/port-of-lile-rousse-in-fr-france-id-1769"},
{"name": "LA BARRE DE MONTS", "type": "\u041f\u043e\u0440\u0442", "size": "X\u041c\u0430\u043b\u044b\u0439", "UN_LOCODE": "FRLDM", "country": "[FR] France", "longitude": -2.13944, "latitude": 46.89349, "link": "https://www.myshiptracking.com//ru/ports/port-of-la-barre-de-monts-in-fr-france-id-1808"},
{"name": "LA BOCA", "type": "\u041f\u043e\u0440\u0442", "size": "\u041c\u0430\u043b\u0435\u043d\u044c\u043a\u0438\u0439", "UN_LOCODE": "VEIND", "country": "[VE] Venezuela", "longitude": -67.76494, "latitude": 10.49142, "link": "https://www.myshiptracking.com//ru/ports/port-of-la-boca-in-ve-venezuela-id-6874"},
{"name": "LA BOUILLE", "type": "\u041f\u043e\u0440\u0442", "size": "X\u041c\u0430\u043b\u044b\u0439", "UN_LOCODE": "FROLL", "country": "[FR] France", "longitude": 0.93517, "latitude": 49.35316, "link": "https://www.myshiptracking.com//ru/ports/port-of-la-bouille-in-fr-france-id-1831"},
{"name": "LA BREA", "type": "\u041f\u043e\u0440\u0442", "size": "\u041c\u0430\u043b\u0435\u043d\u044c\u043a\u0438\u0439", "UN_LOCODE": "TTLAB", "country": "[TT] Trinidad Tobago", "longitude": -61.63119, "latitude": 10.24892, "link": "https://www.myshiptracking.com//ru/ports/port-of-la-brea-in-tt-trinidad-tobago-id-7025"},
{"name": "LA CEIBA", "type": "\u041f\u043e\u0440\u0442", "size": "\u041c\u0430\u043b\u0435\u043d\u044c\u043a\u0438\u0439", "UN_LOCODE": "HNLCE", "country": "[HN] Honduras", "longitude": -86.76073, "latitude": 15.79289, "link": "https://www.myshiptracking.com//ru/ports/port-of-la-ceiba-in-hn-honduras-id-7047"},
{"name": "LA CIOTAT", "type": "\u041f\u043e\u0440\u0442", "size": "\u041c\u0430\u043b\u0435\u043d\u044c\u043a\u0438\u0439", "UN_LOCODE": "FRLCT", "country": "[FR] France", "longitude": 5.61428, "latitude": 43.17372, "link": "https://www.myshiptracking.com//ru/ports/port-of-la-ciotat-in-fr-france-id-1714"},
{"name": "LA COLOMA", "type": "\u041f\u043e\u0440\u0442", "size": "\u041c\u0430\u043b\u0435\u043d\u044c\u043a\u0438\u0439", "UN_LOCODE": "CULCL", "country": "[CU] Cuba", "longitude": -83.5705, "latitude": 22.23834, "link": "https://www.myshiptracking.com//ru/ports/port-of-la-coloma-in-cu-cuba-id-6854"},
{"name": "LA CROSSE NORTH BAY", "type": "\u041f\u043e\u0440\u0442", "size": "X\u041c\u0430\u043b\u044b\u0439", "UN_LOCODE": "---", "country": "[US] USA", "longitude": -91.25795, "latitude": 43.83902, "link": "https://www.myshiptracking.com//ru/ports/port-of-la-crosse-north-bay-in-us-usa-id-6105"},
{"name": "LA ENSENADA", "type": "\u041f\u043e\u0440\u0442", "size": "\u0421\u0440\u0435\u0434\u043d\u0438\u0439", "UN_LOCODE": "VECHQ", "country": "[VE] Venezuela", "longitude": -71.6458, "latitude": 10.43259, "link": "https://www.myshiptracking.com//ru/ports/port-of-la-ensenada-in-ve-venezuela-id-6872"},
{"name": "LA FE", "type": "\u041f\u043e\u0440\u0442", "size": "X\u041c\u0430\u043b\u044b\u0439", "UN_LOCODE": "---", "country": "[CU] Cuba", "longitude": -84.27513, "latitude": 22.03755, "link": "https://www.myshiptracking.com//ru/ports/port-of-la-fe-in-cu-cuba-id-6835"},
{"name": "LA GOMERA", "type": "\u041f\u043e\u0440\u0442", "size": "\u041c\u0430\u043b\u0435\u043d\u044c\u043a\u0438\u0439", "UN_LOCODE": "ESSSG", "country": "[ES] Spain", "longitude": -17.1098, "latitude": 28.0863, "link": "https://www.myshiptracking.com//ru/ports/port-of-la-gomera-in-es-spain-id-2713"},
{"name": "LA GRANDE MOTTE", "type": "\u041f\u043e\u0440\u0442", "size": "\u041c\u0430\u043b\u0435\u043d\u044c\u043a\u0438\u0439", "UN_LOCODE": "FRGDM", "country": "[FR] France", "longitude": 4.08093, "latitude": 43.55441, "link": "https://www.myshiptracking.com//ru/ports/port-of-la-grande-motte-in-fr-france-id-1755"},
{"name": "LA GUAIRA", "type": "\u041f\u043e\u0440\u0442", "size": "\u0421\u0440\u0435\u0434\u043d\u0438\u0439", "UN_LOCODE": "VELAG", "country": "[VE] Venezuela", "longitude": -66.94919, "latitude": 10.60527, "link": "https://www.myshiptracking.com//ru/ports/port-of-la-guaira-in-ve-venezuela-id-6875"},
{"name": "LA LIBERTAD", "type": "\u041f\u043e\u0440\u0442", "size": "\u041c\u0430\u043b\u0435\u043d\u044c\u043a\u0438\u0439", "UN_LOCODE": "SVLLD", "country": "[SV] El Salvador", "longitude": -89.32035, "latitude": 13.48392, "link": "https://www.myshiptracking.com//ru/ports/port-of-la-libertad-in-sv-el-salvador-id-7062"},
{"name": "LA LOUZA", "type": "\u041f\u043e\u0440\u0442", "size": "X\u041c\u0430\u043b\u044b\u0439", "UN_LOCODE": "---", "country": "[TN] Tunisia", "longitude": 11.0107, "latitude": 35.02399, "link": "https://www.myshiptracking.com//ru/ports/port-of-la-louza-in-tn-tunisia-id-3234"},
{"name": "LA LUCIA", "type": "\u041f\u043e\u0440\u0442", "size": "\u041c\u0430\u043b\u0435\u043d\u044c\u043a\u0438\u0439", "UN_LOCODE": "ECLLD", "country": "[EC] Ecuador", "longitude": -80.9202, "latitude": -2.21731, "link": "https://www.myshiptracking.com//ru/ports/port-of-la-lucia-in-ec-ecuador-id-7064"},
{"name": "LA MARTINIERE (LE PE", "type": "\u041f\u043e\u0440\u0442", "size": "\u041c\u0430\u043b\u0435\u043d\u044c\u043a\u0438\u0439", "UN_LOCODE": "FRPXN", "country": "[FR] France", "longitude": -1.75619, "latitude": 47.20366, "link": "https://www.myshiptracking.com//ru/ports/port-of-la-martiniere-le-pe-in-fr-france-id-1718"},
{"name": "LA MAXE", "type": "\u041f\u043e\u0440\u0442", "size": "\u041c\u0430\u043b\u0435\u043d\u044c\u043a\u0438\u0439", "UN_LOCODE": "FRLMW", "country": "[FR] France", "longitude": 6.20069, "latitude": 49.16196, "link": "https://www.myshiptracking.com//ru/ports/port-of-la-maxe-in-fr-france-id-1821"},
{"name": "LA NAPOULE", "type": "\u041f\u043e\u0440\u0442", "size": "\u0411\u043e\u043b\u044c\u0448\u043e\u0439", "UN_LOCODE": "---", "country": "[FR] France", "longitude": 6.95084, "latitude": 43.5268, "link": "https://www.myshiptracking.com//ru/ports/port-of-la-napoule-in-fr-france-id-1806"},
{"name": "LA PALLICE", "type": "\u041f\u043e\u0440\u0442", "size": "\u0421\u0440\u0435\u0434\u043d\u0438\u0439", "UN_LOCODE": "FRLPE", "country": "[FR] France", "longitude": -1.23343, "latitude": 46.15638, "link": "https://www.myshiptracking.com//ru/ports/port-of-la-pallice-in-fr-france-id-1725"},
{"name": "LA PALMA", "type": "\u041f\u043e\u0440\u0442", "size": "\u041c\u0430\u043b\u0435\u043d\u044c\u043a\u0438\u0439", "UN_LOCODE": "PAPLP", "country": "[PA] Panama", "longitude": -78.13857, "latitude": 8.41035, "link": "https://www.myshiptracking.com//ru/ports/port-of-la-palma-in-pa-panama-id-6901"},
{"name": "LA PALMA", "type": "\u041f\u043e\u0440\u0442", "size": "\u0421\u0440\u0435\u0434\u043d\u0438\u0439", "UN_LOCODE": "ESSPC", "country": "[ES] Spain", "longitude": -17.76527, "latitude": 28.67145, "link": "https://www.myshiptracking.com//ru/ports/port-of-la-palma-in-es-spain-id-2680"},
{"name": "LA PALOMA", "type": "\u041f\u043e\u0440\u0442", "size": "X\u041c\u0430\u043b\u044b\u0439", "UN_LOCODE": "UYLAP", "country": "[UY] Uruguay", "longitude": -54.1445, "latitude": -34.65113, "link": "https://www.myshiptracking.com//ru/ports/port-of-la-paloma-in-uy-uruguay-id-7049"},
{"name": "LA PASADA", "type": "\u041f\u043e\u0440\u0442", "size": "X\u041c\u0430\u043b\u044b\u0439", "UN_LOCODE": "---", "country": "[CL] Chile", "longitude": -73.5983, "latitude": -41.60619, "link": "https://www.myshiptracking.com//ru/ports/port-of-la-pasada-in-cl-chile-id-6759"},
{"name": "LA PAZ", "type": "\u041f\u043e\u0440\u0442", "size": "\u0411\u043e\u043b\u044c\u0448\u043e\u0439", "UN_LOCODE": "MXLAP", "country": "[MX] Mexico", "longitude": -110.33773, "latitude": 24.15128, "link": "https://www.myshiptracking.com//ru/ports/port-of-la-paz-in-mx-mexico-id-6575"},
{"name": "LA PAZ", "type": "\u041f\u043e\u0440\u0442", "size": "\u0421\u0440\u0435\u0434\u043d\u0438\u0439", "UN_LOCODE": "ARLPM", "country": "[AR] Argentina", "longitude": -59.64689, "latitude": -30.73531, "link": "https://www.myshiptracking.com//ru/ports/port-of-la-paz-in-ar-argentina-id-6803"},
{"name": "LA PENITA", "type": "\u041f\u043e\u0440\u0442", "size": "\u041c\u0430\u043b\u0435\u043d\u044c\u043a\u0438\u0439", "UN_LOCODE": "---", "country": "[VE] Venezuela", "longitude": -66.097, "latitude": 10.49027, "link": "https://www.myshiptracking.com//ru/ports/port-of-la-penita-in-ve-venezuela-id-6861"},
{"name": "LA PESCA", "type": "\u041f\u043e\u0440\u0442", "size": "\u041c\u0430\u043b\u0435\u043d\u044c\u043a\u0438\u0439", "UN_LOCODE": "---", "country": "[MX] Mexico", "longitude": -97.77498, "latitude": 23.78449, "link": "https://www.myshiptracking.com//ru/ports/port-of-la-pesca-in-mx-mexico-id-6564"},
{"name": "LA PEYRADE", "type": "\u041f\u043e\u0440\u0442", "size": "X\u041c\u0430\u043b\u044b\u0439", "UN_LOCODE": "FRLA3", "country": "[FR] France", "longitude": 3.74429, "latitude": 43.4201, "link": "https://www.myshiptracking.com//ru/ports/port-of-la-peyrade-in-fr-france-id-1753"},
{"name": "LA PLATA", "type": "\u041f\u043e\u0440\u0442", "size": "\u0411\u043e\u043b\u044c\u0448\u043e\u0439", "UN_LOCODE": "ARLPG", "country": "[AR] Argentina", "longitude": -57.88701, "latitude": -34.84936, "link": "https://www.myshiptracking.com//ru/ports/port-of-la-plata-in-ar-argentina-id-6801"},
{"name": "LA PLAYA", "type": "\u041f\u043e\u0440\u0442", "size": "\u041c\u0430\u043b\u0435\u043d\u044c\u043a\u0438\u0439", "UN_LOCODE": "MXLCB", "country": "[MX] Mexico", "longitude": -109.67266, "latitude": 23.05965, "link": "https://www.myshiptracking.com//ru/ports/port-of-la-playa-in-mx-mexico-id-6583"},
{"name": "LA POINTE", "type": "\u041f\u043e\u0440\u0442", "size": "X\u041c\u0430\u043b\u044b\u0439", "UN_LOCODE": "USJPP", "country": "[US] USA", "longitude": -90.78992, "latitude": 46.77806, "link": "https://www.myshiptracking.com//ru/ports/port-of-la-pointe-in-us-usa-id-6263"},
{"name": "LA PUNTILLA", "type": "\u041f\u043e\u0440\u0442", "size": "\u041c\u0430\u043b\u0435\u043d\u044c\u043a\u0438\u0439", "UN_LOCODE": "---", "country": "[ES] Spain", "longitude": -17.33054, "latitude": 28.07941, "link": "https://www.myshiptracking.com//ru/ports/port-of-la-puntilla-in-es-spain-id-2670"},
{"name": "LA REFORMA", "type": "\u041f\u043e\u0440\u0442", "size": "X\u041c\u0430\u043b\u044b\u0439", "UN_LOCODE": "---", "country": "[MX] Mexico", "longitude": -108.05805, "latitude": 25.07496, "link": "https://www.myshiptracking.com//ru/ports/port-of-la-reforma-in-mx-mexico-id-6600"},
{"name": "LA RESTINGA", "type": "\u041f\u043e\u0440\u0442", "size": "\u041c\u0430\u043b\u0435\u043d\u044c\u043a\u0438\u0439", "UN_LOCODE": "ESLAF", "country": "[ES] Spain", "longitude": -17.9825, "latitude": 27.63879, "link": "https://www.myshiptracking.com//ru/ports/port-of-la-restinga-in-es-spain-id-2667"},
{"name": "LA RIBERA", "type": "\u041f\u043e\u0440\u0442", "size": "\u041c\u0430\u043b\u0435\u043d\u044c\u043a\u0438\u0439", "UN_LOCODE": "---", "country": "[MX] Mexico", "longitude": -109.58563, "latitude": 23.60701, "link": "https://www.myshiptracking.com//ru/ports/port-of-la-ribera-in-mx-mexico-id-6547"},
{"name": "LA ROCHELLE", "type": "\u041f\u043e\u0440\u0442", "size": "\u041c\u0430\u043b\u0435\u043d\u044c\u043a\u0438\u0439", "UN_LOCODE": "FRLRH", "country": "[FR] France", "longitude": -1.16179, "latitude": 46.15031, "link": "https://www.myshiptracking.com//ru/ports/port-of-la-rochelle-in-fr-france-id-1782"},
{"name": "LA ROMANA", "type": "\u041f\u043e\u0440\u0442", "size": "\u0421\u0440\u0435\u0434\u043d\u0438\u0439", "UN_LOCODE": "DOLRM", "country": "[DO] Dominican Rep", "longitude": -68.96049, "latitude": 18.41155, "link": "https://www.myshiptracking.com//ru/ports/port-of-la-romana-in-do-dominican-rep-id-6945"},
{"name": "LA SEYNE-SUR-MER", "type": "\u041f\u043e\u0440\u0442", "size": "\u041c\u0430\u043b\u0435\u043d\u044c\u043a\u0438\u0439", "UN_LOCODE": "FRYNE", "country": "[FR] France", "longitude": 5.8915, "latitude": 43.105, "link": "https://www.myshiptracking.com//ru/ports/port-of-la-seyne-sur-mer-in-fr-france-id-1751"},
{"name": "LA SPEZIA", "type": "\u041f\u043e\u0440\u0442", "size": "\u0411\u043e\u043b\u044c\u0448\u043e\u0439", "UN_LOCODE": "ITSPE", "country": "[IT] Italy", "longitude": 9.84815, "latitude": 44.0874, "link": "https://www.myshiptracking.com//ru/ports/port-of-la-spezia-in-it-italy-id-256"},
{"name": "LA TURBALLE", "type": "\u041f\u043e\u0440\u0442", "size": "X\u041c\u0430\u043b\u044b\u0439", "UN_LOCODE": "FRTBE", "country": "[FR] France", "longitude": -2.51477, "latitude": 47.34597, "link": "https://www.myshiptracking.com//ru/ports/port-of-la-turballe-in-fr-france-id-1732"},
{"name": "LA UNION", "type": "\u041f\u043e\u0440\u0442", "size": "\u0411\u043e\u043b\u044c\u0448\u043e\u0439", "UN_LOCODE": "SVLUN", "country": "[SV] El Salvador", "longitude": -87.83585, "latitude": 13.34257, "link": "https://www.myshiptracking.com//ru/ports/port-of-la-union-in-sv-el-salvador-id-6979"},
{"name": "LAAG KEPPEL", "type": "\u041f\u043e\u0440\u0442", "size": "X\u041c\u0430\u043b\u044b\u0439", "UN_LOCODE": "NLLGK", "country": "[NL] Netherlands", "longitude": 6.22482, "latitude": 51.99576, "link": "https://www.myshiptracking.com//ru/ports/port-of-laag-keppel-in-nl-netherlands-id-1203"},
{"name": "LAAIPLEK", "type": "\u041f\u043e\u0440\u0442", "size": "\u041c\u0430\u043b\u0435\u043d\u044c\u043a\u0438\u0439", "UN_LOCODE": "ZALUI", "country": "[ZA] South Africa", "longitude": 18.15167, "latitude": -32.77349, "link": "https://www.myshiptracking.com//ru/ports/port-of-laaiplek-in-za-south-africa-id-3407"},
{"name": "LABADIE", "type": "\u041f\u043e\u0440\u0442", "size": "\u041c\u0430\u043b\u0435\u043d\u044c\u043a\u0438\u0439", "UN_LOCODE": "HTLAB", "country": "[HT] Haiti", "longitude": -72.24809, "latitude": 19.77999, "link": "https://www.myshiptracking.com//ru/ports/port-of-labadie-in-ht-haiti-id-7109"},
{"name": "LABASA", "type": "\u041f\u043e\u0440\u0442", "size": "\u041c\u0430\u043b\u0435\u043d\u044c\u043a\u0438\u0439", "UN_LOCODE": "FJLBS", "country": "[FJ] Fiji", "longitude": 179.36257, "latitude": -16.36122, "link": "https://www.myshiptracking.com//ru/ports/port-of-labasa-in-fj-fiji-id-5755"},
