{"name": "FAMAGUSTA", "type": "\u041f\u043e\u0440\u0442", "size": "\u0421\u0440\u0435\u0434\u043d\u0438\u0439", "UN_LOCODE": "CYFMG", "country": "[CY] Cyprus", "longitude": 33.94737, "latitude": 35.13206, "link": "https://www.myshiptracking.com//ru/ports/port-of-famagusta-in-cy-cyprus-id-3138"},
{"name": "FAMJIN", "type": "\u041f\u043e\u0440\u0442", "size": "X\u041c\u0430\u043b\u044b\u0439", "UN_LOCODE": "---", "country": "[FO] Faroe Is", "longitude": -6.88343, "latitude": 61.52396, "link": "https://www.myshiptracking.com//ru/ports/port-of-famjin-in-fo-faroe-is-id-5678"},
{"name": "FANARI", "type": "\u0413\u0430\u0432\u0430\u043d\u044c", "size": "X\u041c\u0430\u043b\u044b\u0439", "UN_LOCODE": "---", "country": "[GR] Greece", "longitude": 25.12832, "latitude": 40.96224, "link": "https://www.myshiptracking.com//ru/ports/marina-of-fanari-in-gr-greece-id-465"},
{"name": "FANGCHENG", "type": "\u041f\u043e\u0440\u0442", "size": "X\u0411\u043e\u043b\u044c\u0449\u043e\u0439", "UN_LOCODE": "CNFAN", "country": "[CN] China", "longitude": 108.37053, "latitude": 21.58778, "link": "https://www.myshiptracking.com//ru/ports/port-of-fangcheng-in-cn-china-id-4088"},
{"name": "FANO", "type": "\u041f\u043e\u0440\u0442", "size": "X\u041c\u0430\u043b\u044b\u0439", "UN_LOCODE": "DKNDB", "country": "[DK] Denmark", "longitude": 8.40954, "latitude": 55.45048, "link": "https://www.myshiptracking.com//ru/ports/port-of-fano-in-dk-denmark-id-2629"},
{"name": "FARMAKONISI", "type": "\u0413\u0430\u0432\u0430\u043d\u044c", "size": "X\u041c\u0430\u043b\u044b\u0439", "UN_LOCODE": "---", "country": "[GR] Greece", "longitude": 27.089, "latitude": 37.29068, "link": "https://www.myshiptracking.com//ru/ports/marina-of-farmakonisi-in-gr-greece-id-584"},
{"name": "FAROSUND", "type": "\u041f\u043e\u0440\u0442", "size": "X\u041c\u0430\u043b\u044b\u0439", "UN_LOCODE": "SEFSD", "country": "[SE] Sweden", "longitude": 19.0595, "latitude": 57.8647, "link": "https://www.myshiptracking.com//ru/ports/port-of-farosund-in-se-sweden-id-163"},
{"name": "FARSUND", "type": "\u041f\u043e\u0440\u0442", "size": "\u041c\u0430\u043b\u0435\u043d\u044c\u043a\u0438\u0439", "UN_LOCODE": "NOFAN", "country": "[NO] Norway", "longitude": 6.80917, "latitude": 58.09381, "link": "https://www.myshiptracking.com//ru/ports/port-of-farsund-in-no-norway-id-5252"},
{"name": "FASKRUDSFJORDUR", "type": "\u041f\u043e\u0440\u0442", "size": "\u041c\u0430\u043b\u0435\u043d\u044c\u043a\u0438\u0439", "UN_LOCODE": "ISFAS", "country": "[IS] Iceland", "longitude": -14.00759, "latitude": 64.92683, "link": "https://www.myshiptracking.com//ru/ports/port-of-faskrudsfjordur-in-is-iceland-id-5589"},
{"name": "FASLANE", "type": "\u041f\u043e\u0440\u0442", "size": "\u041c\u0430\u043b\u0435\u043d\u044c\u043a\u0438\u0439", "UN_LOCODE": "GBFAS", "country": "[GB] United Kingdom", "longitude": -4.82044, "latitude": 56.0618, "link": "https://www.myshiptracking.com//ru/ports/port-of-faslane-in-gb-united-kingdom-id-164"},
{"name": "FATSA", "type": "\u041f\u043e\u0440\u0442", "size": "\u041c\u0430\u043b\u0435\u043d\u044c\u043a\u0438\u0439", "UN_LOCODE": "TRFAS", "country": "[TR] Turkey", "longitude": 37.4901, "latitude": 41.044, "link": "https://www.myshiptracking.com//ru/ports/port-of-fatsa-in-tr-turkey-id-2155"},
{"name": "FAUNTLEROY", "type": "\u041f\u043e\u0440\u0442", "size": "\u041c\u0430\u043b\u0435\u043d\u044c\u043a\u0438\u0439", "UN_LOCODE": "---", "country": "[US] USA", "longitude": -122.39763, "latitude": 47.52389, "link": "https://www.myshiptracking.com//ru/ports/port-of-fauntleroy-in-us-usa-id-6123"},
{"name": "FAUSKE", "type": "\u041f\u043e\u0440\u0442", "size": "\u041c\u0430\u043b\u0435\u043d\u044c\u043a\u0438\u0439", "UN_LOCODE": "NOFAU", "country": "[NO] Norway", "longitude": 15.40946, "latitude": 67.25388, "link": "https://www.myshiptracking.com//ru/ports/port-of-fauske-in-no-norway-id-5240"},
{"name": "FAVIGNANA", "type": "\u041f\u043e\u0440\u0442", "size": "\u041c\u0430\u043b\u0435\u043d\u044c\u043a\u0438\u0439", "UN_LOCODE": "ITFAV", "country": "[IT] Italy", "longitude": 12.32323, "latitude": 37.93345, "link": "https://www.myshiptracking.com//ru/ports/port-of-favignana-in-it-italy-id-2050"},
{"name": "FAWLEY", "type": "\u041f\u043e\u0440\u0442", "size": "\u041c\u0430\u043b\u0435\u043d\u044c\u043a\u0438\u0439", "UN_LOCODE": "GBFAW", "country": "[GB] United Kingdom", "longitude": -1.33165, "latitude": 50.8395, "link": "https://www.myshiptracking.com//ru/ports/port-of-fawley-in-gb-united-kingdom-id-165"},
{"name": "FAZANA", "type": "\u041f\u043e\u0440\u0442", "size": "X\u041c\u0430\u043b\u044b\u0439", "UN_LOCODE": "HRFNA", "country": "[HR] Croatia", "longitude": 13.8018, "latitude": 44.92732, "link": "https://www.myshiptracking.com//ru/ports/port-of-fazana-in-hr-croatia-id-2798"},
{"name": "FECAMP", "type": "\u041f\u043e\u0440\u0442", "size": "\u041c\u0430\u043b\u0435\u043d\u044c\u043a\u0438\u0439", "UN_LOCODE": "FRFEC", "country": "[FR] France", "longitude": 0.37224, "latitude": 49.76187, "link": "https://www.myshiptracking.com//ru/ports/port-of-fecamp-in-fr-france-id-1803"},
{"name": "FEDERATION", "type": "\u041f\u043e\u0440\u0442", "size": "\u0421\u0440\u0435\u0434\u043d\u0438\u0439", "UN_LOCODE": "ARFEN", "country": "[AR] Argentina", "longitude": -57.90887, "latitude": -30.99423, "link": "https://www.myshiptracking.com//ru/ports/port-of-federation-in-ar-argentina-id-6791"},
{"name": "FEDJE", "type": "\u041f\u043e\u0440\u0442", "size": "\u041c\u0430\u043b\u0435\u043d\u044c\u043a\u0438\u0439", "UN_LOCODE": "NOFED", "country": "[NO] Norway", "longitude": 4.71308, "latitude": 60.78303, "link": "https://www.myshiptracking.com//ru/ports/port-of-fedje-in-no-norway-id-5265"},
{"name": "FEJAN", "type": "\u041f\u043e\u0440\u0442", "size": "X\u041c\u0430\u043b\u044b\u0439", "UN_LOCODE": "SEFEJ", "country": "[SE] Sweden", "longitude": 19.16721, "latitude": 59.74405, "link": "https://www.myshiptracking.com//ru/ports/port-of-fejan-in-se-sweden-id-5379"},
{"name": "FELIXSTOWE", "type": "\u041f\u043e\u0440\u0442", "size": "\u041c\u0430\u043b\u0435\u043d\u044c\u043a\u0438\u0439", "UN_LOCODE": "GBFXT", "country": "[GB] United Kingdom", "longitude": 1.29957, "latitude": 51.9589, "link": "https://www.myshiptracking.com//ru/ports/port-of-felixstowe-in-gb-united-kingdom-id-166"},
{"name": "FENGCHENG", "type": "\u041f\u043e\u0440\u0442", "size": "\u0421\u0440\u0435\u0434\u043d\u0438\u0439", "UN_LOCODE": "CNFCE", "country": "[CN] China", "longitude": 121.2326, "latitude": 36.68105, "link": "https://www.myshiptracking.com//ru/ports/port-of-fengcheng-in-cn-china-id-4178"},
{"name": "FENIT", "type": "\u041f\u043e\u0440\u0442", "size": "X\u041c\u0430\u043b\u044b\u0439", "UN_LOCODE": "IEFEN", "country": "[IE] Ireland", "longitude": -9.86124, "latitude": 52.27075, "link": "https://www.myshiptracking.com//ru/ports/port-of-fenit-in-ie-ireland-id-2489"},
{"name": "FEODOSIYA", "type": "\u041f\u043e\u0440\u0442", "size": "\u041c\u0430\u043b\u0435\u043d\u044c\u043a\u0438\u0439", "UN_LOCODE": "UAFEO", "country": "[UA] Ukraine", "longitude": 35.39425, "latitude": 45.02947, "link": "https://www.myshiptracking.com//ru/ports/port-of-feodosiya-in-ua-ukraine-id-2928"},
{"name": "FEREYDUNKENAR", "type": "\u041f\u043e\u0440\u0442", "size": "\u041c\u0430\u043b\u0435\u043d\u044c\u043a\u0438\u0439", "UN_LOCODE": "---", "country": "[IR] Iran", "longitude": 52.56096, "latitude": 36.70071, "link": "https://www.myshiptracking.com//ru/ports/port-of-fereydunkenar-in-ir-iran-id-3535"},
{"name": "FERNDALE", "type": "\u041f\u043e\u0440\u0442", "size": "\u041c\u0430\u043b\u0435\u043d\u044c\u043a\u0438\u0439", "UN_LOCODE": "USFDT", "country": "[US] USA", "longitude": -122.7193, "latitude": 48.82514, "link": "https://www.myshiptracking.com//ru/ports/port-of-ferndale-in-us-usa-id-5948"},
{"name": "FESTOYA", "type": "\u041f\u043e\u0440\u0442", "size": "X\u041c\u0430\u043b\u044b\u0439", "UN_LOCODE": "---", "country": "[NO] Norway", "longitude": 6.33201, "latitude": 62.37597, "link": "https://www.myshiptracking.com//ru/ports/port-of-festoya-in-no-norway-id-5337"},
{"name": "FESTVAG", "type": "\u041f\u043e\u0440\u0442", "size": "X\u041c\u0430\u043b\u044b\u0439", "UN_LOCODE": "NOFSV", "country": "[NO] Norway", "longitude": 14.76476, "latitude": 67.43865, "link": "https://www.myshiptracking.com//ru/ports/port-of-festvag-in-no-norway-id-5191"},
{"name": "FETHIYE", "type": "\u041f\u043e\u0440\u0442", "size": "\u0411\u043e\u043b\u044c\u0448\u043e\u0439", "UN_LOCODE": "TRFET", "country": "[TR] Turkey", "longitude": 29.10487, "latitude": 36.63366, "link": "https://www.myshiptracking.com//ru/ports/port-of-fethiye-in-tr-turkey-id-2137"},
{"name": "FIGEHOLM", "type": "\u041f\u043e\u0440\u0442", "size": "\u041c\u0430\u043b\u0435\u043d\u044c\u043a\u0438\u0439", "UN_LOCODE": "SEFIG", "country": "[SE] Sweden", "longitude": 16.55853, "latitude": 57.37476, "link": "https://www.myshiptracking.com//ru/ports/port-of-figeholm-in-se-sweden-id-5377"},
{"name": "FIGUEIRA DA FOZ", "type": "\u041f\u043e\u0440\u0442", "size": "\u0411\u043e\u043b\u044c\u0448\u043e\u0439", "UN_LOCODE": "PTFDF", "country": "[PT] Portugal", "longitude": -8.8566, "latitude": 40.14621, "link": "https://www.myshiptracking.com//ru/ports/port-of-figueira-da-foz-in-pt-portugal-id-2728"},
{"name": "FILICUDI", "type": "\u041f\u043e\u0440\u0442", "size": "X\u041c\u0430\u043b\u044b\u0439", "UN_LOCODE": "ITFPO", "country": "[IT] Italy", "longitude": 14.58147, "latitude": 38.56287, "link": "https://www.myshiptracking.com//ru/ports/port-of-filicudi-in-it-italy-id-2072"},
{"name": "FILLAN", "type": "\u041f\u043e\u0440\u0442", "size": "\u041c\u0430\u043b\u0435\u043d\u044c\u043a\u0438\u0439", "UN_LOCODE": "---", "country": "[NO] Norway", "longitude": 8.98317, "latitude": 63.60843, "link": "https://www.myshiptracking.com//ru/ports/port-of-fillan-in-no-norway-id-5166"},
{"name": "FINALE LIGURE", "type": "\u041f\u043e\u0440\u0442", "size": "\u041c\u0430\u043b\u0435\u043d\u044c\u043a\u0438\u0439", "UN_LOCODE": "ITFNL", "country": "[IT] Italy", "longitude": 8.35181, "latitude": 44.16854, "link": "https://www.myshiptracking.com//ru/ports/port-of-finale-ligure-in-it-italy-id-2763"},
{"name": "FINDOCHTY", "type": "\u0413\u0430\u0432\u0430\u043d\u044c", "size": "\u041c\u0430\u043b\u0435\u043d\u044c\u043a\u0438\u0439", "UN_LOCODE": "GBFID", "country": "[GB] United Kingdom", "longitude": -2.90431, "latitude": 57.69864, "link": "https://www.myshiptracking.com//ru/ports/marina-of-findochty-in-gb-united-kingdom-id-2433"},
{"name": "FINIKE", "type": "\u041f\u043e\u0440\u0442", "size": "X\u041c\u0430\u043b\u044b\u0439", "UN_LOCODE": "TRFIN", "country": "[TR] Turkey", "longitude": 30.15123, "latitude": 36.29417, "link": "https://www.myshiptracking.com//ru/ports/port-of-finike-in-tr-turkey-id-2106"},
{"name": "FINNART", "type": "\u041f\u043e\u0440\u0442", "size": "\u041c\u0430\u043b\u0435\u043d\u044c\u043a\u0438\u0439", "UN_LOCODE": "GBFNT", "country": "[GB] United Kingdom", "longitude": -4.84044, "latitude": 56.1144, "link": "https://www.myshiptracking.com//ru/ports/port-of-finnart-in-gb-united-kingdom-id-167"},
{"name": "FINNSNES", "type": "\u041f\u043e\u0440\u0442", "size": "\u041c\u0430\u043b\u0435\u043d\u044c\u043a\u0438\u0439", "UN_LOCODE": "NOFNE", "country": "[NO] Norway", "longitude": 17.97048, "latitude": 69.23568, "link": "https://www.myshiptracking.com//ru/ports/port-of-finnsnes-in-no-norway-id-5224"},
{"name": "FINTAS", "type": "\u041f\u043e\u0440\u0442", "size": "\u041c\u0430\u043b\u0435\u043d\u044c\u043a\u0438\u0439", "UN_LOCODE": "---", "country": "[KW] Kuwait", "longitude": 48.12974, "latitude": 29.17064, "link": "https://www.myshiptracking.com//ru/ports/port-of-fintas-in-kw-kuwait-id-3523"},
{"name": "FIORDO LARGO", "type": "\u041f\u043e\u0440\u0442", "size": "\u041c\u0430\u043b\u0435\u043d\u044c\u043a\u0438\u0439", "UN_LOCODE": "---", "country": "[CL] Chile", "longitude": -72.5239, "latitude": -42.547, "link": "https://www.myshiptracking.com//ru/ports/port-of-fiordo-largo-in-cl-chile-id-6763"},
{"name": "FISCHENHAFEN LABOE", "type": "\u0413\u0430\u0432\u0430\u043d\u044c", "size": "X\u041c\u0430\u043b\u044b\u0439", "UN_LOCODE": "DELAB", "country": "[DE] Germany", "longitude": 10.21487, "latitude": 54.40285, "link": "https://www.myshiptracking.com//ru/ports/marina-of-fischenhafen-laboe-in-de-germany-id-1299"},
{"name": "FISCHERHUTTE", "type": "\u041f\u043e\u0440\u0442", "size": "X\u041c\u0430\u043b\u044b\u0439", "UN_LOCODE": "DEFHU", "country": "[DE] Germany", "longitude": 9.37436, "latitude": 54.15282, "link": "https://www.myshiptracking.com//ru/ports/port-of-fischerhutte-in-de-germany-id-1516"},
{"name": "FISHBOURNE", "type": "\u041f\u043e\u0440\u0442", "size": "X\u041c\u0430\u043b\u044b\u0439", "UN_LOCODE": "GBFBU", "country": "[GB] United Kingdom", "longitude": -1.2126, "latitude": 50.73468, "link": "https://www.myshiptracking.com//ru/ports/port-of-fishbourne-in-gb-united-kingdom-id-2278"},
{"name": "FISHERROW", "type": "\u0413\u0430\u0432\u0430\u043d\u044c", "size": "X\u041c\u0430\u043b\u044b\u0439", "UN_LOCODE": "GBMUS", "country": "[GB] United Kingdom", "longitude": -3.06739, "latitude": 55.94584, "link": "https://www.myshiptracking.com//ru/ports/marina-of-fisherrow-in-gb-united-kingdom-id-2366"},
{"name": "FISHGUARD", "type": "\u041f\u043e\u0440\u0442", "size": "\u0411\u043e\u043b\u044c\u0448\u043e\u0439", "UN_LOCODE": "GBFIS", "country": "[GB] United Kingdom", "longitude": -4.97508, "latitude": 52.00767, "link": "https://www.myshiptracking.com//ru/ports/port-of-fishguard-in-gb-united-kingdom-id-1654"},
{"name": "FISHNISH", "type": "\u041f\u043e\u0440\u0442", "size": "X\u041c\u0430\u043b\u044b\u0439", "UN_LOCODE": "GBFNH", "country": "[GB] United Kingdom", "longitude": -5.80934, "latitude": 56.5157, "link": "https://www.myshiptracking.com//ru/ports/port-of-fishnish-in-gb-united-kingdom-id-1547"},
{"name": "FISKA", "type": "\u041f\u043e\u0440\u0442", "size": "X\u041c\u0430\u043b\u044b\u0439", "UN_LOCODE": "NOFIS", "country": "[NO] Norway", "longitude": 6.00115, "latitude": 59.11781, "link": "https://www.myshiptracking.com//ru/ports/port-of-fiska-in-no-norway-id-5090"},
{"name": "FISKARSTRANDA", "type": "\u041f\u043e\u0440\u0442", "size": "\u041c\u0430\u043b\u0435\u043d\u044c\u043a\u0438\u0439", "UN_LOCODE": "NOFSA", "country": "[NO] Norway", "longitude": 6.28109, "latitude": 62.44091, "link": "https://www.myshiptracking.com//ru/ports/port-of-fiskarstranda-in-no-norway-id-5061"},
{"name": "FISKEBOL", "type": "\u041f\u043e\u0440\u0442", "size": "X\u041c\u0430\u043b\u044b\u0439", "UN_LOCODE": "---", "country": "[NO] Norway", "longitude": 14.82615, "latitude": 68.43048, "link": "https://www.myshiptracking.com//ru/ports/port-of-fiskebol-in-no-norway-id-5089"},
{"name": "FISKETANGEN", "type": "\u041f\u043e\u0440\u0442", "size": "X\u041c\u0430\u043b\u044b\u0439", "UN_LOCODE": "SEFIT", "country": "[SE] Sweden", "longitude": 11.27395, "latitude": 58.35577, "link": "https://www.myshiptracking.com//ru/ports/port-of-fisketangen-in-se-sweden-id-2189"},
