{"name": "DA CHAN BAY", "type": "\u041f\u043e\u0440\u0442", "size": "\u0411\u043e\u043b\u044c\u0448\u043e\u0439", "UN_LOCODE": "CNDCB", "country": "[CN] China", "longitude": 113.85286, "latitude": 22.53362, "link": "https://www.myshiptracking.com//ru/ports/port-of-da-chan-bay-in-cn-china-id-4202"},
{"name": "DA NANG", "type": "\u041f\u043e\u0440\u0442", "size": "\u0411\u043e\u043b\u044c\u0448\u043e\u0439", "UN_LOCODE": "VNDAD", "country": "[VN] Vietnam", "longitude": 108.21919, "latitude": 16.09868, "link": "https://www.myshiptracking.com//ru/ports/port-of-da-nang-in-vn-vietnam-id-4075"},
{"name": "DAECHEONHANG", "type": "\u041f\u043e\u0440\u0442", "size": "\u041c\u0430\u043b\u0435\u043d\u044c\u043a\u0438\u0439", "UN_LOCODE": "---", "country": "[KR] Korea", "longitude": 126.50993, "latitude": 36.33056, "link": "https://www.myshiptracking.com//ru/ports/port-of-daecheonhang-in-kr-korea-id-5541"},
{"name": "DAEJIN", "type": "\u041f\u043e\u0440\u0442", "size": "X\u041c\u0430\u043b\u044b\u0439", "UN_LOCODE": "---", "country": "[KR] Korea", "longitude": 128.4276, "latitude": 38.50087, "link": "https://www.myshiptracking.com//ru/ports/port-of-daejin-in-kr-korea-id-5484"},
{"name": "DAESAN", "type": "\u041f\u043e\u0440\u0442", "size": "\u0411\u043e\u043b\u044c\u0448\u043e\u0439", "UN_LOCODE": "KRTSN", "country": "[KR] Korea", "longitude": 126.37917, "latitude": 37.02688, "link": "https://www.myshiptracking.com//ru/ports/port-of-daesan-in-kr-korea-id-5538"},
{"name": "DAFENG", "type": "\u041f\u043e\u0440\u0442", "size": "X\u0411\u043e\u043b\u044c\u0449\u043e\u0439", "UN_LOCODE": "CNDFE", "country": "[CN] China", "longitude": 120.84061, "latitude": 33.25832, "link": "https://www.myshiptracking.com//ru/ports/port-of-dafeng-in-cn-china-id-4204"},
{"name": "DAFNI", "type": "\u041f\u043e\u0440\u0442", "size": "X\u041c\u0430\u043b\u044b\u0439", "UN_LOCODE": "GRDAF", "country": "[GR] Greece", "longitude": 24.22093, "latitude": 40.21378, "link": "https://www.myshiptracking.com//ru/ports/port-of-dafni-in-gr-greece-id-549"},
{"name": "DAGEBUELL", "type": "\u041f\u043e\u0440\u0442", "size": "\u041c\u0430\u043b\u0435\u043d\u044c\u043a\u0438\u0439", "UN_LOCODE": "DEDAG", "country": "[DE] Germany", "longitude": 8.6878, "latitude": 54.7317, "link": "https://www.myshiptracking.com//ru/ports/port-of-dagebuell-in-de-germany-id-1283"},
{"name": "DAGENHAM", "type": "\u041f\u043e\u0440\u0442", "size": "\u041c\u0430\u043b\u0435\u043d\u044c\u043a\u0438\u0439", "UN_LOCODE": "GBDAG", "country": "[GB] United Kingdom", "longitude": 0.14237, "latitude": 51.51434, "link": "https://www.myshiptracking.com//ru/ports/port-of-dagenham-in-gb-united-kingdom-id-1603"},
{"name": "DAHEJ", "type": "\u041f\u043e\u0440\u0442", "size": "X\u0411\u043e\u043b\u044c\u0449\u043e\u0439", "UN_LOCODE": "INDAH", "country": "[IN] India", "longitude": 72.50746, "latitude": 21.65885, "link": "https://www.myshiptracking.com//ru/ports/port-of-dahej-in-in-india-id-7191"},
{"name": "DAIKASARI", "type": "\u041f\u043e\u0440\u0442", "size": "\u041c\u0430\u043b\u0435\u043d\u044c\u043a\u0438\u0439", "UN_LOCODE": "---", "country": "[JP] Japan", "longitude": 129.6969, "latitude": 28.49029, "link": "https://www.myshiptracking.com//ru/ports/port-of-daikasari-in-jp-japan-id-4620"},
{"name": "DAKAR", "type": "\u041f\u043e\u0440\u0442", "size": "\u0421\u0440\u0435\u0434\u043d\u0438\u0439", "UN_LOCODE": "SNDKR", "country": "[SN] Senegal", "longitude": -17.4275, "latitude": 14.681, "link": "https://www.myshiptracking.com//ru/ports/port-of-dakar-in-sn-senegal-id-3319"},
{"name": "DAKHLA", "type": "\u041f\u043e\u0440\u0442", "size": "\u041c\u0430\u043b\u0435\u043d\u044c\u043a\u0438\u0439", "UN_LOCODE": "MAVIL", "country": "[MA] Morocco", "longitude": -15.94321, "latitude": 23.66197, "link": "https://www.myshiptracking.com//ru/ports/port-of-dakhla-in-ma-morocco-id-3302"},
{"name": "DALAHICAN", "type": "\u041f\u043e\u0440\u0442", "size": "\u0421\u0440\u0435\u0434\u043d\u0438\u0439", "UN_LOCODE": "PHQZT", "country": "[PH] Philippines", "longitude": 121.6275, "latitude": 13.9017, "link": "https://www.myshiptracking.com//ru/ports/port-of-dalahican-in-ph-philippines-id-5453"},
{"name": "DALAVIK", "type": "\u041f\u043e\u0440\u0442", "size": "X\u041c\u0430\u043b\u044b\u0439", "UN_LOCODE": "---", "country": "[NO] Norway", "longitude": 5.51482, "latitude": 59.51768, "link": "https://www.myshiptracking.com//ru/ports/port-of-dalavik-in-no-norway-id-5318"},
{"name": "DALCAHUE", "type": "\u041f\u043e\u0440\u0442", "size": "\u041c\u0430\u043b\u0435\u043d\u044c\u043a\u0438\u0439", "UN_LOCODE": "CLDCH", "country": "[CL] Chile", "longitude": -73.65483, "latitude": -42.38302, "link": "https://www.myshiptracking.com//ru/ports/port-of-dalcahue-in-cl-chile-id-6727"},
{"name": "DALFSEN", "type": "\u041f\u043e\u0440\u0442", "size": "\u0411\u043e\u043b\u044c\u0448\u043e\u0439", "UN_LOCODE": "NLDAL", "country": "[NL] Netherlands", "longitude": 6.25951, "latitude": 52.50248, "link": "https://www.myshiptracking.com//ru/ports/port-of-dalfsen-in-nl-netherlands-id-1487"},
{"name": "DALHOUSIE", "type": "\u041f\u043e\u0440\u0442", "size": "\u041c\u0430\u043b\u0435\u043d\u044c\u043a\u0438\u0439", "UN_LOCODE": "CADHS", "country": "[CA] Canada", "longitude": -79.2695, "latitude": 43.19716, "link": "https://www.myshiptracking.com//ru/ports/port-of-dalhousie-in-ca-canada-id-6452"},
{"name": "DALIAN", "type": "\u041f\u043e\u0440\u0442", "size": "X\u0411\u043e\u043b\u044c\u0449\u043e\u0439", "UN_LOCODE": "CNDLC", "country": "[CN] China", "longitude": 121.69445, "latitude": 38.94924, "link": "https://www.myshiptracking.com//ru/ports/port-of-dalian-in-cn-china-id-4185"},
{"name": "DALIETATIKA", "type": "\u0413\u0430\u0432\u0430\u043d\u044c", "size": "X\u041c\u0430\u043b\u044b\u0439", "UN_LOCODE": "---", "country": "[GR] Greece", "longitude": 20.1332, "latitude": 39.23669, "link": "https://www.myshiptracking.com//ru/ports/marina-of-dalietatika-in-gr-greece-id-599"},
{"name": "DALMA", "type": "\u041f\u043e\u0440\u0442", "size": "\u0411\u043e\u043b\u044c\u0448\u043e\u0439", "UN_LOCODE": "---", "country": "[AE] UAE", "longitude": 52.32412, "latitude": 24.47009, "link": "https://www.myshiptracking.com//ru/ports/port-of-dalma-in-ae-uae-id-3516"},
{"name": "DALRYMPLE", "type": "\u041f\u043e\u0440\u0442", "size": "\u0421\u0440\u0435\u0434\u043d\u0438\u0439", "UN_LOCODE": "AUHPT", "country": "[AU] Australia", "longitude": 149.29766, "latitude": -21.2655, "link": "https://www.myshiptracking.com//ru/ports/port-of-dalrymple-in-au-australia-id-133"},
{"name": "DALSBRUK", "type": "\u041f\u043e\u0440\u0442", "size": "\u041c\u0430\u043b\u0435\u043d\u044c\u043a\u0438\u0439", "UN_LOCODE": "FIDLS", "country": "[FI] Finland", "longitude": 22.5079, "latitude": 60.0146, "link": "https://www.myshiptracking.com//ru/ports/port-of-dalsbruk-in-fi-finland-id-5634"},
{"name": "DALUR", "type": "\u041f\u043e\u0440\u0442", "size": "X\u041c\u0430\u043b\u044b\u0439", "UN_LOCODE": "---", "country": "[FO] Faroe Is", "longitude": -6.67195, "latitude": 61.78352, "link": "https://www.myshiptracking.com//ru/ports/port-of-dalur-in-fo-faroe-is-id-5700"},
{"name": "DALVIK", "type": "\u041f\u043e\u0440\u0442", "size": "X\u041c\u0430\u043b\u044b\u0439", "UN_LOCODE": "ISDAL", "country": "[IS] Iceland", "longitude": -18.52715, "latitude": 65.97299, "link": "https://www.myshiptracking.com//ru/ports/port-of-dalvik-in-is-iceland-id-5591"},
{"name": "DAMIETTA", "type": "\u041f\u043e\u0440\u0442", "size": "\u0411\u043e\u043b\u044c\u0448\u043e\u0439", "UN_LOCODE": "EGDAM", "country": "[EG] Egypt", "longitude": 31.75825, "latitude": 31.46738, "link": "https://www.myshiptracking.com//ru/ports/port-of-damietta-in-eg-egypt-id-3177"},
{"name": "DAMMAM", "type": "\u041f\u043e\u0440\u0442", "size": "X\u0411\u043e\u043b\u044c\u0449\u043e\u0439", "UN_LOCODE": "SADMM", "country": "[SA] Saudi Arabia", "longitude": 50.16472, "latitude": 26.49736, "link": "https://www.myshiptracking.com//ru/ports/port-of-dammam-in-sa-saudi-arabia-id-3445"},
{"name": "DAMP", "type": "\u0413\u0430\u0432\u0430\u043d\u044c", "size": "\u041c\u0430\u043b\u0435\u043d\u044c\u043a\u0438\u0439", "UN_LOCODE": "DEDAP", "country": "[DE] Germany", "longitude": 10.02769, "latitude": 54.58207, "link": "https://www.myshiptracking.com//ru/ports/marina-of-damp-in-de-germany-id-1364"},
{"name": "DAMPIER", "type": "\u041f\u043e\u0440\u0442", "size": "X\u0411\u043e\u043b\u044c\u0449\u043e\u0439", "UN_LOCODE": "AUDAM", "country": "[AU] Australia", "longitude": 116.74259, "latitude": -20.62726, "link": "https://www.myshiptracking.com//ru/ports/port-of-dampier-in-au-australia-id-134"},
{"name": "DANA POINT", "type": "\u041f\u043e\u0440\u0442", "size": "\u041c\u0430\u043b\u0435\u043d\u044c\u043a\u0438\u0439", "UN_LOCODE": "USDPT", "country": "[US] USA", "longitude": -117.69418, "latitude": 33.45627, "link": "https://www.myshiptracking.com//ru/ports/port-of-dana-point-in-us-usa-id-6085"},
{"name": "DANAO", "type": "\u041f\u043e\u0440\u0442", "size": "\u0421\u0440\u0435\u0434\u043d\u0438\u0439", "UN_LOCODE": "---", "country": "[PH] Philippines", "longitude": 123.55683, "latitude": 10.81723, "link": "https://www.myshiptracking.com//ru/ports/port-of-danao-in-ph-philippines-id-5423"},
{"name": "DANDE", "type": "\u041f\u043e\u0440\u0442", "size": "\u041c\u0430\u043b\u0435\u043d\u044c\u043a\u0438\u0439", "UN_LOCODE": "AOBDD", "country": "[AO] Angola", "longitude": 13.36642, "latitude": -8.56664, "link": "https://www.myshiptracking.com//ru/ports/port-of-dande-in-ao-angola-id-3373"},
{"name": "DANDONG", "type": "\u041f\u043e\u0440\u0442", "size": "X\u0411\u043e\u043b\u044c\u0449\u043e\u0439", "UN_LOCODE": "CNDDG", "country": "[CN] China", "longitude": 124.16323, "latitude": 39.77486, "link": "https://www.myshiptracking.com//ru/ports/port-of-dandong-in-cn-china-id-4092"},
{"name": "DANGAY", "type": "\u041f\u043e\u0440\u0442", "size": "\u041c\u0430\u043b\u0435\u043d\u044c\u043a\u0438\u0439", "UN_LOCODE": "---", "country": "[PH] Philippines", "longitude": 121.5319, "latitude": 12.59143, "link": "https://www.myshiptracking.com//ru/ports/port-of-dangay-in-ph-philippines-id-5390"},
{"name": "DANGJIN", "type": "\u041f\u043e\u0440\u0442", "size": "\u041c\u0430\u043b\u0435\u043d\u044c\u043a\u0438\u0439", "UN_LOCODE": "KRDJN", "country": "[KR] Korea", "longitude": 126.5065, "latitude": 37.06422, "link": "https://www.myshiptracking.com//ru/ports/port-of-dangjin-in-kr-korea-id-5483"},
{"name": "DAPA", "type": "\u041f\u043e\u0440\u0442", "size": "X\u041c\u0430\u043b\u044b\u0439", "UN_LOCODE": "---", "country": "[PH] Philippines", "longitude": 126.04925, "latitude": 9.75444, "link": "https://www.myshiptracking.com//ru/ports/port-of-dapa-in-ph-philippines-id-5439"},
{"name": "DAPITAN", "type": "\u041f\u043e\u0440\u0442", "size": "\u041c\u0430\u043b\u0435\u043d\u044c\u043a\u0438\u0439", "UN_LOCODE": "---", "country": "[PH] Philippines", "longitude": 123.38401, "latitude": 8.63668, "link": "https://www.myshiptracking.com//ru/ports/port-of-dapitan-in-ph-philippines-id-5433"},
{"name": "DAR ES SALAAM", "type": "\u041f\u043e\u0440\u0442", "size": "\u0411\u043e\u043b\u044c\u0448\u043e\u0439", "UN_LOCODE": "TZDAR", "country": "[TZ] Tanzania", "longitude": 39.29288, "latitude": -6.82178, "link": "https://www.myshiptracking.com//ru/ports/port-of-dar-es-salaam-in-tz-tanzania-id-3427"},
{"name": "DARGAHAN", "type": "\u041f\u043e\u0440\u0442", "size": "\u041c\u0430\u043b\u0435\u043d\u044c\u043a\u0438\u0439", "UN_LOCODE": "---", "country": "[IR] Iran", "longitude": 56.06944, "latitude": 26.97209, "link": "https://www.myshiptracking.com//ru/ports/port-of-dargahan-in-ir-iran-id-3576"},
{"name": "DARLOWO", "type": "\u041f\u043e\u0440\u0442", "size": "\u0421\u0440\u0435\u0434\u043d\u0438\u0439", "UN_LOCODE": "PLDAR", "country": "[PL] Poland", "longitude": 16.37489, "latitude": 54.44034, "link": "https://www.myshiptracking.com//ru/ports/port-of-darlowo-in-pl-poland-id-5791"},
{"name": "DARTMOUTH", "type": "\u041f\u043e\u0440\u0442", "size": "\u0421\u0440\u0435\u0434\u043d\u0438\u0439", "UN_LOCODE": "GBDTM", "country": "[GB] United Kingdom", "longitude": -3.57328, "latitude": 50.35526, "link": "https://www.myshiptracking.com//ru/ports/port-of-dartmouth-in-gb-united-kingdom-id-1708"},
{"name": "DARWIN", "type": "\u041f\u043e\u0440\u0442", "size": "X\u0411\u043e\u043b\u044c\u0449\u043e\u0439", "UN_LOCODE": "AUDRW", "country": "[AU] Australia", "longitude": 130.80389, "latitude": -12.43267, "link": "https://www.myshiptracking.com//ru/ports/port-of-darwin-in-au-australia-id-3870"},
{"name": "DAS ISLAND", "type": "\u041f\u043e\u0440\u0442", "size": "\u0411\u043e\u043b\u044c\u0448\u043e\u0439", "UN_LOCODE": "AEDAS", "country": "[AE] UAE", "longitude": 52.86457, "latitude": 25.16604, "link": "https://www.myshiptracking.com//ru/ports/port-of-das-island-in-ae-uae-id-3490"},
{"name": "DATCA", "type": "\u041f\u043e\u0440\u0442", "size": "\u041c\u0430\u043b\u0435\u043d\u044c\u043a\u0438\u0439", "UN_LOCODE": "TRDAT", "country": "[TR] Turkey", "longitude": 27.6893, "latitude": 36.7249, "link": "https://www.myshiptracking.com//ru/ports/port-of-datca-in-tr-turkey-id-3108"},
{"name": "DATCA NORTH", "type": "\u041f\u043e\u0440\u0442", "size": "\u041c\u0430\u043b\u0435\u043d\u044c\u043a\u0438\u0439", "UN_LOCODE": "---", "country": "[TR] Turkey", "longitude": 27.61686, "latitude": 36.77046, "link": "https://www.myshiptracking.com//ru/ports/port-of-datca-north-in-tr-turkey-id-2113"},
{"name": "DAUPHIN ISLAND", "type": "\u041f\u043e\u0440\u0442", "size": "X\u041c\u0430\u043b\u044b\u0439", "UN_LOCODE": "---", "country": "[US] USA", "longitude": -88.08102, "latitude": 30.25191, "link": "https://www.myshiptracking.com//ru/ports/port-of-dauphin-island-in-us-usa-id-6359"},
{"name": "DAVAO", "type": "\u041f\u043e\u0440\u0442", "size": "\u0411\u043e\u043b\u044c\u0448\u043e\u0439", "UN_LOCODE": "PHDVO", "country": "[PH] Philippines", "longitude": 125.66118, "latitude": 7.11425, "link": "https://www.myshiptracking.com//ru/ports/port-of-davao-in-ph-philippines-id-5429"},
{"name": "DAVAO THERMA SOUTH", "type": "\u041f\u043e\u0440\u0442", "size": "\u041c\u0430\u043b\u0435\u043d\u044c\u043a\u0438\u0439", "UN_LOCODE": "---", "country": "[PH] Philippines", "longitude": 125.48538, "latitude": 6.96225, "link": "https://www.myshiptracking.com//ru/ports/port-of-davao-therma-south-in-ph-philippines-id-5387"},
{"name": "DAVENPORT", "type": "\u041f\u043e\u0440\u0442", "size": "\u0411\u043e\u043b\u044c\u0448\u043e\u0439", "UN_LOCODE": "USDVN", "country": "[US] USA", "longitude": -90.57662, "latitude": 41.51606, "link": "https://www.myshiptracking.com//ru/ports/port-of-davenport-in-us-usa-id-5979"},
{"name": "DAVISVILLE", "type": "\u041f\u043e\u0440\u0442", "size": "\u0411\u043e\u043b\u044c\u0448\u043e\u0439", "UN_LOCODE": "USDVV", "country": "[US] USA", "longitude": -71.4005, "latitude": 41.60502, "link": "https://www.myshiptracking.com//ru/ports/port-of-davisville-in-us-usa-id-5999"},
