{"name": "TAIRUA", "type": "\u041f\u043e\u0440\u0442", "size": "X\u041c\u0430\u043b\u044b\u0439", "UN_LOCODE": "---", "country": "[NZ] New Zealand", "longitude": 175.85193, "latitude": -37.00888, "link": "https://www.myshiptracking.com//ru/ports/port-of-tairua-in-nz-new-zealand-id-4027"},
{"name": "TAIXING", "type": "\u041f\u043e\u0440\u0442", "size": "\u0411\u043e\u043b\u044c\u0448\u043e\u0439", "UN_LOCODE": "CNTAX", "country": "[CN] China", "longitude": 119.91518, "latitude": 32.13378, "link": "https://www.myshiptracking.com//ru/ports/port-of-taixing-in-cn-china-id-4173"},
{"name": "TAIZA", "type": "\u041f\u043e\u0440\u0442", "size": "X\u041c\u0430\u043b\u044b\u0439", "UN_LOCODE": "JPTZA", "country": "[JP] Japan", "longitude": 135.09153, "latitude": 35.74006, "link": "https://www.myshiptracking.com//ru/ports/port-of-taiza-in-jp-japan-id-4400"},
{"name": "TAIZHOU", "type": "\u041f\u043e\u0440\u0442", "size": "X\u0411\u043e\u043b\u044c\u0449\u043e\u0439", "UN_LOCODE": "CNTZO", "country": "[CN] China", "longitude": 121.41863, "latitude": 28.69174, "link": "https://www.myshiptracking.com//ru/ports/port-of-taizhou-in-cn-china-id-4094"},
{"name": "TAJIRI", "type": "\u041f\u043e\u0440\u0442", "size": "X\u041c\u0430\u043b\u044b\u0439", "UN_LOCODE": "JPTJR", "country": "[JP] Japan", "longitude": 134.31749, "latitude": 35.59466, "link": "https://www.myshiptracking.com//ru/ports/port-of-tajiri-in-jp-japan-id-4557"},
{"name": "TAJOURA", "type": "\u041f\u043e\u0440\u0442", "size": "\u041c\u0430\u043b\u0435\u043d\u044c\u043a\u0438\u0439", "UN_LOCODE": "LYTAG", "country": "[LY] Libya", "longitude": 13.40705, "latitude": 32.87944, "link": "https://www.myshiptracking.com//ru/ports/port-of-tajoura-in-ly-libya-id-3193"},
{"name": "TAKAHAMA", "type": "\u041f\u043e\u0440\u0442", "size": "\u041c\u0430\u043b\u0435\u043d\u044c\u043a\u0438\u0439", "UN_LOCODE": "JPTKH", "country": "[JP] Japan", "longitude": 129.9913, "latitude": 32.3788, "link": "https://www.myshiptracking.com//ru/ports/port-of-takahama-in-jp-japan-id-4941"},
{"name": "TAKAHAMA", "type": "\u041f\u043e\u0440\u0442", "size": "X\u041c\u0430\u043b\u044b\u0439", "UN_LOCODE": "---", "country": "[JP] Japan", "longitude": 132.69983, "latitude": 33.88279, "link": "https://www.myshiptracking.com//ru/ports/port-of-takahama-in-jp-japan-id-4909"},
{"name": "TAKAMATSU", "type": "\u041f\u043e\u0440\u0442", "size": "X\u0411\u043e\u043b\u044c\u0449\u043e\u0439", "UN_LOCODE": "JPTAK", "country": "[JP] Japan", "longitude": 134.05264, "latitude": 34.36237, "link": "https://www.myshiptracking.com//ru/ports/port-of-takamatsu-in-jp-japan-id-4820"},
{"name": "TAKANOKUCHI ", "type": "\u041f\u043e\u0440\u0442", "size": "X\u041c\u0430\u043b\u044b\u0439", "UN_LOCODE": "JPTKC", "country": "[JP] Japan", "longitude": 130.19596, "latitude": 31.98999, "link": "https://www.myshiptracking.com//ru/ports/port-of-takanokuchi--in-jp-japan-id-4471"},
{"name": "TAKASAGO", "type": "\u041f\u043e\u0440\u0442", "size": "\u041c\u0430\u043b\u0435\u043d\u044c\u043a\u0438\u0439", "UN_LOCODE": "JPTSG", "country": "[JP] Japan", "longitude": 134.7988, "latitude": 34.73199, "link": "https://www.myshiptracking.com//ru/ports/port-of-takasago-in-jp-japan-id-4431"},
{"name": "TAKEHARA", "type": "\u041f\u043e\u0440\u0442", "size": "\u041c\u0430\u043b\u0435\u043d\u044c\u043a\u0438\u0439", "UN_LOCODE": "JPTHR", "country": "[JP] Japan", "longitude": 132.91545, "latitude": 34.32907, "link": "https://www.myshiptracking.com//ru/ports/port-of-takehara-in-jp-japan-id-4863"},
{"name": "TAKENOKUCHI", "type": "\u041f\u043e\u0440\u0442", "size": "X\u041c\u0430\u043b\u044b\u0439", "UN_LOCODE": "---", "country": "[JP] Japan", "longitude": 134.8957, "latitude": 34.35294, "link": "https://www.myshiptracking.com//ru/ports/port-of-takenokuchi-in-jp-japan-id-4533"},
{"name": "TAKESHIKI", "type": "\u041f\u043e\u0440\u0442", "size": "\u041c\u0430\u043b\u0435\u043d\u044c\u043a\u0438\u0439", "UN_LOCODE": "JPTAS", "country": "[JP] Japan", "longitude": 129.30357, "latitude": 34.30056, "link": "https://www.myshiptracking.com//ru/ports/port-of-takeshiki-in-jp-japan-id-4365"},
{"name": "TAKETAZU", "type": "\u041f\u043e\u0440\u0442", "size": "\u0421\u0440\u0435\u0434\u043d\u0438\u0439", "UN_LOCODE": "---", "country": "[JP] Japan", "longitude": 131.57011, "latitude": 33.67889, "link": "https://www.myshiptracking.com//ru/ports/port-of-taketazu-in-jp-japan-id-4767"},
{"name": "TAKO", "type": "\u041f\u043e\u0440\u0442", "size": "X\u041c\u0430\u043b\u044b\u0439", "UN_LOCODE": "---", "country": "[JP] Japan", "longitude": 133.09133, "latitude": 35.5968, "link": "https://www.myshiptracking.com//ru/ports/port-of-tako-in-jp-japan-id-4803"},
{"name": "TAKORADI", "type": "\u041f\u043e\u0440\u0442", "size": "\u041c\u0430\u043b\u0435\u043d\u044c\u043a\u0438\u0439", "UN_LOCODE": "GHTKD", "country": "[GH] Ghana", "longitude": -1.73495, "latitude": 4.88896, "link": "https://www.myshiptracking.com//ru/ports/port-of-takoradi-in-gh-ghana-id-3340"},
{"name": "TAKUMA", "type": "\u041f\u043e\u0440\u0442", "size": "\u0411\u043e\u043b\u044c\u0448\u043e\u0439", "UN_LOCODE": "JPTKM", "country": "[JP] Japan", "longitude": 133.68341, "latitude": 34.23582, "link": "https://www.myshiptracking.com//ru/ports/port-of-takuma-in-jp-japan-id-4674"},
{"name": "TAKUNO", "type": "\u041f\u043e\u0440\u0442", "size": "X\u041c\u0430\u043b\u044b\u0439", "UN_LOCODE": "JPTKU", "country": "[JP] Japan", "longitude": 132.40363, "latitude": 35.16763, "link": "https://www.myshiptracking.com//ru/ports/port-of-takuno-in-jp-japan-id-4607"},
{"name": "TALARA", "type": "\u041f\u043e\u0440\u0442", "size": "\u0421\u0440\u0435\u0434\u043d\u0438\u0439", "UN_LOCODE": "PETYL", "country": "[PE] Peru", "longitude": -81.2799, "latitude": -4.56935, "link": "https://www.myshiptracking.com//ru/ports/port-of-talara-in-pe-peru-id-6936"},
{"name": "TALCAHUANO", "type": "\u041f\u043e\u0440\u0442", "size": "\u0421\u0440\u0435\u0434\u043d\u0438\u0439", "UN_LOCODE": "CLTAL", "country": "[CL] Chile", "longitude": -73.10199, "latitude": -36.70385, "link": "https://www.myshiptracking.com//ru/ports/port-of-talcahuano-in-cl-chile-id-6755"},
{"name": "TALIARTE", "type": "\u041f\u043e\u0440\u0442", "size": "X\u041c\u0430\u043b\u044b\u0439", "UN_LOCODE": "ESTAN", "country": "[ES] Spain", "longitude": -15.36853, "latitude": 27.98934, "link": "https://www.myshiptracking.com//ru/ports/port-of-taliarte-in-es-spain-id-2690"},
{"name": "TALKNAFJORDUR", "type": "\u041f\u043e\u0440\u0442", "size": "X\u041c\u0430\u043b\u044b\u0439", "UN_LOCODE": "ISTAL", "country": "[IS] Iceland", "longitude": -23.82461, "latitude": 65.62485, "link": "https://www.myshiptracking.com//ru/ports/port-of-talknafjordur-in-is-iceland-id-5565"},
{"name": "TALLABOA", "type": "\u041f\u043e\u0440\u0442", "size": "\u041c\u0430\u043b\u0435\u043d\u044c\u043a\u0438\u0439", "UN_LOCODE": "---", "country": "[PR] Puerto Rico", "longitude": -66.7302, "latitude": 17.98779, "link": "https://www.myshiptracking.com//ru/ports/port-of-tallaboa-in-pr-puerto-rico-id-7020"},
{"name": "TALLINN OLD HARBOR", "type": "\u041f\u043e\u0440\u0442", "size": "\u041c\u0430\u043b\u0435\u043d\u044c\u043a\u0438\u0439", "UN_LOCODE": "EETLL", "country": "[EE] Estonia", "longitude": 24.77384, "latitude": 59.45056, "link": "https://www.myshiptracking.com//ru/ports/port-of-tallinn-old-harbor-in-ee-estonia-id-5647"},
{"name": "TAMAN", "type": "\u041f\u043e\u0440\u0442", "size": "\u0411\u043e\u043b\u044c\u0448\u043e\u0439", "UN_LOCODE": "RUTAM", "country": "[RU] Russia", "longitude": 36.66205, "latitude": 45.12327, "link": "https://www.myshiptracking.com//ru/ports/port-of-taman-in-ru-russia-id-3052"},
{"name": "TAMANO", "type": "\u041f\u043e\u0440\u0442", "size": "\u041c\u0430\u043b\u0435\u043d\u044c\u043a\u0438\u0439", "UN_LOCODE": "JPTAM", "country": "[JP] Japan", "longitude": 133.94198, "latitude": 34.46998, "link": "https://www.myshiptracking.com//ru/ports/port-of-tamano-in-jp-japan-id-4508"},
{"name": "TAMATSU", "type": "\u041f\u043e\u0440\u0442", "size": "\u0421\u0440\u0435\u0434\u043d\u0438\u0439", "UN_LOCODE": "JPTMS", "country": "[JP] Japan", "longitude": 132.51709, "latitude": 33.31161, "link": "https://www.myshiptracking.com//ru/ports/port-of-tamatsu-in-jp-japan-id-4542"},
{"name": "TAMIAHUA", "type": "\u041f\u043e\u0440\u0442", "size": "\u041c\u0430\u043b\u0435\u043d\u044c\u043a\u0438\u0439", "UN_LOCODE": "---", "country": "[MX] Mexico", "longitude": -97.44394, "latitude": 21.27478, "link": "https://www.myshiptracking.com//ru/ports/port-of-tamiahua-in-mx-mexico-id-6543"},
{"name": "TAMMENSIEL", "type": "\u041f\u043e\u0440\u0442", "size": "\u041c\u0430\u043b\u0435\u043d\u044c\u043a\u0438\u0439", "UN_LOCODE": "---", "country": "[DE] Germany", "longitude": 8.68799, "latitude": 54.52124, "link": "https://www.myshiptracking.com//ru/ports/port-of-tammensiel-in-de-germany-id-2552"},
{"name": "TAMPA", "type": "\u041f\u043e\u0440\u0442", "size": "X\u0411\u043e\u043b\u044c\u0449\u043e\u0439", "UN_LOCODE": "USTPA", "country": "[US] USA", "longitude": -82.46698, "latitude": 27.8656, "link": "https://www.myshiptracking.com//ru/ports/port-of-tampa-in-us-usa-id-6094"},
{"name": "TAMPICO", "type": "\u041f\u043e\u0440\u0442", "size": "\u0411\u043e\u043b\u044c\u0448\u043e\u0439", "UN_LOCODE": "MXTAM", "country": "[MX] Mexico", "longitude": -97.84385, "latitude": 22.20759, "link": "https://www.myshiptracking.com//ru/ports/port-of-tampico-in-mx-mexico-id-6589"},
{"name": "TAN TAN", "type": "\u041f\u043e\u0440\u0442", "size": "\u041c\u0430\u043b\u0435\u043d\u044c\u043a\u0438\u0439", "UN_LOCODE": "MATTA", "country": "[MA] Morocco", "longitude": -11.35575, "latitude": 28.47859, "link": "https://www.myshiptracking.com//ru/ports/port-of-tan-tan-in-ma-morocco-id-3305"},
{"name": "TANABE", "type": "\u041f\u043e\u0440\u0442", "size": "\u041c\u0430\u043b\u0435\u043d\u044c\u043a\u0438\u0439", "UN_LOCODE": "JPTAE", "country": "[JP] Japan", "longitude": 135.36299, "latitude": 33.72916, "link": "https://www.myshiptracking.com//ru/ports/port-of-tanabe-in-jp-japan-id-4884"},
{"name": "TANAH MERAH", "type": "\u041f\u043e\u0440\u0442", "size": "\u0411\u043e\u043b\u044c\u0448\u043e\u0439", "UN_LOCODE": "---", "country": "[SG] Singapore", "longitude": 104.01783, "latitude": 1.31225, "link": "https://www.myshiptracking.com//ru/ports/port-of-tanah-merah-in-sg-singapore-id-4011"},
{"name": "TANANGER", "type": "\u041f\u043e\u0440\u0442", "size": "\u041c\u0430\u043b\u0435\u043d\u044c\u043a\u0438\u0439", "UN_LOCODE": "NOTAE", "country": "[NO] Norway", "longitude": 5.58705, "latitude": 58.9252, "link": "https://www.myshiptracking.com//ru/ports/port-of-tananger-in-no-norway-id-414"},
{"name": "TANGER MED", "type": "\u041f\u043e\u0440\u0442", "size": "\u041c\u0430\u043b\u0435\u043d\u044c\u043a\u0438\u0439", "UN_LOCODE": "---", "country": "[MA] Morocco", "longitude": -5.51949, "latitude": 35.88087, "link": "https://www.myshiptracking.com//ru/ports/port-of-tanger-med-in-ma-morocco-id-3304"},
{"name": "TANGER MED", "type": "\u041f\u043e\u0440\u0442", "size": "\u041c\u0430\u043b\u0435\u043d\u044c\u043a\u0438\u0439", "UN_LOCODE": "MAPTM", "country": "[MA] Morocco", "longitude": -5.4969, "latitude": 35.89479, "link": "https://www.myshiptracking.com//ru/ports/port-of-tanger-med-in-ma-morocco-id-3296"},
{"name": "TANGGUH", "type": "\u041f\u043e\u0440\u0442", "size": "\u0411\u043e\u043b\u044c\u0448\u043e\u0439", "UN_LOCODE": "---", "country": "[ID] Indonesia", "longitude": 133.12273, "latitude": -2.42981, "link": "https://www.myshiptracking.com//ru/ports/port-of-tangguh-in-id-indonesia-id-3692"},
{"name": "TANGIER", "type": "\u041f\u043e\u0440\u0442", "size": "\u041c\u0430\u043b\u0435\u043d\u044c\u043a\u0438\u0439", "UN_LOCODE": "MATNG", "country": "[MA] Morocco", "longitude": -5.796, "latitude": 35.7892, "link": "https://www.myshiptracking.com//ru/ports/port-of-tangier-in-ma-morocco-id-3295"},
{"name": "TANJUNG BARA", "type": "\u041f\u043e\u0440\u0442", "size": "\u041c\u0430\u043b\u0435\u043d\u044c\u043a\u0438\u0439", "UN_LOCODE": "IDTBA", "country": "[ID] Indonesia", "longitude": 117.6553, "latitude": 0.5347, "link": "https://www.myshiptracking.com//ru/ports/port-of-tanjung-bara-in-id-indonesia-id-3807"},
{"name": "TANJUNG JATI", "type": "\u041f\u043e\u0440\u0442", "size": "\u041c\u0430\u043b\u0435\u043d\u044c\u043a\u0438\u0439", "UN_LOCODE": "---", "country": "[ID] Indonesia", "longitude": 110.73005, "latitude": -6.4354, "link": "https://www.myshiptracking.com//ru/ports/port-of-tanjung-jati-in-id-indonesia-id-3781"},
{"name": "TANJUNG LANGSAT", "type": "\u041f\u043e\u0440\u0442", "size": "\u0421\u0440\u0435\u0434\u043d\u0438\u0439", "UN_LOCODE": "MYTLA", "country": "[MY] Malaysia", "longitude": 104.00928, "latitude": 1.44151, "link": "https://www.myshiptracking.com//ru/ports/port-of-tanjung-langsat-in-my-malaysia-id-5734"},
{"name": "TANJUNG PELEPAS", "type": "\u041f\u043e\u0440\u0442", "size": "\u0411\u043e\u043b\u044c\u0448\u043e\u0439", "UN_LOCODE": "MYTPP", "country": "[MY] Malaysia", "longitude": 103.54383, "latitude": 1.34848, "link": "https://www.myshiptracking.com//ru/ports/port-of-tanjung-pelepas-in-my-malaysia-id-5713"},
{"name": "TANJUNG PEMANCINGAN", "type": "\u041f\u043e\u0440\u0442", "size": "\u0421\u0440\u0435\u0434\u043d\u0438\u0439", "UN_LOCODE": "IDTPN", "country": "[ID] Indonesia", "longitude": 116.2832, "latitude": -3.2104, "link": "https://www.myshiptracking.com//ru/ports/port-of-tanjung-pemancingan-in-id-indonesia-id-3733"},
{"name": "TANJUNG PINANG", "type": "\u041f\u043e\u0440\u0442", "size": "\u041c\u0430\u043b\u0435\u043d\u044c\u043a\u0438\u0439", "UN_LOCODE": "IDTNJ", "country": "[ID] Indonesia", "longitude": 104.43811, "latitude": 0.93256, "link": "https://www.myshiptracking.com//ru/ports/port-of-tanjung-pinang-in-id-indonesia-id-3760"},
{"name": "TANJUNGUBAN", "type": "\u041f\u043e\u0440\u0442", "size": "\u0421\u0440\u0435\u0434\u043d\u0438\u0439", "UN_LOCODE": "IDITN", "country": "[ID] Indonesia", "longitude": 104.21295, "latitude": 1.06542, "link": "https://www.myshiptracking.com//ru/ports/port-of-tanjunguban-in-id-indonesia-id-3727"},
{"name": "TANNOWA", "type": "\u041f\u043e\u0440\u0442", "size": "\u0421\u0440\u0435\u0434\u043d\u0438\u0439", "UN_LOCODE": "JPTAW", "country": "[JP] Japan", "longitude": 135.186, "latitude": 34.3389, "link": "https://www.myshiptracking.com//ru/ports/port-of-tannowa-in-jp-japan-id-4948"},
{"name": "TANOKUCHI", "type": "\u041f\u043e\u0440\u0442", "size": "X\u041c\u0430\u043b\u044b\u0439", "UN_LOCODE": "---", "country": "[JP] Japan", "longitude": 133.84734, "latitude": 34.47024, "link": "https://www.myshiptracking.com//ru/ports/port-of-tanokuchi-in-jp-japan-id-4795"},
{"name": "TARAJAL", "type": "\u041f\u043e\u0440\u0442", "size": "\u041c\u0430\u043b\u0435\u043d\u044c\u043a\u0438\u0439", "UN_LOCODE": "ESTAL", "country": "[ES] Spain", "longitude": -17.94264, "latitude": 28.64191, "link": "https://www.myshiptracking.com//ru/ports/port-of-tarajal-in-es-spain-id-2668"},
