{"name": "SHIROTORI", "type": "\u041f\u043e\u0440\u0442", "size": "\u041c\u0430\u043b\u0435\u043d\u044c\u043a\u0438\u0439", "UN_LOCODE": "JPSTR", "country": "[JP] Japan", "longitude": 134.3702, "latitude": 34.25276, "link": "https://www.myshiptracking.com//ru/ports/port-of-shirotori-in-jp-japan-id-4272"},
{"name": "SHISHIMI", "type": "\u041f\u043e\u0440\u0442", "size": "\u041c\u0430\u043b\u0435\u043d\u044c\u043a\u0438\u0439", "UN_LOCODE": "JPSSM", "country": "[JP] Japan", "longitude": 129.3122, "latitude": 34.51814, "link": "https://www.myshiptracking.com//ru/ports/port-of-shishimi-in-jp-japan-id-4457"},
{"name": "SHITAKA", "type": "\u041f\u043e\u0440\u0442", "size": "\u041c\u0430\u043b\u0435\u043d\u044c\u043a\u0438\u0439", "UN_LOCODE": "---", "country": "[JP] Japan", "longitude": 129.39727, "latitude": 34.47842, "link": "https://www.myshiptracking.com//ru/ports/port-of-shitaka-in-jp-japan-id-4759"},
{"name": "SHIZUGAWA", "type": "\u041f\u043e\u0440\u0442", "size": "\u041c\u0430\u043b\u0435\u043d\u044c\u043a\u0438\u0439", "UN_LOCODE": "JPSZG", "country": "[JP] Japan", "longitude": 141.451, "latitude": 38.67059, "link": "https://www.myshiptracking.com//ru/ports/port-of-shizugawa-in-jp-japan-id-4862"},
{"name": "SHIZUURA", "type": "\u041f\u043e\u0440\u0442", "size": "X\u041c\u0430\u043b\u044b\u0439", "UN_LOCODE": "JPSZU", "country": "[JP] Japan", "longitude": 140.01396, "latitude": 41.4923, "link": "https://www.myshiptracking.com//ru/ports/port-of-shizuura-in-jp-japan-id-4335"},
{"name": "SHLISSEBURG", "type": "\u041f\u043e\u0440\u0442", "size": "\u0421\u0440\u0435\u0434\u043d\u0438\u0439", "UN_LOCODE": "---", "country": "[RU] Russia", "longitude": 31.02636, "latitude": 59.94233, "link": "https://www.myshiptracking.com//ru/ports/port-of-shlisseburg-in-ru-russia-id-3068"},
{"name": "SHOALHAVEN HEADS", "type": "\u041f\u043e\u0440\u0442", "size": "\u041c\u0430\u043b\u0435\u043d\u044c\u043a\u0438\u0439", "UN_LOCODE": "---", "country": "[AU] Australia", "longitude": 150.73998, "latitude": -34.85604, "link": "https://www.myshiptracking.com//ru/ports/port-of-shoalhaven-heads-in-au-australia-id-3891"},
{"name": "SHONAN", "type": "\u041f\u043e\u0440\u0442", "size": "\u041c\u0430\u043b\u0435\u043d\u044c\u043a\u0438\u0439", "UN_LOCODE": "JPSNN", "country": "[JP] Japan", "longitude": 139.4878, "latitude": 35.3038, "link": "https://www.myshiptracking.com//ru/ports/port-of-shonan-in-jp-japan-id-4229"},
{"name": "SHOREHAM", "type": "\u041f\u043e\u0440\u0442", "size": "\u0421\u0440\u0435\u0434\u043d\u0438\u0439", "UN_LOCODE": "GBSHO", "country": "[GB] United Kingdom", "longitude": -0.24786, "latitude": 50.82763, "link": "https://www.myshiptracking.com//ru/ports/port-of-shoreham-in-gb-united-kingdom-id-1581"},
{"name": "SHOSANBETSU", "type": "\u041f\u043e\u0440\u0442", "size": "X\u041c\u0430\u043b\u044b\u0439", "UN_LOCODE": "---", "country": "[JP] Japan", "longitude": 141.76267, "latitude": 44.53418, "link": "https://www.myshiptracking.com//ru/ports/port-of-shosanbetsu-in-jp-japan-id-4934"},
{"name": "SHOTLEY", "type": "\u0413\u0430\u0432\u0430\u043d\u044c", "size": "X\u041c\u0430\u043b\u044b\u0439", "UN_LOCODE": "---", "country": "[GB] United Kingdom", "longitude": 1.27722, "latitude": 51.95953, "link": "https://www.myshiptracking.com//ru/ports/marina-of-shotley-in-gb-united-kingdom-id-2436"},
{"name": "SHOUGUANG", "type": "\u041f\u043e\u0440\u0442", "size": "\u041c\u0430\u043b\u0435\u043d\u044c\u043a\u0438\u0439", "UN_LOCODE": "CNSGN", "country": "[CN] China", "longitude": 118.9753, "latitude": 37.27437, "link": "https://www.myshiptracking.com//ru/ports/port-of-shouguang-in-cn-china-id-4175"},
{"name": "SHUAIBA", "type": "\u041f\u043e\u0440\u0442", "size": "\u0421\u0440\u0435\u0434\u043d\u0438\u0439", "UN_LOCODE": "KWSAA", "country": "[KW] Kuwait", "longitude": 48.17139, "latitude": 29.0423, "link": "https://www.myshiptracking.com//ru/ports/port-of-shuaiba-in-kw-kuwait-id-385"},
{"name": "SHUAIBAH", "type": "\u041f\u043e\u0440\u0442", "size": "X\u0411\u043e\u043b\u044c\u0449\u043e\u0439", "UN_LOCODE": "---", "country": "[SA] Saudi Arabia", "longitude": 39.52743, "latitude": 20.64963, "link": "https://www.myshiptracking.com//ru/ports/port-of-shuaibah-in-sa-saudi-arabia-id-3440"},
{"name": "SHUIDONG", "type": "\u041f\u043e\u0440\u0442", "size": "X\u0411\u043e\u043b\u044c\u0449\u043e\u0439", "UN_LOCODE": "CNSDG", "country": "[CN] China", "longitude": 111.05116, "latitude": 21.49584, "link": "https://www.myshiptracking.com//ru/ports/port-of-shuidong-in-cn-china-id-4162"},
{"name": "SHUKUTSU", "type": "\u041f\u043e\u0440\u0442", "size": "X\u041c\u0430\u043b\u044b\u0439", "UN_LOCODE": "---", "country": "[JP] Japan", "longitude": 141.01499, "latitude": 43.23224, "link": "https://www.myshiptracking.com//ru/ports/port-of-shukutsu-in-jp-japan-id-4512"},
{"name": "SHUNDE", "type": "\u041f\u043e\u0440\u0442", "size": "X\u0411\u043e\u043b\u044c\u0449\u043e\u0439", "UN_LOCODE": "CNSUD", "country": "[CN] China", "longitude": 113.28303, "latitude": 22.78616, "link": "https://www.myshiptracking.com//ru/ports/port-of-shunde-in-cn-china-id-4179"},
{"name": "SHUTE HARBOUR", "type": "\u041f\u043e\u0440\u0442", "size": "\u0411\u043e\u043b\u044c\u0448\u043e\u0439", "UN_LOCODE": "AUJHQ", "country": "[AU] Australia", "longitude": 148.78608, "latitude": -20.29502, "link": "https://www.myshiptracking.com//ru/ports/port-of-shute-harbour-in-au-australia-id-3852"},
{"name": "SIBENIK", "type": "\u041f\u043e\u0440\u0442", "size": "\u0421\u0440\u0435\u0434\u043d\u0438\u0439", "UN_LOCODE": "HRSIB", "country": "[HR] Croatia", "longitude": 15.89407, "latitude": 43.72651, "link": "https://www.myshiptracking.com//ru/ports/port-of-sibenik-in-hr-croatia-id-2827"},
{"name": "SIBOLGA", "type": "\u041f\u043e\u0440\u0442", "size": "\u0411\u043e\u043b\u044c\u0448\u043e\u0439", "UN_LOCODE": "IDSLG", "country": "[ID] Indonesia", "longitude": 98.78423, "latitude": 1.72597, "link": "https://www.myshiptracking.com//ru/ports/port-of-sibolga-in-id-indonesia-id-3723"},
{"name": "SIBU", "type": "\u041f\u043e\u0440\u0442", "size": "X\u0411\u043e\u043b\u044c\u0449\u043e\u0439", "UN_LOCODE": "MYSBW", "country": "[MY] Malaysia", "longitude": 111.82902, "latitude": 2.28275, "link": "https://www.myshiptracking.com//ru/ports/port-of-sibu-in-my-malaysia-id-5716"},
{"name": "SIDARI", "type": "\u0413\u0430\u0432\u0430\u043d\u044c", "size": "X\u041c\u0430\u043b\u044b\u0439", "UN_LOCODE": "---", "country": "[GR] Greece", "longitude": 19.70769, "latitude": 39.79377, "link": "https://www.myshiptracking.com//ru/ports/marina-of-sidari-in-gr-greece-id-673"},
{"name": "SIDERNO", "type": "\u041f\u043e\u0440\u0442", "size": "\u041c\u0430\u043b\u0435\u043d\u044c\u043a\u0438\u0439", "UN_LOCODE": "ITSID", "country": "[IT] Italy", "longitude": 16.30972, "latitude": 38.27423, "link": "https://www.myshiptracking.com//ru/ports/port-of-siderno-in-it-italy-id-2746"},
{"name": "SIDI ABDERRAHMANE", "type": "\u0413\u0430\u0432\u0430\u043d\u044c", "size": "X\u041c\u0430\u043b\u044b\u0439", "UN_LOCODE": "---", "country": "[DZ] Algeria", "longitude": 1.09794, "latitude": 36.49452, "link": "https://www.myshiptracking.com//ru/ports/marina-of-sidi-abderrahmane-in-dz-algeria-id-3255"},
{"name": "SIDI BOU SAID", "type": "\u0413\u0430\u0432\u0430\u043d\u044c", "size": "X\u041c\u0430\u043b\u044b\u0439", "UN_LOCODE": "---", "country": "[TN] Tunisia", "longitude": 10.35174, "latitude": 36.86682, "link": "https://www.myshiptracking.com//ru/ports/marina-of-sidi-bou-said-in-tn-tunisia-id-3209"},
{"name": "SIDI DAOUD", "type": "\u041f\u043e\u0440\u0442", "size": "X\u041c\u0430\u043b\u044b\u0439", "UN_LOCODE": "---", "country": "[TN] Tunisia", "longitude": 10.90778, "latitude": 37.02058, "link": "https://www.myshiptracking.com//ru/ports/port-of-sidi-daoud-in-tn-tunisia-id-3215"},
{"name": "SIDI FERRUCH", "type": "\u041f\u043e\u0440\u0442", "size": "X\u041c\u0430\u043b\u044b\u0439", "UN_LOCODE": "---", "country": "[DZ] Algeria", "longitude": 2.84879, "latitude": 36.76359, "link": "https://www.myshiptracking.com//ru/ports/port-of-sidi-ferruch-in-dz-algeria-id-3258"},
{"name": "SIDI IFNI", "type": "\u041f\u043e\u0440\u0442", "size": "\u041c\u0430\u043b\u0435\u043d\u044c\u043a\u0438\u0439", "UN_LOCODE": "MASII", "country": "[MA] Morocco", "longitude": -10.197, "latitude": 29.357, "link": "https://www.myshiptracking.com//ru/ports/port-of-sidi-ifni-in-ma-morocco-id-3300"},
{"name": "SIDON", "type": "\u041f\u043e\u0440\u0442", "size": "\u041c\u0430\u043b\u0435\u043d\u044c\u043a\u0438\u0439", "UN_LOCODE": "LBSDN", "country": "[LB] Lebanon", "longitude": 35.36515, "latitude": 33.56344, "link": "https://www.myshiptracking.com//ru/ports/port-of-sidon-in-lb-lebanon-id-3154"},
{"name": "SIFNOS", "type": "\u041f\u043e\u0440\u0442", "size": "\u041c\u0430\u043b\u0435\u043d\u044c\u043a\u0438\u0439", "UN_LOCODE": "GRKRE", "country": "[GR] Greece", "longitude": 24.6703, "latitude": 36.9921, "link": "https://www.myshiptracking.com//ru/ports/port-of-sifnos-in-gr-greece-id-25"},
{"name": "SIGLUFJORDUR", "type": "\u041f\u043e\u0440\u0442", "size": "\u041c\u0430\u043b\u0435\u043d\u044c\u043a\u0438\u0439", "UN_LOCODE": "ISSIG", "country": "[IS] Iceland", "longitude": -18.89825, "latitude": 66.15062, "link": "https://www.myshiptracking.com//ru/ports/port-of-siglufjordur-in-is-iceland-id-5576"},
{"name": "SIGRI", "type": "\u0413\u0430\u0432\u0430\u043d\u044c", "size": "X\u041c\u0430\u043b\u044b\u0439", "UN_LOCODE": "---", "country": "[GR] Greece", "longitude": 25.8479, "latitude": 39.21118, "link": "https://www.myshiptracking.com//ru/ports/marina-of-sigri-in-gr-greece-id-479"},
{"name": "SIILINJARVI", "type": "\u041f\u043e\u0440\u0442", "size": "X\u041c\u0430\u043b\u044b\u0439", "UN_LOCODE": "FISII", "country": "[FI] Finland", "longitude": 27.75418, "latitude": 63.09127, "link": "https://www.myshiptracking.com//ru/ports/port-of-siilinjarvi-in-fi-finland-id-5629"},
{"name": "SIKINOS", "type": "\u041f\u043e\u0440\u0442", "size": "X\u041c\u0430\u043b\u044b\u0439", "UN_LOCODE": "GRSII", "country": "[GR] Greece", "longitude": 25.1448, "latitude": 36.6747, "link": "https://www.myshiptracking.com//ru/ports/port-of-sikinos-in-gr-greece-id-35"},
{"name": "SIKKA", "type": "\u041f\u043e\u0440\u0442", "size": "\u0411\u043e\u043b\u044c\u0448\u043e\u0439", "UN_LOCODE": "INSIK", "country": "[IN] India", "longitude": 69.83903, "latitude": 22.49399, "link": "https://www.myshiptracking.com//ru/ports/port-of-sikka-in-in-india-id-3644"},
{"name": "SILA", "type": "\u041f\u043e\u0440\u0442", "size": "\u041c\u0430\u043b\u0435\u043d\u044c\u043a\u0438\u0439", "UN_LOCODE": "---", "country": "[AE] UAE", "longitude": 51.7898, "latitude": 24.069, "link": "https://www.myshiptracking.com//ru/ports/port-of-sila-in-ae-uae-id-3515"},
{"name": "SILBA", "type": "\u041f\u043e\u0440\u0442", "size": "X\u041c\u0430\u043b\u044b\u0439", "UN_LOCODE": "HRSIL", "country": "[HR] Croatia", "longitude": 14.69041, "latitude": 44.37366, "link": "https://www.myshiptracking.com//ru/ports/port-of-silba-in-hr-croatia-id-2842"},
{"name": "SILE", "type": "\u041f\u043e\u0440\u0442", "size": "\u041c\u0430\u043b\u0435\u043d\u044c\u043a\u0438\u0439", "UN_LOCODE": "TRSLE", "country": "[TR] Turkey", "longitude": 29.6039, "latitude": 41.1783, "link": "https://www.myshiptracking.com//ru/ports/port-of-sile-in-tr-turkey-id-3104"},
{"name": "SILISTRA", "type": "\u041f\u043e\u0440\u0442", "size": "\u0421\u0440\u0435\u0434\u043d\u0438\u0439", "UN_LOCODE": "BGSLS", "country": "[BG] Bulgaria", "longitude": 27.27888, "latitude": 44.12235, "link": "https://www.myshiptracking.com//ru/ports/port-of-silistra-in-bg-bulgaria-id-2899"},
{"name": "SILIVRI", "type": "\u0413\u0430\u0432\u0430\u043d\u044c", "size": "X\u041c\u0430\u043b\u044b\u0439", "UN_LOCODE": "TRSIL", "country": "[TR] Turkey", "longitude": 28.24059, "latitude": 41.07195, "link": "https://www.myshiptracking.com//ru/ports/marina-of-silivri-in-tr-turkey-id-2165"},
{"name": "SILLAMAE", "type": "\u041f\u043e\u0440\u0442", "size": "\u041c\u0430\u043b\u0435\u043d\u044c\u043a\u0438\u0439", "UN_LOCODE": "EESLM", "country": "[EE] Estonia", "longitude": 27.73431, "latitude": 59.42366, "link": "https://www.myshiptracking.com//ru/ports/port-of-sillamae-in-ee-estonia-id-5639"},
{"name": "SILLOTH", "type": "\u041f\u043e\u0440\u0442", "size": "X\u041c\u0430\u043b\u044b\u0439", "UN_LOCODE": "GBSIL", "country": "[GB] United Kingdom", "longitude": -3.3954, "latitude": 54.86834, "link": "https://www.myshiptracking.com//ru/ports/port-of-silloth-in-gb-united-kingdom-id-1558"},
{"name": "SILVER BAY", "type": "\u041f\u043e\u0440\u0442", "size": "\u0421\u0440\u0435\u0434\u043d\u0438\u0439", "UN_LOCODE": "USSIB", "country": "[US] USA", "longitude": -91.26467, "latitude": 47.27536, "link": "https://www.myshiptracking.com//ru/ports/port-of-silver-bay-in-us-usa-id-6196"},
{"name": "SILVER GROVE", "type": "\u041f\u043e\u0440\u0442", "size": "\u041c\u0430\u043b\u0435\u043d\u044c\u043a\u0438\u0439", "UN_LOCODE": "USVKY", "country": "[US] USA", "longitude": -84.39466, "latitude": 39.04158, "link": "https://www.myshiptracking.com//ru/ports/port-of-silver-grove-in-us-usa-id-6218"},
{"name": "SILVERTOWN", "type": "\u041f\u043e\u0440\u0442", "size": "\u041c\u0430\u043b\u0435\u043d\u044c\u043a\u0438\u0439", "UN_LOCODE": "GBSVT", "country": "[GB] United Kingdom", "longitude": 0.04526, "latitude": 51.49878, "link": "https://www.myshiptracking.com//ru/ports/port-of-silvertown-in-gb-united-kingdom-id-1639"},
{"name": "SILVERWATER", "type": "\u041f\u043e\u0440\u0442", "size": "\u041c\u0430\u043b\u0435\u043d\u044c\u043a\u0438\u0439", "UN_LOCODE": "AUSIL", "country": "[AU] Australia", "longitude": 151.0488, "latitude": -33.8253, "link": "https://www.myshiptracking.com//ru/ports/port-of-silverwater-in-au-australia-id-3901"},
{"name": "SIMAISMA", "type": "\u041f\u043e\u0440\u0442", "size": "\u0411\u043e\u043b\u044c\u0448\u043e\u0439", "UN_LOCODE": "---", "country": "[QA] Qatar", "longitude": 51.49739, "latitude": 25.5555, "link": "https://www.myshiptracking.com//ru/ports/port-of-simaisma-in-qa-qatar-id-5837"},
{"name": "SIMONS TOWN", "type": "\u041f\u043e\u0440\u0442", "size": "\u041c\u0430\u043b\u0435\u043d\u044c\u043a\u0438\u0439", "UN_LOCODE": "ZASMN", "country": "[ZA] South Africa", "longitude": 18.43786, "latitude": -34.18755, "link": "https://www.myshiptracking.com//ru/ports/port-of-simons-town-in-za-south-africa-id-3396"},
{"name": "SIMPEVARP", "type": "\u041f\u043e\u0440\u0442", "size": "X\u041c\u0430\u043b\u044b\u0439", "UN_LOCODE": "SESMV", "country": "[SE] Sweden", "longitude": 16.67148, "latitude": 57.40983, "link": "https://www.myshiptracking.com//ru/ports/port-of-simpevarp-in-se-sweden-id-2250"},
{"name": "SIMRISHAMN", "type": "\u041f\u043e\u0440\u0442", "size": "\u041c\u0430\u043b\u0435\u043d\u044c\u043a\u0438\u0439", "UN_LOCODE": "SESIM", "country": "[SE] Sweden", "longitude": 14.35763, "latitude": 55.55825, "link": "https://www.myshiptracking.com//ru/ports/port-of-simrishamn-in-se-sweden-id-2219"},
