{"name": "WASHINGTON", "type": "\u041f\u043e\u0440\u0442", "size": "\u0411\u043e\u043b\u044c\u0448\u043e\u0439", "UN_LOCODE": "USHQJ", "country": "[US] USA", "longitude": -77.03706, "latitude": 38.87414, "link": "https://www.myshiptracking.com//ru/ports/port-of-washington-in-us-usa-id-6265"},
{"name": "WASHIZAKI", "type": "\u041f\u043e\u0440\u0442", "size": "\u041c\u0430\u043b\u0435\u043d\u044c\u043a\u0438\u0439", "UN_LOCODE": "---", "country": "[JP] Japan", "longitude": 138.51729, "latitude": 38.31645, "link": "https://www.myshiptracking.com//ru/ports/port-of-washizaki-in-jp-japan-id-4440"},
{"name": "WASPIK", "type": "\u0413\u0430\u0432\u0430\u043d\u044c", "size": "\u041c\u0430\u043b\u0435\u043d\u044c\u043a\u0438\u0439", "UN_LOCODE": "NLWPI", "country": "[NL] Netherlands", "longitude": 4.94454, "latitude": 51.69994, "link": "https://www.myshiptracking.com//ru/ports/marina-of-waspik-in-nl-netherlands-id-1099"},
{"name": "WASSERLEBEN", "type": "\u0413\u0430\u0432\u0430\u043d\u044c", "size": "X\u041c\u0430\u043b\u044b\u0439", "UN_LOCODE": "---", "country": "[DE] Germany", "longitude": 9.42499, "latitude": 54.82355, "link": "https://www.myshiptracking.com//ru/ports/marina-of-wasserleben-in-de-germany-id-1389"},
{"name": "WATANOHA", "type": "\u041f\u043e\u0440\u0442", "size": "\u041c\u0430\u043b\u0435\u043d\u044c\u043a\u0438\u0439", "UN_LOCODE": "JPWAT", "country": "[JP] Japan", "longitude": 141.36667, "latitude": 38.40797, "link": "https://www.myshiptracking.com//ru/ports/port-of-watanoha-in-jp-japan-id-4552"},
{"name": "WATCHET", "type": "\u0413\u0430\u0432\u0430\u043d\u044c", "size": "\u041c\u0430\u043b\u0435\u043d\u044c\u043a\u0438\u0439", "UN_LOCODE": "---", "country": "[GB] United Kingdom", "longitude": -3.329, "latitude": 51.1827, "link": "https://www.myshiptracking.com//ru/ports/marina-of-watchet-in-gb-united-kingdom-id-2337"},
{"name": "WATERFOOT", "type": "\u0413\u0430\u0432\u0430\u043d\u044c", "size": "\u041c\u0430\u043b\u0435\u043d\u044c\u043a\u0438\u0439", "UN_LOCODE": "GBFUC", "country": "[GB] United Kingdom", "longitude": -6.05204, "latitude": 55.0661, "link": "https://www.myshiptracking.com//ru/ports/marina-of-waterfoot-in-gb-united-kingdom-id-2404"},
{"name": "WATERFORD", "type": "\u041f\u043e\u0440\u0442", "size": "X\u041c\u0430\u043b\u044b\u0439", "UN_LOCODE": "IEWAT", "country": "[IE] Ireland", "longitude": -7.03261, "latitude": 52.2657, "link": "https://www.myshiptracking.com//ru/ports/port-of-waterford-in-ie-ireland-id-95"},
{"name": "WATERFORD CITY", "type": "\u041f\u043e\u0440\u0442", "size": "\u041c\u0430\u043b\u0435\u043d\u044c\u043a\u0438\u0439", "UN_LOCODE": "IEWCQ", "country": "[IE] Ireland", "longitude": -7.1147, "latitude": 52.26369, "link": "https://www.myshiptracking.com//ru/ports/port-of-waterford-city-in-ie-ireland-id-2477"},
{"name": "WATERHUIZEN", "type": "\u041f\u043e\u0440\u0442", "size": "X\u041c\u0430\u043b\u044b\u0439", "UN_LOCODE": "NLWHZ", "country": "[NL] Netherlands", "longitude": 6.64717, "latitude": 53.18619, "link": "https://www.myshiptracking.com//ru/ports/port-of-waterhuizen-in-nl-netherlands-id-5025"},
{"name": "WATERSPORT CENTRUM", "type": "\u0413\u0430\u0432\u0430\u043d\u044c", "size": "X\u041c\u0430\u043b\u044b\u0439", "UN_LOCODE": "---", "country": "[NL] Netherlands", "longitude": 5.63816, "latitude": 52.36568, "link": "https://www.myshiptracking.com//ru/ports/marina-of-watersport-centrum-in-nl-netherlands-id-964"},
{"name": "WATSONS BAY", "type": "\u041f\u043e\u0440\u0442", "size": "\u041c\u0430\u043b\u0435\u043d\u044c\u043a\u0438\u0439", "UN_LOCODE": "---", "country": "[AU] Australia", "longitude": 151.27907, "latitude": -33.84385, "link": "https://www.myshiptracking.com//ru/ports/port-of-watsons-bay-in-au-australia-id-3906"},
{"name": "WATTEN", "type": "\u041f\u043e\u0440\u0442", "size": "\u041c\u0430\u043b\u0435\u043d\u044c\u043a\u0438\u0439", "UN_LOCODE": "FRWTT", "country": "[FR] France", "longitude": 2.2094, "latitude": 50.83141, "link": "https://www.myshiptracking.com//ru/ports/port-of-watten-in-fr-france-id-1843"},
{"name": "WAUKEGAN", "type": "\u041f\u043e\u0440\u0442", "size": "\u041c\u0430\u043b\u0435\u043d\u044c\u043a\u0438\u0439", "UN_LOCODE": "USUGN", "country": "[US] USA", "longitude": -87.81615, "latitude": 42.36021, "link": "https://www.myshiptracking.com//ru/ports/port-of-waukegan-in-us-usa-id-5913"},
{"name": "WAUNA RANGE", "type": "\u041f\u043e\u0440\u0442", "size": "\u041c\u0430\u043b\u0435\u043d\u044c\u043a\u0438\u0439", "UN_LOCODE": "USWQU", "country": "[US] USA", "longitude": -123.40441, "latitude": 46.15972, "link": "https://www.myshiptracking.com//ru/ports/port-of-wauna-range-in-us-usa-id-6020"},
{"name": "WAYAME", "type": "\u041f\u043e\u0440\u0442", "size": "\u0421\u0440\u0435\u0434\u043d\u0438\u0439", "UN_LOCODE": "---", "country": "[ID] Indonesia", "longitude": 128.19072, "latitude": -3.66296, "link": "https://www.myshiptracking.com//ru/ports/port-of-wayame-in-id-indonesia-id-3804"},
{"name": "WEDA", "type": "\u041f\u043e\u0440\u0442", "size": "\u041c\u0430\u043b\u0435\u043d\u044c\u043a\u0438\u0439", "UN_LOCODE": "IDWED", "country": "[ID] Indonesia", "longitude": 127.87994, "latitude": 0.32922, "link": "https://www.myshiptracking.com//ru/ports/port-of-weda-in-id-indonesia-id-3765"},
{"name": "WEDEL", "type": "\u041f\u043e\u0440\u0442", "size": "\u0421\u0440\u0435\u0434\u043d\u0438\u0439", "UN_LOCODE": "DEWED", "country": "[DE] Germany", "longitude": 9.69998, "latitude": 53.56825, "link": "https://www.myshiptracking.com//ru/ports/port-of-wedel-in-de-germany-id-1344"},
{"name": "WEENER", "type": "\u041f\u043e\u0440\u0442", "size": "\u041c\u0430\u043b\u0435\u043d\u044c\u043a\u0438\u0439", "UN_LOCODE": "DEWEE", "country": "[DE] Germany", "longitude": 7.36853, "latitude": 53.16806, "link": "https://www.myshiptracking.com//ru/ports/port-of-weener-in-de-germany-id-2574"},
{"name": "WEESP", "type": "\u041f\u043e\u0440\u0442", "size": "\u0421\u0440\u0435\u0434\u043d\u0438\u0439", "UN_LOCODE": "NLWSP", "country": "[NL] Netherlands", "longitude": 5.04796, "latitude": 52.30605, "link": "https://www.myshiptracking.com//ru/ports/port-of-weesp-in-nl-netherlands-id-1483"},
{"name": "WEIFANG", "type": "\u041f\u043e\u0440\u0442", "size": "X\u0411\u043e\u043b\u044c\u0449\u043e\u0439", "UN_LOCODE": "CNWEF", "country": "[CN] China", "longitude": 119.43224, "latitude": 37.23786, "link": "https://www.myshiptracking.com//ru/ports/port-of-weifang-in-cn-china-id-4105"},
{"name": "WEIHAI", "type": "\u041f\u043e\u0440\u0442", "size": "X\u0411\u043e\u043b\u044c\u0449\u043e\u0439", "UN_LOCODE": "CNWEI", "country": "[CN] China", "longitude": 122.16728, "latitude": 37.48256, "link": "https://www.myshiptracking.com//ru/ports/port-of-weihai-in-cn-china-id-4101"},
{"name": "WEIL AM RHEIN", "type": "\u041f\u043e\u0440\u0442", "size": "\u041c\u0430\u043b\u0435\u043d\u044c\u043a\u0438\u0439", "UN_LOCODE": "DEWLR", "country": "[DE] Germany", "longitude": 7.59058, "latitude": 47.58836, "link": "https://www.myshiptracking.com//ru/ports/port-of-weil-am-rhein-in-de-germany-id-1513"},
{"name": "WEIPA", "type": "\u041f\u043e\u0440\u0442", "size": "\u041c\u0430\u043b\u0435\u043d\u044c\u043a\u0438\u0439", "UN_LOCODE": "AUWEI", "country": "[AU] Australia", "longitude": 141.86057, "latitude": -12.66881, "link": "https://www.myshiptracking.com//ru/ports/port-of-weipa-in-au-australia-id-201"},
{"name": "WEISSENTHURM", "type": "\u041f\u043e\u0440\u0442", "size": "\u041c\u0430\u043b\u0435\u043d\u044c\u043a\u0438\u0439", "UN_LOCODE": "DEWNU", "country": "[DE] Germany", "longitude": 7.45787, "latitude": 50.41806, "link": "https://www.myshiptracking.com//ru/ports/port-of-weissenthurm-in-de-germany-id-2569"},
{"name": "WEITOU", "type": "\u041f\u043e\u0440\u0442", "size": "\u041c\u0430\u043b\u0435\u043d\u044c\u043a\u0438\u0439", "UN_LOCODE": "CNWTU", "country": "[CN] China", "longitude": 118.56294, "latitude": 24.51583, "link": "https://www.myshiptracking.com//ru/ports/port-of-weitou-in-cn-china-id-4198"},
{"name": "WEIZHOU", "type": "\u041f\u043e\u0440\u0442", "size": "\u0411\u043e\u043b\u044c\u0448\u043e\u0439", "UN_LOCODE": "CNWZO", "country": "[CN] China", "longitude": 109.08575, "latitude": 21.05975, "link": "https://www.myshiptracking.com//ru/ports/port-of-weizhou-in-cn-china-id-4151"},
{"name": "WELCOME", "type": "\u041f\u043e\u0440\u0442", "size": "\u041c\u0430\u043b\u0435\u043d\u044c\u043a\u0438\u0439", "UN_LOCODE": "USEOM", "country": "[US] USA", "longitude": -90.8603, "latitude": 30.06114, "link": "https://www.myshiptracking.com//ru/ports/port-of-welcome-in-us-usa-id-6355"},
{"name": "WELL", "type": "\u041f\u043e\u0440\u0442", "size": "\u0411\u043e\u043b\u044c\u0448\u043e\u0439", "UN_LOCODE": "NLWEL", "country": "[NL] Netherlands", "longitude": 6.07545, "latitude": 51.57101, "link": "https://www.myshiptracking.com//ru/ports/port-of-well-in-nl-netherlands-id-896"},
{"name": "WELLINGTON", "type": "\u041f\u043e\u0440\u0442", "size": "X\u0411\u043e\u043b\u044c\u0449\u043e\u0439", "UN_LOCODE": "NZWLG", "country": "[NZ] New Zealand", "longitude": 174.80348, "latitude": -41.27972, "link": "https://www.myshiptracking.com//ru/ports/port-of-wellington-in-nz-new-zealand-id-200"},
{"name": "WELLS-NEXT-THE-SEA", "type": "\u041f\u043e\u0440\u0442", "size": "\u041c\u0430\u043b\u0435\u043d\u044c\u043a\u0438\u0439", "UN_LOCODE": "GBWNS", "country": "[GB] United Kingdom", "longitude": 0.85181, "latitude": 52.97399, "link": "https://www.myshiptracking.com//ru/ports/port-of-wells-next-the-sea-in-gb-united-kingdom-id-1538"},
{"name": "WELSHPOOL", "type": "\u041f\u043e\u0440\u0442", "size": "\u041c\u0430\u043b\u0435\u043d\u044c\u043a\u0438\u0439", "UN_LOCODE": "AUWHL", "country": "[AU] Australia", "longitude": 146.46141, "latitude": -38.70405, "link": "https://www.myshiptracking.com//ru/ports/port-of-welshpool-in-au-australia-id-3868"},
{"name": "WEMELDINGE", "type": "\u041f\u043e\u0440\u0442", "size": "\u041c\u0430\u043b\u0435\u043d\u044c\u043a\u0438\u0439", "UN_LOCODE": "NLWED", "country": "[NL] Netherlands", "longitude": 4.00441, "latitude": 51.51939, "link": "https://www.myshiptracking.com//ru/ports/port-of-wemeldinge-in-nl-netherlands-id-1465"},
{"name": "WEMYSS BAY", "type": "\u041f\u043e\u0440\u0442", "size": "X\u041c\u0430\u043b\u044b\u0439", "UN_LOCODE": "GBWMB", "country": "[GB] United Kingdom", "longitude": -4.89081, "latitude": 55.8759, "link": "https://www.myshiptracking.com//ru/ports/port-of-wemyss-bay-in-gb-united-kingdom-id-199"},
{"name": "WENDTORF", "type": "\u041f\u043e\u0440\u0442", "size": "\u041c\u0430\u043b\u0435\u043d\u044c\u043a\u0438\u0439", "UN_LOCODE": "DE67E", "country": "[DE] Germany", "longitude": 10.27793, "latitude": 54.4194, "link": "https://www.myshiptracking.com//ru/ports/port-of-wendtorf-in-de-germany-id-1387"},
{"name": "WENTWORTH POINT", "type": "\u041f\u043e\u0440\u0442", "size": "\u041c\u0430\u043b\u0435\u043d\u044c\u043a\u0438\u0439", "UN_LOCODE": "AUWWP", "country": "[AU] Australia", "longitude": 151.08362, "latitude": -33.82502, "link": "https://www.myshiptracking.com//ru/ports/port-of-wentworth-point-in-au-australia-id-3909"},
{"name": "WENZHOU", "type": "\u041f\u043e\u0440\u0442", "size": "X\u0411\u043e\u043b\u044c\u0449\u043e\u0439", "UN_LOCODE": "CNWNZ", "country": "[CN] China", "longitude": 120.81018, "latitude": 27.97802, "link": "https://www.myshiptracking.com//ru/ports/port-of-wenzhou-in-cn-china-id-4132"},
{"name": "WERGEA", "type": "\u041f\u043e\u0440\u0442", "size": "\u041c\u0430\u043b\u0435\u043d\u044c\u043a\u0438\u0439", "UN_LOCODE": "NLWRA", "country": "[NL] Netherlands", "longitude": 5.84453, "latitude": 53.15012, "link": "https://www.myshiptracking.com//ru/ports/port-of-wergea-in-nl-netherlands-id-5016"},
{"name": "WERKENDAM", "type": "\u041f\u043e\u0440\u0442", "size": "\u041c\u0430\u043b\u0435\u043d\u044c\u043a\u0438\u0439", "UN_LOCODE": "NLWKD", "country": "[NL] Netherlands", "longitude": 4.87663, "latitude": 51.80671, "link": "https://www.myshiptracking.com//ru/ports/port-of-werkendam-in-nl-netherlands-id-917"},
{"name": "WERVIK", "type": "\u041f\u043e\u0440\u0442", "size": "X\u041c\u0430\u043b\u044b\u0439", "UN_LOCODE": "BEWER", "country": "[BE] Belgium", "longitude": 3.05501, "latitude": 50.7804, "link": "https://www.myshiptracking.com//ru/ports/port-of-wervik-in-be-belgium-id-2542"},
{"name": "WESEL", "type": "\u041f\u043e\u0440\u0442", "size": "\u041c\u0430\u043b\u0435\u043d\u044c\u043a\u0438\u0439", "UN_LOCODE": "---", "country": "[DE] Germany", "longitude": 6.60224, "latitude": 51.65246, "link": "https://www.myshiptracking.com//ru/ports/port-of-wesel-in-de-germany-id-1425"},
{"name": "WESSELING", "type": "\u041f\u043e\u0440\u0442", "size": "\u041c\u0430\u043b\u0435\u043d\u044c\u043a\u0438\u0439", "UN_LOCODE": "---", "country": "[DE] Germany", "longitude": 7.00003, "latitude": 50.82357, "link": "https://www.myshiptracking.com//ru/ports/port-of-wesseling-in-de-germany-id-1445"},
{"name": "WESSEM", "type": "\u041f\u043e\u0440\u0442", "size": "\u041c\u0430\u043b\u0435\u043d\u044c\u043a\u0438\u0439", "UN_LOCODE": "NLWSM", "country": "[NL] Netherlands", "longitude": 5.88096, "latitude": 51.15638, "link": "https://www.myshiptracking.com//ru/ports/port-of-wessem-in-nl-netherlands-id-1196"},
{"name": "WEST BAY", "type": "\u041f\u043e\u0440\u0442", "size": "X\u041c\u0430\u043b\u044b\u0439", "UN_LOCODE": "GBWYX", "country": "[GB] United Kingdom", "longitude": -2.7642, "latitude": 50.70973, "link": "https://www.myshiptracking.com//ru/ports/port-of-west-bay-in-gb-united-kingdom-id-1562"},
{"name": "WEST BURRAFIRTH", "type": "\u041f\u043e\u0440\u0442", "size": "X\u041c\u0430\u043b\u044b\u0439", "UN_LOCODE": "GBWBF", "country": "[GB] United Kingdom", "longitude": -1.53981, "latitude": 60.29571, "link": "https://www.myshiptracking.com//ru/ports/port-of-west-burrafirth-in-gb-united-kingdom-id-1532"},
{"name": "WEST FROLUNDA", "type": "\u041f\u043e\u0440\u0442", "size": "\u041c\u0430\u043b\u0435\u043d\u044c\u043a\u0438\u0439", "UN_LOCODE": "SEVFA", "country": "[SE] Sweden", "longitude": 11.85522, "latitude": 57.6459, "link": "https://www.myshiptracking.com//ru/ports/port-of-west-frolunda-in-se-sweden-id-5382"},
{"name": "WEST HARBOUR", "type": "\u0413\u0430\u0432\u0430\u043d\u044c", "size": "\u041c\u0430\u043b\u0435\u043d\u044c\u043a\u0438\u0439", "UN_LOCODE": "---", "country": "[NZ] New Zealand", "longitude": 174.6483, "latitude": -36.81001, "link": "https://www.myshiptracking.com//ru/ports/marina-of-west-harbour-in-nz-new-zealand-id-4065"},
{"name": "WEST WEMYSS", "type": "\u0413\u0430\u0432\u0430\u043d\u044c", "size": "X\u041c\u0430\u043b\u044b\u0439", "UN_LOCODE": "GBWWE", "country": "[GB] United Kingdom", "longitude": -3.09023, "latitude": 56.13945, "link": "https://www.myshiptracking.com//ru/ports/marina-of-west-wemyss-in-gb-united-kingdom-id-2408"},
{"name": "WESTERGEEST", "type": "\u0413\u0430\u0432\u0430\u043d\u044c", "size": "X\u041c\u0430\u043b\u044b\u0439", "UN_LOCODE": "NLWGE", "country": "[NL] Netherlands", "longitude": 6.08203, "latitude": 53.29348, "link": "https://www.myshiptracking.com//ru/ports/marina-of-westergeest-in-nl-netherlands-id-1190"},
{"name": "WESTERNPORT", "type": "\u041f\u043e\u0440\u0442", "size": "X\u0411\u043e\u043b\u044c\u0449\u043e\u0439", "UN_LOCODE": "AUWEP", "country": "[AU] Australia", "longitude": 145.22653, "latitude": -38.33529, "link": "https://www.myshiptracking.com//ru/ports/port-of-westernport-in-au-australia-id-3814"},
