{"name": "SAYADA", "type": "\u041f\u043e\u0440\u0442", "size": "X\u041c\u0430\u043b\u044b\u0439", "UN_LOCODE": "---", "country": "[TN] Tunisia", "longitude": 10.89327, "latitude": 35.67464, "link": "https://www.myshiptracking.com//ru/ports/port-of-sayada-in-tn-tunisia-id-3220"},
{"name": "SCALASAIG", "type": "\u041f\u043e\u0440\u0442", "size": "X\u041c\u0430\u043b\u044b\u0439", "UN_LOCODE": "GBSCG", "country": "[GB] United Kingdom", "longitude": -6.18288, "latitude": 56.0693, "link": "https://www.myshiptracking.com//ru/ports/port-of-scalasaig-in-gb-united-kingdom-id-1623"},
{"name": "SCALLOWAY", "type": "\u041f\u043e\u0440\u0442", "size": "\u041c\u0430\u043b\u0435\u043d\u044c\u043a\u0438\u0439", "UN_LOCODE": "GBSWY", "country": "[GB] United Kingdom", "longitude": -1.27889, "latitude": 60.13365, "link": "https://www.myshiptracking.com//ru/ports/port-of-scalloway-in-gb-united-kingdom-id-1678"},
{"name": "SCALPAY", "type": "\u0413\u0430\u0432\u0430\u043d\u044c", "size": "\u041c\u0430\u043b\u0435\u043d\u044c\u043a\u0438\u0439", "UN_LOCODE": "---", "country": "[GB] United Kingdom", "longitude": -6.70037, "latitude": 57.87183, "link": "https://www.myshiptracking.com//ru/ports/marina-of-scalpay-in-gb-united-kingdom-id-2378"},
{"name": "SCAPA", "type": "\u041f\u043e\u0440\u0442", "size": "\u041c\u0430\u043b\u0435\u043d\u044c\u043a\u0438\u0439", "UN_LOCODE": "GBSCF", "country": "[GB] United Kingdom", "longitude": -2.97577, "latitude": 58.95799, "link": "https://www.myshiptracking.com//ru/ports/port-of-scapa-in-gb-united-kingdom-id-2281"},
{"name": "SCARBOROUGH", "type": "\u041f\u043e\u0440\u0442", "size": "\u0421\u0440\u0435\u0434\u043d\u0438\u0439", "UN_LOCODE": "---", "country": "[AU] Australia", "longitude": 153.09847, "latitude": -27.19874, "link": "https://www.myshiptracking.com//ru/ports/port-of-scarborough-in-au-australia-id-3867"},
{"name": "SCARBOROUGH", "type": "\u041f\u043e\u0440\u0442", "size": "X\u041c\u0430\u043b\u044b\u0439", "UN_LOCODE": "GBSCA", "country": "[GB] United Kingdom", "longitude": -0.3907, "latitude": 54.28197, "link": "https://www.myshiptracking.com//ru/ports/port-of-scarborough-in-gb-united-kingdom-id-1620"},
{"name": "SCARBOROUGH", "type": "\u041f\u043e\u0440\u0442", "size": "\u041c\u0430\u043b\u0435\u043d\u044c\u043a\u0438\u0439", "UN_LOCODE": "TTSCA", "country": "[TT] Trinidad Tobago", "longitude": -60.7375, "latitude": 11.17908, "link": "https://www.myshiptracking.com//ru/ports/port-of-scarborough-in-tt-trinidad-tobago-id-7038"},
{"name": "SCARINISH", "type": "\u041f\u043e\u0440\u0442", "size": "\u041c\u0430\u043b\u0435\u043d\u044c\u043a\u0438\u0439", "UN_LOCODE": "GBSCN", "country": "[GB] United Kingdom", "longitude": -6.79705, "latitude": 56.50936, "link": "https://www.myshiptracking.com//ru/ports/port-of-scarinish-in-gb-united-kingdom-id-1680"},
{"name": "SCARIO", "type": "\u041f\u043e\u0440\u0442", "size": "X\u041c\u0430\u043b\u044b\u0439", "UN_LOCODE": "ITSRH", "country": "[IT] Italy", "longitude": 15.49368, "latitude": 40.05257, "link": "https://www.myshiptracking.com//ru/ports/port-of-scario-in-it-italy-id-2080"},
{"name": "SCAURI ALTO", "type": "\u041f\u043e\u0440\u0442", "size": "X\u041c\u0430\u043b\u044b\u0439", "UN_LOCODE": "ITURC", "country": "[IT] Italy", "longitude": 11.96361, "latitude": 36.76878, "link": "https://www.myshiptracking.com//ru/ports/port-of-scauri-alto-in-it-italy-id-1999"},
{"name": "SCHAPRODE", "type": "\u041f\u043e\u0440\u0442", "size": "\u041c\u0430\u043b\u0435\u043d\u044c\u043a\u0438\u0439", "UN_LOCODE": "DESH2", "country": "[DE] Germany", "longitude": 13.16364, "latitude": 54.51282, "link": "https://www.myshiptracking.com//ru/ports/port-of-schaprode-in-de-germany-id-1411"},
{"name": "SCHARDAM", "type": "\u041f\u043e\u0440\u0442", "size": "\u041c\u0430\u043b\u0435\u043d\u044c\u043a\u0438\u0439", "UN_LOCODE": "---", "country": "[NL] Netherlands", "longitude": 5.01574, "latitude": 52.59473, "link": "https://www.myshiptracking.com//ru/ports/port-of-schardam-in-nl-netherlands-id-1107"},
{"name": "SCHARENDIJKE", "type": "\u041f\u043e\u0440\u0442", "size": "X\u041c\u0430\u043b\u044b\u0439", "UN_LOCODE": "NLSRD", "country": "[NL] Netherlands", "longitude": 3.84786, "latitude": 51.73899, "link": "https://www.myshiptracking.com//ru/ports/port-of-scharendijke-in-nl-netherlands-id-868"},
{"name": "SCHARSTERBRUG", "type": "\u041f\u043e\u0440\u0442", "size": "X\u041c\u0430\u043b\u044b\u0439", "UN_LOCODE": "NLSBG", "country": "[NL] Netherlands", "longitude": 5.78279, "latitude": 52.94442, "link": "https://www.myshiptracking.com//ru/ports/port-of-scharsterbrug-in-nl-netherlands-id-5001"},
{"name": "SCHAUSENDE", "type": "\u0413\u0430\u0432\u0430\u043d\u044c", "size": "X\u041c\u0430\u043b\u044b\u0439", "UN_LOCODE": "---", "country": "[DE] Germany", "longitude": 9.5696, "latitude": 54.85824, "link": "https://www.myshiptracking.com//ru/ports/marina-of-schausende-in-de-germany-id-1446"},
{"name": "SCHEEMDA", "type": "\u041f\u043e\u0440\u0442", "size": "\u041c\u0430\u043b\u0435\u043d\u044c\u043a\u0438\u0439", "UN_LOCODE": "NLSMD", "country": "[NL] Netherlands", "longitude": 6.96774, "latitude": 53.17646, "link": "https://www.myshiptracking.com//ru/ports/port-of-scheemda-in-nl-netherlands-id-958"},
{"name": "SCHELLINGWOUDE", "type": "\u041f\u043e\u0440\u0442", "size": "X\u041c\u0430\u043b\u044b\u0439", "UN_LOCODE": "---", "country": "[NL] Netherlands", "longitude": 4.96464, "latitude": 52.38108, "link": "https://www.myshiptracking.com//ru/ports/port-of-schellingwoude-in-nl-netherlands-id-1178"},
{"name": "SCHEVENINGEN", "type": "\u041f\u043e\u0440\u0442", "size": "\u041c\u0430\u043b\u0435\u043d\u044c\u043a\u0438\u0439", "UN_LOCODE": "NLSCE", "country": "[NL] Netherlands", "longitude": 4.26298, "latitude": 52.09795, "link": "https://www.myshiptracking.com//ru/ports/port-of-scheveningen-in-nl-netherlands-id-1135"},
{"name": "SCHIEDAM", "type": "\u041f\u043e\u0440\u0442", "size": "\u0421\u0440\u0435\u0434\u043d\u0438\u0439", "UN_LOCODE": "NLSCI", "country": "[NL] Netherlands", "longitude": 4.39756, "latitude": 51.90559, "link": "https://www.myshiptracking.com//ru/ports/port-of-schiedam-in-nl-netherlands-id-1130"},
{"name": "SCHIERMONNIKOOG", "type": "\u041f\u043e\u0440\u0442", "size": "\u041c\u0430\u043b\u0435\u043d\u044c\u043a\u0438\u0439", "UN_LOCODE": "---", "country": "[NL] Netherlands", "longitude": 6.18039, "latitude": 53.46818, "link": "https://www.myshiptracking.com//ru/ports/port-of-schiermonnikoog-in-nl-netherlands-id-859"},
{"name": "SCHIERSTEIN", "type": "\u041f\u043e\u0440\u0442", "size": "\u041c\u0430\u043b\u0435\u043d\u044c\u043a\u0438\u0439", "UN_LOCODE": "DESES", "country": "[DE] Germany", "longitude": 8.19314, "latitude": 50.03844, "link": "https://www.myshiptracking.com//ru/ports/port-of-schierstein-in-de-germany-id-1403"},
{"name": "SCHLEIHOF", "type": "\u0413\u0430\u0432\u0430\u043d\u044c", "size": "X\u041c\u0430\u043b\u044b\u0439", "UN_LOCODE": "---", "country": "[DE] Germany", "longitude": 9.73884, "latitude": 54.54108, "link": "https://www.myshiptracking.com//ru/ports/marina-of-schleihof-in-de-germany-id-1356"},
{"name": "SCHLESWIG", "type": "\u0413\u0430\u0432\u0430\u043d\u044c", "size": "X\u041c\u0430\u043b\u044b\u0439", "UN_LOCODE": "---", "country": "[DE] Germany", "longitude": 9.55627, "latitude": 54.51216, "link": "https://www.myshiptracking.com//ru/ports/marina-of-schleswig-in-de-germany-id-1360"},
{"name": "SCHMEDEHAUSEN", "type": "\u041f\u043e\u0440\u0442", "size": "X\u041c\u0430\u043b\u044b\u0439", "UN_LOCODE": "DEMHA", "country": "[DE] Germany", "longitude": 7.7049, "latitude": 52.10187, "link": "https://www.myshiptracking.com//ru/ports/port-of-schmedehausen-in-de-germany-id-1270"},
{"name": "SCHOKKERHAVEN", "type": "\u041f\u043e\u0440\u0442", "size": "X\u041c\u0430\u043b\u044b\u0439", "UN_LOCODE": "---", "country": "[NL] Netherlands", "longitude": 5.74776, "latitude": 52.61191, "link": "https://www.myshiptracking.com//ru/ports/port-of-schokkerhaven-in-nl-netherlands-id-5023"},
{"name": "SCHOONHOVEN", "type": "\u041f\u043e\u0440\u0442", "size": "\u041c\u0430\u043b\u0435\u043d\u044c\u043a\u0438\u0439", "UN_LOCODE": "NLSHH", "country": "[NL] Netherlands", "longitude": 4.85183, "latitude": 51.94235, "link": "https://www.myshiptracking.com//ru/ports/port-of-schoonhoven-in-nl-netherlands-id-1089"},
{"name": "SCHOORLDAM", "type": "\u041f\u043e\u0440\u0442", "size": "\u041c\u0430\u043b\u0435\u043d\u044c\u043a\u0438\u0439", "UN_LOCODE": "---", "country": "[NL] Netherlands", "longitude": 4.71641, "latitude": 52.70694, "link": "https://www.myshiptracking.com//ru/ports/port-of-schoorldam-in-nl-netherlands-id-1492"},
{"name": "SCHUTTEPLAAT", "type": "\u0413\u0430\u0432\u0430\u043d\u044c", "size": "X\u041c\u0430\u043b\u044b\u0439", "UN_LOCODE": "---", "country": "[NL] Netherlands", "longitude": 3.67235, "latitude": 51.56063, "link": "https://www.myshiptracking.com//ru/ports/marina-of-schutteplaat-in-nl-netherlands-id-923"},
{"name": "SCHWANHEIM", "type": "\u041f\u043e\u0440\u0442", "size": "\u041c\u0430\u043b\u0435\u043d\u044c\u043a\u0438\u0439", "UN_LOCODE": "DECHW", "country": "[DE] Germany", "longitude": 8.5953, "latitude": 50.08825, "link": "https://www.myshiptracking.com//ru/ports/port-of-schwanheim-in-de-germany-id-1325"},
{"name": "SCHWEINFURT", "type": "\u041f\u043e\u0440\u0442", "size": "\u0421\u0440\u0435\u0434\u043d\u0438\u0439", "UN_LOCODE": "DESCW", "country": "[DE] Germany", "longitude": 10.22565, "latitude": 50.03779, "link": "https://www.myshiptracking.com//ru/ports/port-of-schweinfurt-in-de-germany-id-1431"},
{"name": "SCHWEIZERHALLE", "type": "\u041f\u043e\u0440\u0442", "size": "X\u041c\u0430\u043b\u044b\u0439", "UN_LOCODE": "CHWEI", "country": "[CH] Switzerland", "longitude": 7.67488, "latitude": 47.5329, "link": "https://www.myshiptracking.com//ru/ports/port-of-schweizerhalle-in-ch-switzerland-id-5868"},
{"name": "SCILLA", "type": "\u041f\u043e\u0440\u0442", "size": "X\u041c\u0430\u043b\u044b\u0439", "UN_LOCODE": "ITSLL", "country": "[IT] Italy", "longitude": 15.7158, "latitude": 38.25658, "link": "https://www.myshiptracking.com//ru/ports/port-of-scilla-in-it-italy-id-1989"},
{"name": "SCRABSTER", "type": "\u041f\u043e\u0440\u0442", "size": "\u041c\u0430\u043b\u0435\u043d\u044c\u043a\u0438\u0439", "UN_LOCODE": "GBSCR", "country": "[GB] United Kingdom", "longitude": -3.54154, "latitude": 58.60917, "link": "https://www.myshiptracking.com//ru/ports/port-of-scrabster-in-gb-united-kingdom-id-1594"},
{"name": "SEAHAM", "type": "\u041f\u043e\u0440\u0442", "size": "X\u041c\u0430\u043b\u044b\u0439", "UN_LOCODE": "GBSEA", "country": "[GB] United Kingdom", "longitude": -1.32361, "latitude": 54.8369, "link": "https://www.myshiptracking.com//ru/ports/port-of-seaham-in-gb-united-kingdom-id-374"},
{"name": "SEAHOUSES", "type": "\u0413\u0430\u0432\u0430\u043d\u044c", "size": "\u041c\u0430\u043b\u0435\u043d\u044c\u043a\u0438\u0439", "UN_LOCODE": "GBSHU", "country": "[GB] United Kingdom", "longitude": -1.64813, "latitude": 55.5847, "link": "https://www.myshiptracking.com//ru/ports/marina-of-seahouses-in-gb-united-kingdom-id-2364"},
{"name": "SEAL BEACH", "type": "\u041f\u043e\u0440\u0442", "size": "\u041c\u0430\u043b\u0435\u043d\u044c\u043a\u0438\u0439", "UN_LOCODE": "USSLH", "country": "[US] USA", "longitude": -118.09411, "latitude": 33.73494, "link": "https://www.myshiptracking.com//ru/ports/port-of-seal-beach-in-us-usa-id-6153"},
{"name": "SEARSPORT", "type": "\u041f\u043e\u0440\u0442", "size": "\u041c\u0430\u043b\u0435\u043d\u044c\u043a\u0438\u0439", "UN_LOCODE": "USSRP", "country": "[US] USA", "longitude": -68.89733, "latitude": 44.45029, "link": "https://www.myshiptracking.com//ru/ports/port-of-searsport-in-us-usa-id-5975"},
{"name": "SEATON SLUICE", "type": "\u0413\u0430\u0432\u0430\u043d\u044c", "size": "\u041c\u0430\u043b\u0435\u043d\u044c\u043a\u0438\u0439", "UN_LOCODE": "---", "country": "[GB] United Kingdom", "longitude": -1.47306, "latitude": 55.08442, "link": "https://www.myshiptracking.com//ru/ports/marina-of-seaton-sluice-in-gb-united-kingdom-id-2357"},
{"name": "SEATONS", "type": "\u0413\u0430\u0432\u0430\u043d\u044c", "size": "X\u041c\u0430\u043b\u044b\u0439", "UN_LOCODE": "---", "country": "[GB] United Kingdom", "longitude": -6.69486, "latitude": 55.1537, "link": "https://www.myshiptracking.com//ru/ports/marina-of-seatons-in-gb-united-kingdom-id-2381"},
{"name": "SEATTLE", "type": "\u041f\u043e\u0440\u0442", "size": "X\u0411\u043e\u043b\u044c\u0449\u043e\u0439", "UN_LOCODE": "USSEA", "country": "[US] USA", "longitude": -122.36645, "latitude": 47.61894, "link": "https://www.myshiptracking.com//ru/ports/port-of-seattle-in-us-usa-id-375"},
{"name": "SEGLER COMBINATION P", "type": "\u0413\u0430\u0432\u0430\u043d\u044c", "size": "X\u041c\u0430\u043b\u044b\u0439", "UN_LOCODE": "---", "country": "[DE] Germany", "longitude": 9.56244, "latitude": 53.67119, "link": "https://www.myshiptracking.com//ru/ports/marina-of-segler-combination-p-in-de-germany-id-1340"},
{"name": "SEGLERVEREINIGUNG FL", "type": "\u0413\u0430\u0432\u0430\u043d\u044c", "size": "X\u041c\u0430\u043b\u044b\u0439", "UN_LOCODE": "---", "country": "[DE] Germany", "longitude": 9.47317, "latitude": 54.82347, "link": "https://www.myshiptracking.com//ru/ports/marina-of-seglervereinigung-fl-in-de-germany-id-1285"},
{"name": "SEGUR DE CALAFELL", "type": "\u041f\u043e\u0440\u0442", "size": "X\u041c\u0430\u043b\u044b\u0439", "UN_LOCODE": "---", "country": "[ES] Spain", "longitude": 1.60721, "latitude": 41.18589, "link": "https://www.myshiptracking.com//ru/ports/port-of-segur-de-calafell-in-es-spain-id-1981"},
{"name": "SEHNDE", "type": "\u041f\u043e\u0440\u0442", "size": "\u041c\u0430\u043b\u0435\u043d\u044c\u043a\u0438\u0439", "UN_LOCODE": "DESNE", "country": "[DE] Germany", "longitude": 9.96812, "latitude": 52.30602, "link": "https://www.myshiptracking.com//ru/ports/port-of-sehnde-in-de-germany-id-2554"},
{"name": "SEIN", "type": "\u041f\u043e\u0440\u0442", "size": "\u041c\u0430\u043b\u0435\u043d\u044c\u043a\u0438\u0439", "UN_LOCODE": "FRSI3", "country": "[FR] France", "longitude": -4.84764, "latitude": 48.03617, "link": "https://www.myshiptracking.com//ru/ports/port-of-sein-in-fr-france-id-1778"},
{"name": "SEKONDI-TAKORADI", "type": "\u041f\u043e\u0440\u0442", "size": "\u041c\u0430\u043b\u0435\u043d\u044c\u043a\u0438\u0439", "UN_LOCODE": "GHSEK", "country": "[GH] Ghana", "longitude": -1.69906, "latitude": 4.93708, "link": "https://www.myshiptracking.com//ru/ports/port-of-sekondi-takoradi-in-gh-ghana-id-3339"},
{"name": "SELAATA", "type": "\u041f\u043e\u0440\u0442", "size": "\u041c\u0430\u043b\u0435\u043d\u044c\u043a\u0438\u0439", "UN_LOCODE": "LBSEL", "country": "[LB] Lebanon", "longitude": 35.65167, "latitude": 34.28234, "link": "https://www.myshiptracking.com//ru/ports/port-of-selaata-in-lb-lebanon-id-3153"},
{"name": "SELDOVIA", "type": "\u041f\u043e\u0440\u0442", "size": "\u041c\u0430\u043b\u0435\u043d\u044c\u043a\u0438\u0439", "UN_LOCODE": "USSOV", "country": "[US] USA", "longitude": -151.72061, "latitude": 59.43845, "link": "https://www.myshiptracking.com//ru/ports/port-of-seldovia-in-us-usa-id-6209"},
{"name": "SELFRIDGE", "type": "\u041f\u043e\u0440\u0442", "size": "\u0411\u043e\u043b\u044c\u0448\u043e\u0439", "UN_LOCODE": "---", "country": "[US] USA", "longitude": -82.78721, "latitude": 42.59879, "link": "https://www.myshiptracking.com//ru/ports/port-of-selfridge-in-us-usa-id-6117"},
