[{"name": "BRUNELLE MARINA", "type": "\u0413\u0430\u0432\u0430\u043d\u044c", "size": "X\u041c\u0430\u043b\u044b\u0439", "UN_LOCODE": "---", "country": "[US] USA", "longitude": -72.60099, "latitude": 42.26383, "link": "https://www.myshiptracking.com//ru/ports/marina-of-brunelle-marina-in-us-usa-id-5944"},
{"name": "BRUNSBUETTEL", "type": "\u041f\u043e\u0440\u0442", "size": "\u041c\u0430\u043b\u0435\u043d\u044c\u043a\u0438\u0439", "UN_LOCODE": "DEBRB", "country": "[DE] Germany", "longitude": 9.15979, "latitude": 53.90305, "link": "https://www.myshiptracking.com//ru/ports/port-of-brunsbuettel-in-de-germany-id-1510"},
{"name": "BRUNSWICK", "type": "\u041f\u043e\u0440\u0442", "size": "X\u0411\u043e\u043b\u044c\u0449\u043e\u0439", "UN_LOCODE": "USSSI", "country": "[US] USA", "longitude": -81.49713, "latitude": 31.14032, "link": "https://www.myshiptracking.com//ru/ports/port-of-brunswick-in-us-usa-id-6162"},
{"name": "BRUNY ISLAND", "type": "\u041f\u043e\u0440\u0442", "size": "X\u041c\u0430\u043b\u044b\u0439", "UN_LOCODE": "---", "country": "[AU] Australia", "longitude": 147.2879, "latitude": -43.14223, "link": "https://www.myshiptracking.com//ru/ports/port-of-bruny-island-in-au-australia-id-3817"},
{"name": "BRURAY OUT SKERRIES", "type": "\u041f\u043e\u0440\u0442", "size": "X\u041c\u0430\u043b\u044b\u0439", "UN_LOCODE": "GBBRU", "country": "[GB] United Kingdom", "longitude": -0.75262, "latitude": 60.42173, "link": "https://www.myshiptracking.com//ru/ports/port-of-bruray-out-skerries-in-gb-united-kingdom-id-1536"},
{"name": "BRUSSELS", "type": "\u041f\u043e\u0440\u0442", "size": "X\u0411\u043e\u043b\u044c\u0449\u043e\u0439", "UN_LOCODE": "BEBRU", "country": "[BE] Belgium", "longitude": 4.33677, "latitude": 50.85025, "link": "https://www.myshiptracking.com//ru/ports/port-of-brussels-in-be-belgium-id-2536"},
{"name": "BRYHER", "type": "\u041f\u043e\u0440\u0442", "size": "\u041c\u0430\u043b\u0435\u043d\u044c\u043a\u0438\u0439", "UN_LOCODE": "GBBZR", "country": "[GB] United Kingdom", "longitude": -6.3485, "latitude": 49.95097, "link": "https://www.myshiptracking.com//ru/ports/port-of-bryher-in-gb-united-kingdom-id-2282"},
{"name": "BUA", "type": "\u041f\u043e\u0440\u0442", "size": "X\u041c\u0430\u043b\u044b\u0439", "UN_LOCODE": "SEBUA", "country": "[SE] Sweden", "longitude": 12.11352, "latitude": 57.24134, "link": "https://www.myshiptracking.com//ru/ports/port-of-bua-in-se-sweden-id-5341"},
{"name": "BUCEO", "type": "\u041f\u043e\u0440\u0442", "size": "\u041c\u0430\u043b\u0435\u043d\u044c\u043a\u0438\u0439", "UN_LOCODE": "---", "country": "[UY] Uruguay", "longitude": -56.1274, "latitude": -34.90806, "link": "https://www.myshiptracking.com//ru/ports/port-of-buceo-in-uy-uruguay-id-7084"},
{"name": "BUCHANAN", "type": "\u041f\u043e\u0440\u0442", "size": "\u041c\u0430\u043b\u0435\u043d\u044c\u043a\u0438\u0439", "UN_LOCODE": "LRUCN", "country": "[LR] Liberia", "longitude": -10.05477, "latitude": 5.85783, "link": "https://www.myshiptracking.com//ru/ports/port-of-buchanan-in-lr-liberia-id-3334"},
{"name": "BUCKIE", "type": "\u041f\u043e\u0440\u0442", "size": "\u041c\u0430\u043b\u0435\u043d\u044c\u043a\u0438\u0439", "UN_LOCODE": "GBBUC", "country": "[GB] United Kingdom", "longitude": -2.95933, "latitude": 57.68156, "link": "https://www.myshiptracking.com//ru/ports/port-of-buckie-in-gb-united-kingdom-id-1583"},
{"name": "BUCKLERS HARD", "type": "\u0413\u0430\u0432\u0430\u043d\u044c", "size": "X\u041c\u0430\u043b\u044b\u0439", "UN_LOCODE": "GBBLU", "country": "[GB] United Kingdom", "longitude": -1.42257, "latitude": 50.80087, "link": "https://www.myshiptracking.com//ru/ports/marina-of-bucklers-hard-in-gb-united-kingdom-id-2418"},
{"name": "BUCKSPORT", "type": "\u041f\u043e\u0440\u0442", "size": "\u041c\u0430\u043b\u0435\u043d\u044c\u043a\u0438\u0439", "UN_LOCODE": "USBUP", "country": "[US] USA", "longitude": -68.79924, "latitude": 44.5715, "link": "https://www.myshiptracking.com//ru/ports/port-of-bucksport-in-us-usa-id-6250"},
{"name": "BUDAPEST", "type": "\u041f\u043e\u0440\u0442", "size": "X\u0411\u043e\u043b\u044c\u0449\u043e\u0439", "UN_LOCODE": "HUBUD", "country": "[HU] Hungary", "longitude": 19.0448, "latitude": 47.4992, "link": "https://www.myshiptracking.com//ru/ports/port-of-budapest-in-hu-hungary-id-113"},
{"name": "BUDARDALUR", "type": "\u041f\u043e\u0440\u0442", "size": "X\u041c\u0430\u043b\u044b\u0439", "UN_LOCODE": "ISBUD", "country": "[IS] Iceland", "longitude": -21.77606, "latitude": 65.11028, "link": "https://www.myshiptracking.com//ru/ports/port-of-budardalur-in-is-iceland-id-5561"},
{"name": "BUDU", "type": "\u041f\u043e\u0440\u0442", "size": "\u041c\u0430\u043b\u0435\u043d\u044c\u043a\u0438\u0439", "UN_LOCODE": "---", "country": "[KR] Korea", "longitude": 126.56591, "latitude": 33.23592, "link": "https://www.myshiptracking.com//ru/ports/port-of-budu-in-kr-korea-id-5501"},
{"name": "BUDVA", "type": "\u041f\u043e\u0440\u0442", "size": "\u041c\u0430\u043b\u0435\u043d\u044c\u043a\u0438\u0439", "UN_LOCODE": "MEBUD", "country": "[ME] Montenegro", "longitude": 18.84174, "latitude": 42.28077, "link": "https://www.myshiptracking.com//ru/ports/port-of-budva-in-me-montenegro-id-2872"},
{"name": "BUENAVENTURA", "type": "\u041f\u043e\u0440\u0442", "size": "\u0411\u043e\u043b\u044c\u0448\u043e\u0439", "UN_LOCODE": "COBUN", "country": "[CO] Colombia", "longitude": -77.06439, "latitude": 3.87163, "link": "https://www.myshiptracking.com//ru/ports/port-of-buenaventura-in-co-colombia-id-7017"},
{"name": "BUENOS AIRES", "type": "\u041f\u043e\u0440\u0442", "size": "X\u0411\u043e\u043b\u044c\u0449\u043e\u0439", "UN_LOCODE": "ARBUE", "country": "[AR] Argentina", "longitude": -58.355, "latitude": -34.58585, "link": "https://www.myshiptracking.com//ru/ports/port-of-buenos-aires-in-ar-argentina-id-6811"},
{"name": "BUESUM", "type": "\u041f\u043e\u0440\u0442", "size": "\u041c\u0430\u043b\u0435\u043d\u044c\u043a\u0438\u0439", "UN_LOCODE": "DEBUM", "country": "[DE] Germany", "longitude": 8.85949, "latitude": 54.12065, "link": "https://www.myshiptracking.com//ru/ports/port-of-buesum-in-de-germany-id-1421"},
{"name": "BUETZFLETH", "type": "\u041f\u043e\u0440\u0442", "size": "\u0421\u0440\u0435\u0434\u043d\u0438\u0439", "UN_LOCODE": "DEBUZ", "country": "[DE] Germany", "longitude": 9.51147, "latitude": 53.65385, "link": "https://www.myshiptracking.com//ru/ports/port-of-buetzfleth-in-de-germany-id-1432"},
{"name": "BUEU", "type": "\u041f\u043e\u0440\u0442", "size": "X\u041c\u0430\u043b\u044b\u0439", "UN_LOCODE": "ESBUE", "country": "[ES] Spain", "longitude": -8.78554, "latitude": 42.32831, "link": "https://www.myshiptracking.com//ru/ports/port-of-bueu-in-es-spain-id-1880"},
{"name": "BUFFALO", "type": "\u041f\u043e\u0440\u0442", "size": "X\u0411\u043e\u043b\u044c\u0449\u043e\u0439", "UN_LOCODE": "USBUF", "country": "[US] USA", "longitude": -78.89411, "latitude": 42.87836, "link": "https://www.myshiptracking.com//ru/ports/port-of-buffalo-in-us-usa-id-5961"},
{"name": "BUGIBBA", "type": "\u041f\u043e\u0440\u0442", "size": "\u041c\u0430\u043b\u0435\u043d\u044c\u043a\u0438\u0439", "UN_LOCODE": "MTBUG", "country": "[MT] Malta", "longitude": 14.41305, "latitude": 35.95405, "link": "https://www.myshiptracking.com//ru/ports/port-of-bugibba-in-mt-malta-id-2772"},
{"name": "BUKHA", "type": "\u041f\u043e\u0440\u0442", "size": "\u041c\u0430\u043b\u0435\u043d\u044c\u043a\u0438\u0439", "UN_LOCODE": "---", "country": "[OM] Oman", "longitude": 56.14589, "latitude": 26.14883, "link": "https://www.myshiptracking.com//ru/ports/port-of-bukha-in-om-oman-id-3478"},
{"name": "BUKOM ISLAND", "type": "\u041f\u043e\u0440\u0442", "size": "\u0421\u0440\u0435\u0434\u043d\u0438\u0439", "UN_LOCODE": "---", "country": "[SG] Singapore", "longitude": 103.75341, "latitude": 1.2366, "link": "https://www.myshiptracking.com//ru/ports/port-of-bukom-island-in-sg-singapore-id-4010"},
{"name": "BULA", "type": "\u041f\u043e\u0440\u0442", "size": "\u041c\u0430\u043b\u0435\u043d\u044c\u043a\u0438\u0439", "UN_LOCODE": "IDBUA", "country": "[ID] Indonesia", "longitude": 130.49861, "latitude": -3.10022, "link": "https://www.myshiptracking.com//ru/ports/port-of-bula-in-id-indonesia-id-3764"},
{"name": "BULL ARM GBS", "type": "\u041f\u043e\u0440\u0442", "size": "\u041c\u0430\u043b\u0435\u043d\u044c\u043a\u0438\u0439", "UN_LOCODE": "CABUA", "country": "[CA] Canada", "longitude": -53.88123, "latitude": 47.80979, "link": "https://www.myshiptracking.com//ru/ports/port-of-bull-arm-gbs-in-ca-canada-id-6426"},
{"name": "BULLENBAY", "type": "\u041f\u043e\u0440\u0442", "size": "\u0421\u0440\u0435\u0434\u043d\u0438\u0439", "UN_LOCODE": "CWBUB", "country": "[CW] Curacao", "longitude": -69.0262, "latitude": 12.1885, "link": "https://www.myshiptracking.com//ru/ports/port-of-bullenbay-in-cw-curacao-id-7031"},
{"name": "BULLOCK ISLAND", "type": "\u041f\u043e\u0440\u0442", "size": "X\u041c\u0430\u043b\u044b\u0439", "UN_LOCODE": "---", "country": "[AU] Australia", "longitude": 147.97054, "latitude": -37.8844, "link": "https://www.myshiptracking.com//ru/ports/port-of-bullock-island-in-au-australia-id-3918"},
{"name": "BULWER", "type": "\u041f\u043e\u0440\u0442", "size": "X\u041c\u0430\u043b\u044b\u0439", "UN_LOCODE": "AUBWI", "country": "[AU] Australia", "longitude": 153.36598, "latitude": -27.07446, "link": "https://www.myshiptracking.com//ru/ports/port-of-bulwer-in-au-australia-id-3931"},
{"name": "BUNBURY", "type": "\u041f\u043e\u0440\u0442", "size": "\u0411\u043e\u043b\u044c\u0448\u043e\u0439", "UN_LOCODE": "AUBUY", "country": "[AU] Australia", "longitude": 115.64779, "latitude": -33.31747, "link": "https://www.myshiptracking.com//ru/ports/port-of-bunbury-in-au-australia-id-3841"},
{"name": "BUNDABERG", "type": "\u041f\u043e\u0440\u0442", "size": "X\u0411\u043e\u043b\u044c\u0449\u043e\u0439", "UN_LOCODE": "AUBDB", "country": "[AU] Australia", "longitude": 152.35889, "latitude": -24.86042, "link": "https://www.myshiptracking.com//ru/ports/port-of-bundaberg-in-au-australia-id-3826"},
{"name": "BUNDEENA", "type": "\u041f\u043e\u0440\u0442", "size": "\u041c\u0430\u043b\u0435\u043d\u044c\u043a\u0438\u0439", "UN_LOCODE": "---", "country": "[AU] Australia", "longitude": 151.15091, "latitude": -34.08211, "link": "https://www.myshiptracking.com//ru/ports/port-of-bundeena-in-au-australia-id-3882"},
{"name": "BUNKERSTATION LOHNDE", "type": "\u041f\u043e\u0440\u0442", "size": "X\u041c\u0430\u043b\u044b\u0439", "UN_LOCODE": "---", "country": "[DE] Germany", "longitude": 9.55197, "latitude": 52.3976, "link": "https://www.myshiptracking.com//ru/ports/port-of-bunkerstation-lohnde-in-de-germany-id-2556"},
{"name": "BUOL KHEYR", "type": "\u041f\u043e\u0440\u0442", "size": "X\u041c\u0430\u043b\u044b\u0439", "UN_LOCODE": "---", "country": "[IR] Iran", "longitude": 51.086, "latitude": 28.53566, "link": "https://www.myshiptracking.com//ru/ports/port-of-buol-kheyr-in-ir-iran-id-3560"},
{"name": "BURELA", "type": "\u041f\u043e\u0440\u0442", "size": "\u041c\u0430\u043b\u0435\u043d\u044c\u043a\u0438\u0439", "UN_LOCODE": "ESBRL", "country": "[ES] Spain", "longitude": -7.34853, "latitude": 43.65501, "link": "https://www.myshiptracking.com//ru/ports/port-of-burela-in-es-spain-id-1863"},
{"name": "BURGAS", "type": "\u041f\u043e\u0440\u0442", "size": "X\u0411\u043e\u043b\u044c\u0449\u043e\u0439", "UN_LOCODE": "BGBOJ", "country": "[BG] Bulgaria", "longitude": 27.48808, "latitude": 42.4656, "link": "https://www.myshiptracking.com//ru/ports/port-of-burgas-in-bg-bulgaria-id-2897"},
{"name": "BURGEO", "type": "\u041f\u043e\u0440\u0442", "size": "X\u041c\u0430\u043b\u044b\u0439", "UN_LOCODE": "CABUO", "country": "[CA] Canada", "longitude": -57.6074, "latitude": 47.60897, "link": "https://www.myshiptracking.com//ru/ports/port-of-burgeo-in-ca-canada-id-6535"},
{"name": "BURGHEAD", "type": "\u0413\u0430\u0432\u0430\u043d\u044c", "size": "X\u041c\u0430\u043b\u044b\u0439", "UN_LOCODE": "GBBUH", "country": "[GB] United Kingdom", "longitude": -3.49936, "latitude": 57.70157, "link": "https://www.myshiptracking.com//ru/ports/marina-of-burghead-in-gb-united-kingdom-id-2316"},
{"name": "BURGHSLUIS", "type": "\u041f\u043e\u0440\u0442", "size": "X\u041c\u0430\u043b\u044b\u0439", "UN_LOCODE": "NLBHS", "country": "[NL] Netherlands", "longitude": 3.75759, "latitude": 51.67561, "link": "https://www.myshiptracking.com//ru/ports/port-of-burghsluis-in-nl-netherlands-id-1202"},
{"name": "BURGSTAAKEN", "type": "\u041f\u043e\u0440\u0442", "size": "\u0421\u0440\u0435\u0434\u043d\u0438\u0439", "UN_LOCODE": "DEBSK", "country": "[DE] Germany", "longitude": 11.18873, "latitude": 54.41175, "link": "https://www.myshiptracking.com//ru/ports/port-of-burgstaaken-in-de-germany-id-1286"},
{"name": "BURGUM", "type": "\u041f\u043e\u0440\u0442", "size": "\u0411\u043e\u043b\u044c\u0448\u043e\u0439", "UN_LOCODE": "---", "country": "[NL] Netherlands", "longitude": 5.99307, "latitude": 53.1855, "link": "https://www.myshiptracking.com//ru/ports/port-of-burgum-in-nl-netherlands-id-874"},
{"name": "BURHANIYE", "type": "\u041f\u043e\u0440\u0442", "size": "\u041c\u0430\u043b\u0435\u043d\u044c\u043a\u0438\u0439", "UN_LOCODE": "TRBHN", "country": "[TR] Turkey", "longitude": 26.9277, "latitude": 39.48586, "link": "https://www.myshiptracking.com//ru/ports/port-of-burhaniye-in-tr-turkey-id-2148"},
{"name": "BURLINGTON", "type": "\u041f\u043e\u0440\u0442", "size": "\u041c\u0430\u043b\u0435\u043d\u044c\u043a\u0438\u0439", "UN_LOCODE": "USBTV", "country": "[US] USA", "longitude": -73.22406, "latitude": 44.47566, "link": "https://www.myshiptracking.com//ru/ports/port-of-burlington-in-us-usa-id-6258"},
{"name": "BURNHAM ON CROUCH", "type": "\u041f\u043e\u0440\u0442", "size": "\u041c\u0430\u043b\u0435\u043d\u044c\u043a\u0438\u0439", "UN_LOCODE": "GBBOC", "country": "[GB] United Kingdom", "longitude": 0.81458, "latitude": 51.62455, "link": "https://www.myshiptracking.com//ru/ports/port-of-burnham-on-crouch-in-gb-united-kingdom-id-1697"},
{"name": "BURNIE", "type": "\u041f\u043e\u0440\u0442", "size": "\u0421\u0440\u0435\u0434\u043d\u0438\u0439", "UN_LOCODE": "AUBWT", "country": "[AU] Australia", "longitude": 145.9173, "latitude": -41.0554, "link": "https://www.myshiptracking.com//ru/ports/port-of-burnie-in-au-australia-id-3836"},
{"name": "BURNMOUTH", "type": "\u0413\u0430\u0432\u0430\u043d\u044c", "size": "\u041c\u0430\u043b\u0435\u043d\u044c\u043a\u0438\u0439", "UN_LOCODE": "GBBMO", "country": "[GB] United Kingdom", "longitude": -2.06794, "latitude": 55.84215, "link": "https://www.myshiptracking.com//ru/ports/marina-of-burnmouth-in-gb-united-kingdom-id-2425"},
{"name": "BURNS HARBOR", "type": "\u041f\u043e\u0440\u0442", "size": "\u0421\u0440\u0435\u0434\u043d\u0438\u0439", "UN_LOCODE": "USBNB", "country": "[US] USA", "longitude": -87.15281, "latitude": 41.64378, "link": "https://www.myshiptracking.com//ru/ports/port-of-burns-harbor-in-us-usa-id-5968"},
{"name": "BURNSIDE", "type": "\u041f\u043e\u0440\u0442", "size": "\u041c\u0430\u043b\u0435\u043d\u044c\u043a\u0438\u0439", "UN_LOCODE": "USUDE", "country": "[US] USA", "longitude": -90.92108, "latitude": 30.1312, "link": "https://www.myshiptracking.com//ru/ports/port-of-burnside-in-us-usa-id-6361"}]
