[{"name": "PORTO GERMENO", "type": "\u0413\u0430\u0432\u0430\u043d\u044c", "size": "X\u041c\u0430\u043b\u044b\u0439", "UN_LOCODE": "---", "country": "[GR] Greece", "longitude": 23.22181, "latitude": 38.15676, "link": "https://www.myshiptracking.com//ru/ports/marina-of-porto-germeno-in-gr-greece-id-607"},
{"name": "PORTO INDUSTRIALE", "type": "\u041f\u043e\u0440\u0442", "size": "\u041c\u0430\u043b\u0435\u043d\u044c\u043a\u0438\u0439", "UN_LOCODE": "---", "country": "[IT] Italy", "longitude": 15.94907, "latitude": 41.61551, "link": "https://www.myshiptracking.com//ru/ports/port-of-porto-industriale-in-it-italy-id-2747"},
{"name": "PORTO KARRAS", "type": "\u0413\u0430\u0432\u0430\u043d\u044c", "size": "X\u041c\u0430\u043b\u044b\u0439", "UN_LOCODE": "---", "country": "[GR] Greece", "longitude": 23.79377, "latitude": 40.0754, "link": "https://www.myshiptracking.com//ru/ports/marina-of-porto-karras-in-gr-greece-id-568"},
{"name": "PORTO LAGOS", "type": "\u041f\u043e\u0440\u0442", "size": "\u041c\u0430\u043b\u0435\u043d\u044c\u043a\u0438\u0439", "UN_LOCODE": "GRPTL", "country": "[GR] Greece", "longitude": 25.12161, "latitude": 41.00523, "link": "https://www.myshiptracking.com//ru/ports/port-of-porto-lagos-in-gr-greece-id-652"},
{"name": "PORTO LEVANTE", "type": "\u041f\u043e\u0440\u0442", "size": "\u041c\u0430\u043b\u0435\u043d\u044c\u043a\u0438\u0439", "UN_LOCODE": "ITPVT", "country": "[IT] Italy", "longitude": 12.36565, "latitude": 45.05094, "link": "https://www.myshiptracking.com//ru/ports/port-of-porto-levante-in-it-italy-id-2753"},
{"name": "PORTO NOGARO", "type": "\u041f\u043e\u0440\u0442", "size": "\u0421\u0440\u0435\u0434\u043d\u0438\u0439", "UN_LOCODE": "ITPNG", "country": "[IT] Italy", "longitude": 13.23573, "latitude": 45.78719, "link": "https://www.myshiptracking.com//ru/ports/port-of-porto-nogaro-in-it-italy-id-2056"},
{"name": "PORTO PILA", "type": "\u041f\u043e\u0440\u0442", "size": "\u041c\u0430\u043b\u0435\u043d\u044c\u043a\u0438\u0439", "UN_LOCODE": "---", "country": "[IT] Italy", "longitude": 12.4752, "latitude": 44.98072, "link": "https://www.myshiptracking.com//ru/ports/port-of-porto-pila-in-it-italy-id-2759"},
{"name": "PORTO RAFTI", "type": "\u0413\u0430\u0432\u0430\u043d\u044c", "size": "\u041c\u0430\u043b\u0435\u043d\u044c\u043a\u0438\u0439", "UN_LOCODE": "---", "country": "[GR] Greece", "longitude": 24.0176, "latitude": 37.88969, "link": "https://www.myshiptracking.com//ru/ports/marina-of-porto-rafti-in-gr-greece-id-810"},
{"name": "PORTO SANTO STEFANO", "type": "\u041f\u043e\u0440\u0442", "size": "X\u041c\u0430\u043b\u044b\u0439", "UN_LOCODE": "ITPSS", "country": "[IT] Italy", "longitude": 11.12296, "latitude": 42.4364, "link": "https://www.myshiptracking.com//ru/ports/port-of-porto-santo-stefano-in-it-italy-id-2047"},
{"name": "PORTO SEGURO", "type": "\u041f\u043e\u0440\u0442", "size": "\u041c\u0430\u043b\u0435\u043d\u044c\u043a\u0438\u0439", "UN_LOCODE": "BRBPS", "country": "[BR] Brazil", "longitude": -39.06597, "latitude": -16.45462, "link": "https://www.myshiptracking.com//ru/ports/port-of-porto-seguro-in-br-brazil-id-6673"},
{"name": "PORTO TORRES", "type": "\u041f\u043e\u0440\u0442", "size": "\u0411\u043e\u043b\u044c\u0448\u043e\u0439", "UN_LOCODE": "ITPTO", "country": "[IT] Italy", "longitude": 8.38239, "latitude": 40.8459, "link": "https://www.myshiptracking.com//ru/ports/port-of-porto-torres-in-it-italy-id-346"},
{"name": "PORTO TROMBETAS", "type": "\u041f\u043e\u0440\u0442", "size": "\u0421\u0440\u0435\u0434\u043d\u0438\u0439", "UN_LOCODE": "BRBTB", "country": "[BR] Brazil", "longitude": -56.37682, "latitude": -1.45959, "link": "https://www.myshiptracking.com//ru/ports/port-of-porto-trombetas-in-br-brazil-id-6634"},
{"name": "PORTO TURISTICO DI ROMA", "type": "\u041f\u043e\u0440\u0442", "size": "X\u041c\u0430\u043b\u044b\u0439", "UN_LOCODE": "---", "country": "[IT] Italy", "longitude": 12.24583, "latitude": 41.73757, "link": "https://www.myshiptracking.com//ru/ports/port-of-porto-turistico-di-roma-in-it-italy-id-2009"},
{"name": "PORTO VECCHIO", "type": "\u041f\u043e\u0440\u0442", "size": "\u041c\u0430\u043b\u0435\u043d\u044c\u043a\u0438\u0439", "UN_LOCODE": "FRPTC", "country": "[FR] France", "longitude": 9.29282, "latitude": 41.58935, "link": "https://www.myshiptracking.com//ru/ports/port-of-porto-vecchio-in-fr-france-id-1819"},
{"name": "PORTO VELHO", "type": "\u041f\u043e\u0440\u0442", "size": "\u0411\u043e\u043b\u044c\u0448\u043e\u0439", "UN_LOCODE": "BRPVH", "country": "[BR] Brazil", "longitude": -63.91198, "latitude": -8.76483, "link": "https://www.myshiptracking.com//ru/ports/port-of-porto-velho-in-br-brazil-id-6660"},
{"name": "PORTO VENERE", "type": "\u041f\u043e\u0440\u0442", "size": "X\u041c\u0430\u043b\u044b\u0439", "UN_LOCODE": "ITPRW", "country": "[IT] Italy", "longitude": 9.83721, "latitude": 44.05127, "link": "https://www.myshiptracking.com//ru/ports/port-of-porto-venere-in-it-italy-id-2027"},
{"name": "PORTO VIRO", "type": "\u041f\u043e\u0440\u0442", "size": "\u0421\u0440\u0435\u0434\u043d\u0438\u0439", "UN_LOCODE": "ITPOQ", "country": "[IT] Italy", "longitude": 12.21351, "latitude": 45.01701, "link": "https://www.myshiptracking.com//ru/ports/port-of-porto-viro-in-it-italy-id-2765"},
{"name": "PORTOBELO", "type": "\u041f\u043e\u0440\u0442", "size": "\u041c\u0430\u043b\u0435\u043d\u044c\u043a\u0438\u0439", "UN_LOCODE": "PAPBE", "country": "[PA] Panama", "longitude": -79.65737, "latitude": 9.55629, "link": "https://www.myshiptracking.com//ru/ports/port-of-portobelo-in-pa-panama-id-6912"},
{"name": "PORTOCEL", "type": "\u041f\u043e\u0440\u0442", "size": "\u041c\u0430\u043b\u0435\u043d\u044c\u043a\u0438\u0439", "UN_LOCODE": "BRPCL", "country": "[BR] Brazil", "longitude": -40.05642, "latitude": -19.84647, "link": "https://www.myshiptracking.com//ru/ports/port-of-portocel-in-br-brazil-id-6670"},
{"name": "PORTOCHELI", "type": "\u041f\u043e\u0440\u0442", "size": "\u041c\u0430\u043b\u0435\u043d\u044c\u043a\u0438\u0439", "UN_LOCODE": "GRPHE", "country": "[GR] Greece", "longitude": 23.14647, "latitude": 37.31984, "link": "https://www.myshiptracking.com//ru/ports/port-of-portocheli-in-gr-greece-id-535"},
{"name": "PORTONOVO", "type": "\u041f\u043e\u0440\u0442", "size": "\u041c\u0430\u043b\u0435\u043d\u044c\u043a\u0438\u0439", "UN_LOCODE": "ESZJN", "country": "[ES] Spain", "longitude": -8.81934, "latitude": 42.39545, "link": "https://www.myshiptracking.com//ru/ports/port-of-portonovo-in-es-spain-id-1919"},
{"name": "PORTOPALO", "type": "\u041f\u043e\u0440\u0442", "size": "\u041c\u0430\u043b\u0435\u043d\u044c\u043a\u0438\u0439", "UN_LOCODE": "ITPPL", "country": "[IT] Italy", "longitude": 15.12361, "latitude": 36.67019, "link": "https://www.myshiptracking.com//ru/ports/port-of-portopalo-in-it-italy-id-2066"},
{"name": "PORTOSIN", "type": "\u041f\u043e\u0440\u0442", "size": "\u041c\u0430\u043b\u0435\u043d\u044c\u043a\u0438\u0439", "UN_LOCODE": "ESPRT", "country": "[ES] Spain", "longitude": -8.94686, "latitude": 42.76211, "link": "https://www.myshiptracking.com//ru/ports/port-of-portosin-in-es-spain-id-1854"},
{"name": "PORTOVESME", "type": "\u041f\u043e\u0440\u0442", "size": "\u041c\u0430\u043b\u0435\u043d\u044c\u043a\u0438\u0439", "UN_LOCODE": "ITPVE", "country": "[IT] Italy", "longitude": 8.3953, "latitude": 39.195, "link": "https://www.myshiptracking.com//ru/ports/port-of-portovesme-in-it-italy-id-2086"},
{"name": "PORTREATH", "type": "\u041f\u043e\u0440\u0442", "size": "X\u041c\u0430\u043b\u044b\u0439", "UN_LOCODE": "GBPRJ", "country": "[GB] United Kingdom", "longitude": -5.29267, "latitude": 50.26397, "link": "https://www.myshiptracking.com//ru/ports/port-of-portreath-in-gb-united-kingdom-id-1596"},
{"name": "PORTREE", "type": "\u0413\u0430\u0432\u0430\u043d\u044c", "size": "\u041c\u0430\u043b\u0435\u043d\u044c\u043a\u0438\u0439", "UN_LOCODE": "GBPRT", "country": "[GB] United Kingdom", "longitude": -6.18876, "latitude": 57.4101, "link": "https://www.myshiptracking.com//ru/ports/marina-of-portree-in-gb-united-kingdom-id-2343"},
{"name": "PORTRUSH", "type": "\u0413\u0430\u0432\u0430\u043d\u044c", "size": "\u041c\u0430\u043b\u0435\u043d\u044c\u043a\u0438\u0439", "UN_LOCODE": "GBPTR", "country": "[GB] United Kingdom", "longitude": -6.6578, "latitude": 55.2056, "link": "https://www.myshiptracking.com//ru/ports/marina-of-portrush-in-gb-united-kingdom-id-2362"},
{"name": "PORTSMOUTH", "type": "\u041f\u043e\u0440\u0442", "size": "\u0411\u043e\u043b\u044c\u0448\u043e\u0439", "UN_LOCODE": "GBPME", "country": "[GB] United Kingdom", "longitude": -1.10333, "latitude": 50.81248, "link": "https://www.myshiptracking.com//ru/ports/port-of-portsmouth-in-gb-united-kingdom-id-347"},
{"name": "PORTSMOUTH (NH)", "type": "\u041f\u043e\u0440\u0442", "size": "\u041c\u0430\u043b\u0435\u043d\u044c\u043a\u0438\u0439", "UN_LOCODE": "USPSM", "country": "[US] USA", "longitude": -70.75416, "latitude": 43.07931, "link": "https://www.myshiptracking.com//ru/ports/port-of-portsmouth-nh-in-us-usa-id-6257"},
{"name": "PORTSMOUTH ANCH", "type": "\u042f\u043a\u043e\u0440\u043d\u0430\u044f \u0441\u0442\u043e\u044f\u043d\u043a\u0430", "size": "\u041c\u0430\u043b\u0435\u043d\u044c\u043a\u0438\u0439", "UN_LOCODE": "---", "country": "[GB] United Kingdom", "longitude": -1.1131, "latitude": 50.76266, "link": "https://www.myshiptracking.com//ru/ports/anchorage-of-portsmouth-anch-in-gb-united-kingdom-id-2443"},
{"name": "PORTSOY", "type": "\u0413\u0430\u0432\u0430\u043d\u044c", "size": "\u041c\u0430\u043b\u0435\u043d\u044c\u043a\u0438\u0439", "UN_LOCODE": "GBPSY", "country": "[GB] United Kingdom", "longitude": -2.68858, "latitude": 57.68687, "link": "https://www.myshiptracking.com//ru/ports/marina-of-portsoy-in-gb-united-kingdom-id-2432"},
{"name": "PORVENIR", "type": "\u041f\u043e\u0440\u0442", "size": "\u0411\u043e\u043b\u044c\u0448\u043e\u0439", "UN_LOCODE": "CLWPR", "country": "[CL] Chile", "longitude": -70.42976, "latitude": -53.30363, "link": "https://www.myshiptracking.com//ru/ports/port-of-porvenir-in-cl-chile-id-6724"},
{"name": "PORVOO", "type": "\u041f\u043e\u0440\u0442", "size": "\u041c\u0430\u043b\u0435\u043d\u044c\u043a\u0438\u0439", "UN_LOCODE": "FIPRV", "country": "[FI] Finland", "longitude": 25.55657, "latitude": 60.30942, "link": "https://www.myshiptracking.com//ru/ports/port-of-porvoo-in-fi-finland-id-5614"},
{"name": "POSADAS", "type": "\u041f\u043e\u0440\u0442", "size": "\u0411\u043e\u043b\u044c\u0448\u043e\u0439", "UN_LOCODE": "ARPSS", "country": "[AR] Argentina", "longitude": -55.9091, "latitude": -27.35141, "link": "https://www.myshiptracking.com//ru/ports/port-of-posadas-in-ar-argentina-id-6812"},
{"name": "POSEIDONIO", "type": "\u0413\u0430\u0432\u0430\u043d\u044c", "size": "X\u041c\u0430\u043b\u044b\u0439", "UN_LOCODE": "---", "country": "[GR] Greece", "longitude": 27.05695, "latitude": 37.71236, "link": "https://www.myshiptracking.com//ru/ports/marina-of-poseidonio-in-gr-greece-id-563"},
{"name": "POSITANO", "type": "\u041f\u043e\u0440\u0442", "size": "\u041c\u0430\u043b\u0435\u043d\u044c\u043a\u0438\u0439", "UN_LOCODE": "ITPOS", "country": "[IT] Italy", "longitude": 14.48953, "latitude": 40.62573, "link": "https://www.myshiptracking.com//ru/ports/port-of-positano-in-it-italy-id-2758"},
{"name": "POSORJA", "type": "\u041f\u043e\u0440\u0442", "size": "\u0421\u0440\u0435\u0434\u043d\u0438\u0439", "UN_LOCODE": "ECPSJ", "country": "[EC] Ecuador", "longitude": -80.23976, "latitude": -2.70859, "link": "https://www.myshiptracking.com//ru/ports/port-of-posorja-in-ec-ecuador-id-7154"},
{"name": "POSYET", "type": "\u041f\u043e\u0440\u0442", "size": "\u0421\u0440\u0435\u0434\u043d\u0438\u0439", "UN_LOCODE": "RUPSE", "country": "[RU] Russia", "longitude": 130.801, "latitude": 42.648, "link": "https://www.myshiptracking.com//ru/ports/port-of-posyet-in-ru-russia-id-3013"},
{"name": "POTI", "type": "\u041f\u043e\u0440\u0442", "size": "\u041c\u0430\u043b\u0435\u043d\u044c\u043a\u0438\u0439", "UN_LOCODE": "GEPTI", "country": "[GE] Georgia", "longitude": 41.64948, "latitude": 42.15697, "link": "https://www.myshiptracking.com//ru/ports/port-of-poti-in-ge-georgia-id-3144"},
{"name": "POTO TANO", "type": "\u041f\u043e\u0440\u0442", "size": "\u041c\u0430\u043b\u0435\u043d\u044c\u043a\u0438\u0439", "UN_LOCODE": "IDPOT", "country": "[ID] Indonesia", "longitude": 116.83352, "latitude": -8.521, "link": "https://www.myshiptracking.com//ru/ports/port-of-poto-tano-in-id-indonesia-id-3780"},
{"name": "POTOS", "type": "\u0413\u0430\u0432\u0430\u043d\u044c", "size": "X\u041c\u0430\u043b\u044b\u0439", "UN_LOCODE": "---", "country": "[GR] Greece", "longitude": 24.60376, "latitude": 40.61031, "link": "https://www.myshiptracking.com//ru/ports/marina-of-potos-in-gr-greece-id-642"},
{"name": "POUGHKEEPSIE", "type": "\u041f\u043e\u0440\u0442", "size": "\u0421\u0440\u0435\u0434\u043d\u0438\u0439", "UN_LOCODE": "USPOU", "country": "[US] USA", "longitude": -73.94185, "latitude": 41.70817, "link": "https://www.myshiptracking.com//ru/ports/port-of-poughkeepsie-in-us-usa-id-5976"},
{"name": "POULSBO", "type": "\u041f\u043e\u0440\u0442", "size": "X\u041c\u0430\u043b\u044b\u0439", "UN_LOCODE": "USPUL", "country": "[US] USA", "longitude": -122.64845, "latitude": 47.73194, "link": "https://www.myshiptracking.com//ru/ports/port-of-poulsbo-in-us-usa-id-5982"},
{"name": "POUNDA", "type": "\u041f\u043e\u0440\u0442", "size": "\u041c\u0430\u043b\u0435\u043d\u044c\u043a\u0438\u0439", "UN_LOCODE": "---", "country": "[GR] Greece", "longitude": 22.97804, "latitude": 36.51974, "link": "https://www.myshiptracking.com//ru/ports/port-of-pounda-in-gr-greece-id-2260"},
{"name": "POUNTA", "type": "\u041f\u043e\u0440\u0442", "size": "X\u041c\u0430\u043b\u044b\u0439", "UN_LOCODE": "---", "country": "[GR] Greece", "longitude": 25.0994, "latitude": 37.0378, "link": "https://www.myshiptracking.com//ru/ports/port-of-pounta-in-gr-greece-id-453"},
{"name": "POVOA DE VARZIM", "type": "\u041f\u043e\u0440\u0442", "size": "\u041c\u0430\u043b\u0435\u043d\u044c\u043a\u0438\u0439", "UN_LOCODE": "PTPDV", "country": "[PT] Portugal", "longitude": -8.7655, "latitude": 41.3729, "link": "https://www.myshiptracking.com//ru/ports/port-of-povoa-de-varzim-in-pt-portugal-id-2737"},
{"name": "POWELL RIVER", "type": "\u041f\u043e\u0440\u0442", "size": "\u041c\u0430\u043b\u0435\u043d\u044c\u043a\u0438\u0439", "UN_LOCODE": "CAPOW", "country": "[CA] Canada", "longitude": -124.53185, "latitude": 49.83538, "link": "https://www.myshiptracking.com//ru/ports/port-of-powell-river-in-ca-canada-id-6450"},
{"name": "POZMTIYAB", "type": "\u041f\u043e\u0440\u0442", "size": "\u041c\u0430\u043b\u0435\u043d\u044c\u043a\u0438\u0439", "UN_LOCODE": "---", "country": "[IR] Iran", "longitude": 60.3005, "latitude": 25.3561, "link": "https://www.myshiptracking.com//ru/ports/port-of-pozmtiyab-in-ir-iran-id-3530"},
{"name": "POZZALLO", "type": "\u041f\u043e\u0440\u0442", "size": "\u041c\u0430\u043b\u0435\u043d\u044c\u043a\u0438\u0439", "UN_LOCODE": "ITPZL", "country": "[IT] Italy", "longitude": 14.8337, "latitude": 36.7123, "link": "https://www.myshiptracking.com//ru/ports/port-of-pozzallo-in-it-italy-id-348"},
{"name": "POZZUOLI", "type": "\u041f\u043e\u0440\u0442", "size": "\u041c\u0430\u043b\u0435\u043d\u044c\u043a\u0438\u0439", "UN_LOCODE": "ITPOZ", "country": "[IT] Italy", "longitude": 14.11412, "latitude": 40.82397, "link": "https://www.myshiptracking.com//ru/ports/port-of-pozzuoli-in-it-italy-id-2089"}]
