[{"name": "RUDKOBING", "type": "\u041f\u043e\u0440\u0442", "size": "\u041c\u0430\u043b\u0435\u043d\u044c\u043a\u0438\u0439", "UN_LOCODE": "DKRKB", "country": "[DK] Denmark", "longitude": 10.70291, "latitude": 54.93802, "link": "https://www.myshiptracking.com//ru/ports/port-of-rudkobing-in-dk-denmark-id-2641"},
{"name": "RUDNAYA PRISTAN", "type": "\u041f\u043e\u0440\u0442", "size": "\u041c\u0430\u043b\u0435\u043d\u044c\u043a\u0438\u0439", "UN_LOCODE": "RURDP", "country": "[RU] Russia", "longitude": 135.8415, "latitude": 44.3673, "link": "https://www.myshiptracking.com//ru/ports/port-of-rudnaya-pristan-in-ru-russia-id-3095"},
{"name": "RUFISQUE", "type": "\u041f\u043e\u0440\u0442", "size": "X\u041c\u0430\u043b\u044b\u0439", "UN_LOCODE": "---", "country": "[SN] Senegal", "longitude": -17.27989, "latitude": 14.71197, "link": "https://www.myshiptracking.com//ru/ports/port-of-rufisque-in-sn-senegal-id-3317"},
{"name": "RUHNU", "type": "\u041f\u043e\u0440\u0442", "size": "\u041c\u0430\u043b\u0435\u043d\u044c\u043a\u0438\u0439", "UN_LOCODE": "EERUH", "country": "[EE] Estonia", "longitude": 23.27099, "latitude": 57.7806, "link": "https://www.myshiptracking.com//ru/ports/port-of-ruhnu-in-ee-estonia-id-5672"},
{"name": "RUI AN", "type": "\u041f\u043e\u0440\u0442", "size": "\u0411\u043e\u043b\u044c\u0448\u043e\u0439", "UN_LOCODE": "CNRIA", "country": "[CN] China", "longitude": 120.63032, "latitude": 27.76116, "link": "https://www.myshiptracking.com//ru/ports/port-of-rui-an-in-cn-china-id-4165"},
{"name": "RUITERPLAAT", "type": "\u0413\u0430\u0432\u0430\u043d\u044c", "size": "X\u041c\u0430\u043b\u044b\u0439", "UN_LOCODE": "---", "country": "[NL] Netherlands", "longitude": 3.66147, "latitude": 51.56751, "link": "https://www.myshiptracking.com//ru/ports/marina-of-ruiterplaat-in-nl-netherlands-id-922"},
{"name": "RUMELI FENERI", "type": "\u041f\u043e\u0440\u0442", "size": "X\u041c\u0430\u043b\u044b\u0439", "UN_LOCODE": "---", "country": "[TR] Turkey", "longitude": 29.11314, "latitude": 41.23135, "link": "https://www.myshiptracking.com//ru/ports/port-of-rumeli-feneri-in-tr-turkey-id-3105"},
{"name": "RUMOI", "type": "\u041f\u043e\u0440\u0442", "size": "\u0411\u043e\u043b\u044c\u0448\u043e\u0439", "UN_LOCODE": "JPRMI", "country": "[JP] Japan", "longitude": 141.63527, "latitude": 43.96198, "link": "https://www.myshiptracking.com//ru/ports/port-of-rumoi-in-jp-japan-id-4236"},
{"name": "RUNAVIK", "type": "\u041f\u043e\u0440\u0442", "size": "\u041c\u0430\u043b\u0435\u043d\u044c\u043a\u0438\u0439", "UN_LOCODE": "FORVK", "country": "[FO] Faroe Is", "longitude": -6.72736, "latitude": 62.11427, "link": "https://www.myshiptracking.com//ru/ports/port-of-runavik-in-fo-faroe-is-id-5697"},
{"name": "RUNCORN", "type": "\u041f\u043e\u0440\u0442", "size": "\u0421\u0440\u0435\u0434\u043d\u0438\u0439", "UN_LOCODE": "GBRUN", "country": "[GB] United Kingdom", "longitude": -2.75412, "latitude": 53.31963, "link": "https://www.myshiptracking.com//ru/ports/port-of-runcorn-in-gb-united-kingdom-id-1619"},
{"name": "RUPELMONDE", "type": "\u041f\u043e\u0440\u0442", "size": "\u041c\u0430\u043b\u0435\u043d\u044c\u043a\u0438\u0439", "UN_LOCODE": "BERPM", "country": "[BE] Belgium", "longitude": 4.28856, "latitude": 51.12466, "link": "https://www.myshiptracking.com//ru/ports/port-of-rupelmonde-in-be-belgium-id-2525"},
{"name": "RUSE", "type": "\u041f\u043e\u0440\u0442", "size": "\u0411\u043e\u043b\u044c\u0448\u043e\u0439", "UN_LOCODE": "BGRDU", "country": "[BG] Bulgaria", "longitude": 25.9428, "latitude": 43.84698, "link": "https://www.myshiptracking.com//ru/ports/port-of-ruse-in-bg-bulgaria-id-2901"},
{"name": "RUSSEL ISLAND", "type": "\u041f\u043e\u0440\u0442", "size": "X\u041c\u0430\u043b\u044b\u0439", "UN_LOCODE": "---", "country": "[AU] Australia", "longitude": 153.38181, "latitude": -27.64528, "link": "https://www.myshiptracking.com//ru/ports/port-of-russel-island-in-au-australia-id-3943"},
{"name": "RUSSELL", "type": "\u041f\u043e\u0440\u0442", "size": "\u041c\u0430\u043b\u0435\u043d\u044c\u043a\u0438\u0439", "UN_LOCODE": "NZRUS", "country": "[NZ] New Zealand", "longitude": 174.11913, "latitude": -35.26126, "link": "https://www.myshiptracking.com//ru/ports/port-of-russell-in-nz-new-zealand-id-4038"},
{"name": "RUWAIS", "type": "\u041f\u043e\u0440\u0442", "size": "\u0411\u043e\u043b\u044c\u0448\u043e\u0439", "UN_LOCODE": "AERUW", "country": "[AE] UAE", "longitude": 52.72832, "latitude": 24.16364, "link": "https://www.myshiptracking.com//ru/ports/port-of-ruwais-in-ae-uae-id-3513"},
{"name": "RYBINSK", "type": "\u041f\u043e\u0440\u0442", "size": "X\u0411\u043e\u043b\u044c\u0449\u043e\u0439", "UN_LOCODE": "RURYB", "country": "[RU] Russia", "longitude": 38.77592, "latitude": 58.0743, "link": "https://www.myshiptracking.com//ru/ports/port-of-rybinsk-in-ru-russia-id-3003"},
{"name": "RYDE", "type": "\u041f\u043e\u0440\u0442", "size": "\u041c\u0430\u043b\u0435\u043d\u044c\u043a\u0438\u0439", "UN_LOCODE": "GBRYD", "country": "[GB] United Kingdom", "longitude": -1.1582, "latitude": 50.73641, "link": "https://www.myshiptracking.com//ru/ports/port-of-ryde-in-gb-united-kingdom-id-1629"},
{"name": "RYE", "type": "\u041f\u043e\u0440\u0442", "size": "\u0421\u0440\u0435\u0434\u043d\u0438\u0439", "UN_LOCODE": "GBRYE", "country": "[GB] United Kingdom", "longitude": 0.74041, "latitude": 50.94939, "link": "https://www.myshiptracking.com//ru/ports/port-of-rye-in-gb-united-kingdom-id-1539"},
{"name": "RYOHSHIDA", "type": "\u041f\u043e\u0440\u0442", "size": "\u041c\u0430\u043b\u0435\u043d\u044c\u043a\u0438\u0439", "UN_LOCODE": "JPRYS", "country": "[JP] Japan", "longitude": 132.504, "latitude": 34.1403, "link": "https://www.myshiptracking.com//ru/ports/port-of-ryohshida-in-jp-japan-id-4895"},
{"name": "RYOTSU", "type": "\u041f\u043e\u0440\u0442", "size": "\u0411\u043e\u043b\u044c\u0448\u043e\u0439", "UN_LOCODE": "JPRYO", "country": "[JP] Japan", "longitude": 138.44375, "latitude": 38.07993, "link": "https://www.myshiptracking.com//ru/ports/port-of-ryotsu-in-jp-japan-id-4432"},
{"name": "RYPEFJORD", "type": "\u041f\u043e\u0440\u0442", "size": "\u0411\u043e\u043b\u044c\u0448\u043e\u0439", "UN_LOCODE": "NORYF", "country": "[NO] Norway", "longitude": 23.64388, "latitude": 70.63496, "link": "https://www.myshiptracking.com//ru/ports/port-of-rypefjord-in-no-norway-id-5108"},
{"name": "S GRAVENDEEL", "type": "\u041f\u043e\u0440\u0442", "size": "\u041c\u0430\u043b\u0435\u043d\u044c\u043a\u0438\u0439", "UN_LOCODE": "NLGRA", "country": "[NL] Netherlands", "longitude": 4.62145, "latitude": 51.79066, "link": "https://www.myshiptracking.com//ru/ports/port-of-s-gravendeel-in-nl-netherlands-id-1181"},
{"name": "S'ARENAL", "type": "\u041f\u043e\u0440\u0442", "size": "X\u041c\u0430\u043b\u044b\u0439", "UN_LOCODE": "---", "country": "[ES] Spain", "longitude": 2.7484, "latitude": 39.5009, "link": "https://www.myshiptracking.com//ru/ports/port-of-sarenal-in-es-spain-id-1944"},
{"name": "S-HERTOGENBOSCH", "type": "\u041f\u043e\u0440\u0442", "size": "\u0411\u043e\u043b\u044c\u0448\u043e\u0439", "UN_LOCODE": "NLHTB", "country": "[NL] Netherlands", "longitude": 5.30313, "latitude": 51.69788, "link": "https://www.myshiptracking.com//ru/ports/port-of-s-hertogenbosch-in-nl-netherlands-id-1219"},
{"name": "SAAREMAA", "type": "\u041f\u043e\u0440\u0442", "size": "X\u041c\u0430\u043b\u044b\u0439", "UN_LOCODE": "EESMA", "country": "[EE] Estonia", "longitude": 22.23761, "latitude": 58.53529, "link": "https://www.myshiptracking.com//ru/ports/port-of-saaremaa-in-ee-estonia-id-5640"},
{"name": "SABANCUY", "type": "\u041f\u043e\u0440\u0442", "size": "\u041c\u0430\u043b\u0435\u043d\u044c\u043a\u0438\u0439", "UN_LOCODE": "---", "country": "[MX] Mexico", "longitude": -91.18231, "latitude": 18.97488, "link": "https://www.myshiptracking.com//ru/ports/port-of-sabancuy-in-mx-mexico-id-6573"},
{"name": "SABANG", "type": "\u041f\u043e\u0440\u0442", "size": "\u0421\u0440\u0435\u0434\u043d\u0438\u0439", "UN_LOCODE": "IDSBG", "country": "[ID] Indonesia", "longitude": 95.3185, "latitude": 5.8855, "link": "https://www.myshiptracking.com//ru/ports/port-of-sabang-in-id-indonesia-id-3691"},
{"name": "SABANG", "type": "\u041f\u043e\u0440\u0442", "size": "\u041c\u0430\u043b\u0435\u043d\u044c\u043a\u0438\u0439", "UN_LOCODE": "---", "country": "[PH] Philippines", "longitude": 120.97599, "latitude": 13.5216, "link": "https://www.myshiptracking.com//ru/ports/port-of-sabang-in-ph-philippines-id-5447"},
{"name": "SABBATIKI", "type": "\u0413\u0430\u0432\u0430\u043d\u044c", "size": "X\u041c\u0430\u043b\u044b\u0439", "UN_LOCODE": "---", "country": "[GR] Greece", "longitude": 22.90758, "latitude": 37.1879, "link": "https://www.myshiptracking.com//ru/ports/marina-of-sabbatiki-in-gr-greece-id-475"},
{"name": "SABETTA", "type": "\u041f\u043e\u0440\u0442", "size": "\u0421\u0440\u0435\u0434\u043d\u0438\u0439", "UN_LOCODE": "---", "country": "[RU] Russia", "longitude": 72.07372, "latitude": 71.28124, "link": "https://www.myshiptracking.com//ru/ports/port-of-sabetta-in-ru-russia-id-2988"},
{"name": "SABINE PASS", "type": "\u041f\u043e\u0440\u0442", "size": "X\u0411\u043e\u043b\u044c\u0449\u043e\u0439", "UN_LOCODE": "USSAB", "country": "[US] USA", "longitude": -93.89223, "latitude": 29.75397, "link": "https://www.myshiptracking.com//ru/ports/port-of-sabine-pass-in-us-usa-id-5978"},
{"name": "SABOGA", "type": "\u041f\u043e\u0440\u0442", "size": "\u041c\u0430\u043b\u0435\u043d\u044c\u043a\u0438\u0439", "UN_LOCODE": "---", "country": "[PA] Panama", "longitude": -79.06984, "latitude": 8.62882, "link": "https://www.myshiptracking.com//ru/ports/port-of-saboga-in-pa-panama-id-6908"},
{"name": "SACO", "type": "\u041f\u043e\u0440\u0442", "size": "\u041c\u0430\u043b\u0435\u043d\u044c\u043a\u0438\u0439", "UN_LOCODE": "AOPSA", "country": "[AO] Angola", "longitude": 12.13679, "latitude": -15.1287, "link": "https://www.myshiptracking.com//ru/ports/port-of-saco-in-ao-angola-id-3372"},
{"name": "SACRAMENTO", "type": "\u041f\u043e\u0440\u0442", "size": "\u0411\u043e\u043b\u044c\u0448\u043e\u0439", "UN_LOCODE": "USSAC", "country": "[US] USA", "longitude": -121.51452, "latitude": 38.57267, "link": "https://www.myshiptracking.com//ru/ports/port-of-sacramento-in-us-usa-id-6232"},
{"name": "SAEKI", "type": "\u041f\u043e\u0440\u0442", "size": "\u0421\u0440\u0435\u0434\u043d\u0438\u0439", "UN_LOCODE": "JPSAE", "country": "[JP] Japan", "longitude": 131.90905, "latitude": 32.9783, "link": "https://www.myshiptracking.com//ru/ports/port-of-saeki-in-jp-japan-id-4797"},
{"name": "SAELVIG", "type": "\u041f\u043e\u0440\u0442", "size": "X\u041c\u0430\u043b\u044b\u0439", "UN_LOCODE": "DKSLV", "country": "[DK] Denmark", "longitude": 10.54947, "latitude": 55.86523, "link": "https://www.myshiptracking.com//ru/ports/port-of-saelvig-in-dk-denmark-id-2600"},
{"name": "SAFAGA", "type": "\u041f\u043e\u0440\u0442", "size": "\u041c\u0430\u043b\u0435\u043d\u044c\u043a\u0438\u0439", "UN_LOCODE": "EGSGA", "country": "[EG] Egypt", "longitude": 33.94931, "latitude": 26.74223, "link": "https://www.myshiptracking.com//ru/ports/port-of-safaga-in-eg-egypt-id-3180"},
{"name": "SAFI", "type": "\u041f\u043e\u0440\u0442", "size": "\u041c\u0430\u043b\u0435\u043d\u044c\u043a\u0438\u0439", "UN_LOCODE": "MASFI", "country": "[MA] Morocco", "longitude": -9.25087, "latitude": 32.31068, "link": "https://www.myshiptracking.com//ru/ports/port-of-safi-in-ma-morocco-id-3309"},
{"name": "SAGA", "type": "\u041f\u043e\u0440\u0442", "size": "\u0421\u0440\u0435\u0434\u043d\u0438\u0439", "UN_LOCODE": "JPHSG", "country": "[JP] Japan", "longitude": 133.11037, "latitude": 33.07082, "link": "https://www.myshiptracking.com//ru/ports/port-of-saga-in-jp-japan-id-4349"},
{"name": "SAGANOSEKI", "type": "\u041f\u043e\u0440\u0442", "size": "\u0421\u0440\u0435\u0434\u043d\u0438\u0439", "UN_LOCODE": "JPSAG", "country": "[JP] Japan", "longitude": 131.8676, "latitude": 33.25119, "link": "https://www.myshiptracking.com//ru/ports/port-of-saganoseki-in-jp-japan-id-4514"},
{"name": "SAGARA", "type": "\u041f\u043e\u0440\u0442", "size": "X\u041c\u0430\u043b\u044b\u0439", "UN_LOCODE": "JPSGR", "country": "[JP] Japan", "longitude": 138.2089, "latitude": 34.6861, "link": "https://www.myshiptracking.com//ru/ports/port-of-sagara-in-jp-japan-id-4541"},
{"name": "SAGARAHIRATA", "type": "\u041f\u043e\u0440\u0442", "size": "X\u041c\u0430\u043b\u044b\u0439", "UN_LOCODE": "---", "country": "[JP] Japan", "longitude": 138.21517, "latitude": 34.70086, "link": "https://www.myshiptracking.com//ru/ports/port-of-sagarahirata-in-jp-japan-id-4960"},
{"name": "SAGATA", "type": "\u041f\u043e\u0440\u0442", "size": "X\u041c\u0430\u043b\u044b\u0439", "UN_LOCODE": "---", "country": "[JP] Japan", "longitude": 130.18566, "latitude": 31.99441, "link": "https://www.myshiptracking.com//ru/ports/port-of-sagata-in-jp-japan-id-4877"},
{"name": "SAGIADA", "type": "\u0413\u0430\u0432\u0430\u043d\u044c", "size": "X\u041c\u0430\u043b\u044b\u0439", "UN_LOCODE": "GRSGT", "country": "[GR] Greece", "longitude": 20.17963, "latitude": 39.62516, "link": "https://www.myshiptracking.com//ru/ports/marina-of-sagiada-in-gr-greece-id-610"},
{"name": "SAGIURA", "type": "\u041f\u043e\u0440\u0442", "size": "\u041c\u0430\u043b\u0435\u043d\u044c\u043a\u0438\u0439", "UN_LOCODE": "---", "country": "[JP] Japan", "longitude": 132.6854, "latitude": 35.4431, "link": "https://www.myshiptracking.com//ru/ports/port-of-sagiura-in-jp-japan-id-4722"},
{"name": "SAGOSHI", "type": "\u041f\u043e\u0440\u0442", "size": "\u041c\u0430\u043b\u0435\u043d\u044c\u043a\u0438\u0439", "UN_LOCODE": "---", "country": "[JP] Japan", "longitude": 134.44894, "latitude": 34.76506, "link": "https://www.myshiptracking.com//ru/ports/port-of-sagoshi-in-jp-japan-id-4548"},
{"name": "SAGUENAY", "type": "\u041f\u043e\u0440\u0442", "size": "\u0421\u0440\u0435\u0434\u043d\u0438\u0439", "UN_LOCODE": "CASAG", "country": "[CA] Canada", "longitude": -71.05943, "latitude": 48.43139, "link": "https://www.myshiptracking.com//ru/ports/port-of-saguenay-in-ca-canada-id-6503"},
{"name": "SAGUNTO", "type": "\u041f\u043e\u0440\u0442", "size": "\u0421\u0440\u0435\u0434\u043d\u0438\u0439", "UN_LOCODE": "ESSAG", "country": "[ES] Spain", "longitude": -0.20937, "latitude": 39.6406, "link": "https://www.myshiptracking.com//ru/ports/port-of-sagunto-in-es-spain-id-362"},
{"name": "SAGVAG", "type": "\u041f\u043e\u0440\u0442", "size": "\u041c\u0430\u043b\u0435\u043d\u044c\u043a\u0438\u0439", "UN_LOCODE": "---", "country": "[NO] Norway", "longitude": 5.38251, "latitude": 59.77364, "link": "https://www.myshiptracking.com//ru/ports/port-of-sagvag-in-no-norway-id-5062"},
{"name": "SAI", "type": "\u041f\u043e\u0440\u0442", "size": "\u041c\u0430\u043b\u0435\u043d\u044c\u043a\u0438\u0439", "UN_LOCODE": "JPSJA", "country": "[JP] Japan", "longitude": 140.86164, "latitude": 41.4359, "link": "https://www.myshiptracking.com//ru/ports/port-of-sai-in-jp-japan-id-4413"}]
