[{"name": "SINCHEON", "type": "\u041f\u043e\u0440\u0442", "size": "X\u041c\u0430\u043b\u044b\u0439", "UN_LOCODE": "---", "country": "[KR] Korea", "longitude": 126.85757, "latitude": 33.34156, "link": "https://www.myshiptracking.com//ru/ports/port-of-sincheon-in-kr-korea-id-5508"},
{"name": "SINES", "type": "\u041f\u043e\u0440\u0442", "size": "\u0411\u043e\u043b\u044c\u0448\u043e\u0439", "UN_LOCODE": "PTSIE", "country": "[PT] Portugal", "longitude": -8.86639, "latitude": 37.9439, "link": "https://www.myshiptracking.com//ru/ports/port-of-sines-in-pt-portugal-id-2731"},
{"name": "SINGAPORE", "type": "\u041f\u043e\u0440\u0442", "size": "X\u0411\u043e\u043b\u044c\u0449\u043e\u0439", "UN_LOCODE": "SGSIN", "country": "[SG] Singapore", "longitude": 103.85457, "latitude": 1.2576, "link": "https://www.myshiptracking.com//ru/ports/port-of-singapore-in-sg-singapore-id-386"},
{"name": "SINOP", "type": "\u041f\u043e\u0440\u0442", "size": "\u0421\u0440\u0435\u0434\u043d\u0438\u0439", "UN_LOCODE": "TRSIC", "country": "[TR] Turkey", "longitude": 35.14159, "latitude": 42.02243, "link": "https://www.myshiptracking.com//ru/ports/port-of-sinop-in-tr-turkey-id-3127"},
{"name": "SINPO", "type": "\u041f\u043e\u0440\u0442", "size": "\u041c\u0430\u043b\u0435\u043d\u044c\u043a\u0438\u0439", "UN_LOCODE": "KPSIN", "country": "[KP] DPR Korea", "longitude": 128.17342, "latitude": 40.02371, "link": "https://www.myshiptracking.com//ru/ports/port-of-sinpo-in-kp-dpr-korea-id-5895"},
{"name": "SINSUAN-GIL", "type": "\u041f\u043e\u0440\u0442", "size": "X\u041c\u0430\u043b\u044b\u0439", "UN_LOCODE": "---", "country": "[KR] Korea", "longitude": 128.07288, "latitude": 34.90252, "link": "https://www.myshiptracking.com//ru/ports/port-of-sinsuan-gil-in-kr-korea-id-5496"},
{"name": "SINT AMANDS", "type": "\u041f\u043e\u0440\u0442", "size": "X\u041c\u0430\u043b\u044b\u0439", "UN_LOCODE": "BESAS", "country": "[BE] Belgium", "longitude": 4.20001, "latitude": 51.05549, "link": "https://www.myshiptracking.com//ru/ports/port-of-sint-amands-in-be-belgium-id-2527"},
{"name": "SINT ANNALAND", "type": "\u041f\u043e\u0440\u0442", "size": "X\u041c\u0430\u043b\u044b\u0439", "UN_LOCODE": "NLSNN", "country": "[NL] Netherlands", "longitude": 4.10682, "latitude": 51.60472, "link": "https://www.myshiptracking.com//ru/ports/port-of-sint-annaland-in-nl-netherlands-id-866"},
{"name": "SINT JOZEF OLEN", "type": "\u041f\u043e\u0440\u0442", "size": "\u041c\u0430\u043b\u0435\u043d\u044c\u043a\u0438\u0439", "UN_LOCODE": "BESJO", "country": "[BE] Belgium", "longitude": 4.88372, "latitude": 51.18319, "link": "https://www.myshiptracking.com//ru/ports/port-of-sint-jozef-olen-in-be-belgium-id-2524"},
{"name": "SINT LENAARTS", "type": "\u041f\u043e\u0440\u0442", "size": "X\u041c\u0430\u043b\u044b\u0439", "UN_LOCODE": "BESLN", "country": "[BE] Belgium", "longitude": 4.67996, "latitude": 51.34378, "link": "https://www.myshiptracking.com//ru/ports/port-of-sint-lenaarts-in-be-belgium-id-2548"},
{"name": "SINT NICOLAASGA", "type": "\u0413\u0430\u0432\u0430\u043d\u044c", "size": "\u041c\u0430\u043b\u0435\u043d\u044c\u043a\u0438\u0439", "UN_LOCODE": "NLSNG", "country": "[NL] Netherlands", "longitude": 5.75051, "latitude": 52.91191, "link": "https://www.myshiptracking.com//ru/ports/marina-of-sint-nicolaasga-in-nl-netherlands-id-1250"},
{"name": "SINT PHILIPSLAND", "type": "\u041f\u043e\u0440\u0442", "size": "\u041c\u0430\u043b\u0435\u043d\u044c\u043a\u0438\u0439", "UN_LOCODE": "NLPLP", "country": "[NL] Netherlands", "longitude": 4.17002, "latitude": 51.61506, "link": "https://www.myshiptracking.com//ru/ports/port-of-sint-philipsland-in-nl-netherlands-id-1036"},
{"name": "SINT-JOB-IN-'T-GOOR", "type": "\u041f\u043e\u0440\u0442", "size": "X\u041c\u0430\u043b\u044b\u0439", "UN_LOCODE": "BESJG", "country": "[BE] Belgium", "longitude": 4.5665, "latitude": 51.30074, "link": "https://www.myshiptracking.com//ru/ports/port-of-sint-job-in-t-goor-in-be-belgium-id-2535"},
{"name": "SINTETE", "type": "\u041f\u043e\u0440\u0442", "size": "X\u041c\u0430\u043b\u044b\u0439", "UN_LOCODE": "---", "country": "[ID] Indonesia", "longitude": 109.05446, "latitude": 1.19857, "link": "https://www.myshiptracking.com//ru/ports/port-of-sintete-in-id-indonesia-id-3744"},
{"name": "SINYANG", "type": "\u041f\u043e\u0440\u0442", "size": "\u041c\u0430\u043b\u0435\u043d\u044c\u043a\u0438\u0439", "UN_LOCODE": "---", "country": "[KR] Korea", "longitude": 126.9205, "latitude": 33.4311, "link": "https://www.myshiptracking.com//ru/ports/port-of-sinyang-in-kr-korea-id-5517"},
{"name": "SIR BANIYAS", "type": "\u041f\u043e\u0440\u0442", "size": "\u0411\u043e\u043b\u044c\u0448\u043e\u0439", "UN_LOCODE": "---", "country": "[AE] UAE", "longitude": 52.60911, "latitude": 24.26735, "link": "https://www.myshiptracking.com//ru/ports/port-of-sir-baniyas-in-ae-uae-id-3503"},
{"name": "SIRACHA", "type": "\u041f\u043e\u0440\u0442", "size": "X\u0411\u043e\u043b\u044c\u0449\u043e\u0439", "UN_LOCODE": "THSRI", "country": "[TH] Thailand", "longitude": 100.8851, "latitude": 13.14313, "link": "https://www.myshiptracking.com//ru/ports/port-of-siracha-in-th-thailand-id-3680"},
{"name": "SIRACUSA", "type": "\u041f\u043e\u0440\u0442", "size": "\u041c\u0430\u043b\u0435\u043d\u044c\u043a\u0438\u0439", "UN_LOCODE": "ITSIR", "country": "[IT] Italy", "longitude": 15.28796, "latitude": 37.06242, "link": "https://www.myshiptracking.com//ru/ports/port-of-siracusa-in-it-italy-id-2022"},
{"name": "SIREVAG", "type": "\u041f\u043e\u0440\u0442", "size": "\u041c\u0430\u043b\u0435\u043d\u044c\u043a\u0438\u0439", "UN_LOCODE": "NOSRV", "country": "[NO] Norway", "longitude": 5.7883, "latitude": 58.5055, "link": "https://www.myshiptracking.com//ru/ports/port-of-sirevag-in-no-norway-id-5329"},
{"name": "SIRIK", "type": "\u041f\u043e\u0440\u0442", "size": "\u041c\u0430\u043b\u0435\u043d\u044c\u043a\u0438\u0439", "UN_LOCODE": "---", "country": "[IR] Iran", "longitude": 57.07514, "latitude": 26.5262, "link": "https://www.myshiptracking.com//ru/ports/port-of-sirik-in-ir-iran-id-3541"},
{"name": "SIRMIONE", "type": "\u041f\u043e\u0440\u0442", "size": "\u041c\u0430\u043b\u0435\u043d\u044c\u043a\u0438\u0439", "UN_LOCODE": "ITZTI", "country": "[IT] Italy", "longitude": 10.61033, "latitude": 45.49123, "link": "https://www.myshiptracking.com//ru/ports/port-of-sirmione-in-it-italy-id-2743"},
{"name": "SIRRI", "type": "\u041f\u043e\u0440\u0442", "size": "X\u041c\u0430\u043b\u044b\u0439", "UN_LOCODE": "IRSXI", "country": "[IR] Iran", "longitude": 54.55246, "latitude": 25.89406, "link": "https://www.myshiptracking.com//ru/ports/port-of-sirri-in-ir-iran-id-3551"},
{"name": "SIRTE", "type": "\u041f\u043e\u0440\u0442", "size": "\u041c\u0430\u043b\u0435\u043d\u044c\u043a\u0438\u0439", "UN_LOCODE": "LYSRT", "country": "[LY] Libya", "longitude": 16.63225, "latitude": 31.21358, "link": "https://www.myshiptracking.com//ru/ports/port-of-sirte-in-ly-libya-id-3191"},
{"name": "SISAL", "type": "\u041f\u043e\u0440\u0442", "size": "\u041c\u0430\u043b\u0435\u043d\u044c\u043a\u0438\u0439", "UN_LOCODE": "---", "country": "[MX] Mexico", "longitude": -90.04831, "latitude": 21.16105, "link": "https://www.myshiptracking.com//ru/ports/port-of-sisal-in-mx-mexico-id-6601"},
{"name": "SISIMIUT", "type": "\u041f\u043e\u0440\u0442", "size": "X\u041c\u0430\u043b\u044b\u0439", "UN_LOCODE": "GLJHS", "country": "[GL] Greenland", "longitude": -53.67065, "latitude": 66.94258, "link": "https://www.myshiptracking.com//ru/ports/port-of-sisimiut-in-gl-greenland-id-5892"},
{"name": "SITGES", "type": "\u041f\u043e\u0440\u0442", "size": "X\u041c\u0430\u043b\u044b\u0439", "UN_LOCODE": "ESSIT", "country": "[ES] Spain", "longitude": 1.82361, "latitude": 41.23286, "link": "https://www.myshiptracking.com//ru/ports/port-of-sitges-in-es-spain-id-1875"},
{"name": "SITIA", "type": "\u041f\u043e\u0440\u0442", "size": "\u041c\u0430\u043b\u0435\u043d\u044c\u043a\u0438\u0439", "UN_LOCODE": "GRJSH", "country": "[GR] Greece", "longitude": 26.1129, "latitude": 35.209, "link": "https://www.myshiptracking.com//ru/ports/port-of-sitia-in-gr-greece-id-519"},
{"name": "SITKA", "type": "\u041f\u043e\u0440\u0442", "size": "\u0411\u043e\u043b\u044c\u0448\u043e\u0439", "UN_LOCODE": "USSIT", "country": "[US] USA", "longitude": -135.3322, "latitude": 57.04549, "link": "https://www.myshiptracking.com//ru/ports/port-of-sitka-in-us-usa-id-6069"},
{"name": "SITRAH", "type": "\u041f\u043e\u0440\u0442", "size": "\u0411\u043e\u043b\u044c\u0448\u043e\u0439", "UN_LOCODE": "BHSIT", "country": "[BH] Bahrain", "longitude": 50.6627, "latitude": 26.16541, "link": "https://www.myshiptracking.com//ru/ports/port-of-sitrah-in-bh-bahrain-id-5900"},
{"name": "SJAELLANDS ODDE", "type": "\u041f\u043e\u0440\u0442", "size": "\u041c\u0430\u043b\u0435\u043d\u044c\u043a\u0438\u0439", "UN_LOCODE": "DKSJO", "country": "[DK] Denmark", "longitude": 11.29931, "latitude": 55.97294, "link": "https://www.myshiptracking.com//ru/ports/port-of-sjaellands-odde-in-dk-denmark-id-2613"},
{"name": "SJOHOLT", "type": "\u041f\u043e\u0440\u0442", "size": "\u041c\u0430\u043b\u0435\u043d\u044c\u043a\u0438\u0439", "UN_LOCODE": "NOSJO", "country": "[NO] Norway", "longitude": 6.80612, "latitude": 62.47967, "link": "https://www.myshiptracking.com//ru/ports/port-of-sjoholt-in-no-norway-id-5249"},
{"name": "SKADOVSK", "type": "\u041f\u043e\u0440\u0442", "size": "\u041c\u0430\u043b\u0435\u043d\u044c\u043a\u0438\u0439", "UN_LOCODE": "UASKD", "country": "[UA] Ukraine", "longitude": 32.90907, "latitude": 46.10329, "link": "https://www.myshiptracking.com//ru/ports/port-of-skadovsk-in-ua-ukraine-id-2956"},
{"name": "SKAERBAEK DOCK", "type": "\u041f\u043e\u0440\u0442", "size": "\u041c\u0430\u043b\u0435\u043d\u044c\u043a\u0438\u0439", "UN_LOCODE": "---", "country": "[DK] Denmark", "longitude": 9.6146, "latitude": 55.51014, "link": "https://www.myshiptracking.com//ru/ports/port-of-skaerbaek-dock-in-dk-denmark-id-2592"},
{"name": "SKAGASTROND", "type": "\u041f\u043e\u0440\u0442", "size": "\u041c\u0430\u043b\u0435\u043d\u044c\u043a\u0438\u0439", "UN_LOCODE": "ISSKA", "country": "[IS] Iceland", "longitude": -20.31391, "latitude": 65.82383, "link": "https://www.myshiptracking.com//ru/ports/port-of-skagastrond-in-is-iceland-id-5578"},
{"name": "SKAGEN", "type": "\u041f\u043e\u0440\u0442", "size": "\u041c\u0430\u043b\u0435\u043d\u044c\u043a\u0438\u0439", "UN_LOCODE": "DKSKA", "country": "[DK] Denmark", "longitude": 10.59593, "latitude": 57.71334, "link": "https://www.myshiptracking.com//ru/ports/port-of-skagen-in-dk-denmark-id-2623"},
{"name": "SKAGWAY", "type": "\u041f\u043e\u0440\u0442", "size": "\u041c\u0430\u043b\u0435\u043d\u044c\u043a\u0438\u0439", "UN_LOCODE": "USSGY", "country": "[US] USA", "longitude": -135.32974, "latitude": 59.44826, "link": "https://www.myshiptracking.com//ru/ports/port-of-skagway-in-us-usa-id-6006"},
{"name": "SKALA AGKISTRI", "type": "\u0413\u0430\u0432\u0430\u043d\u044c", "size": "X\u041c\u0430\u043b\u044b\u0439", "UN_LOCODE": "---", "country": "[GR] Greece", "longitude": 23.36807, "latitude": 37.70866, "link": "https://www.myshiptracking.com//ru/ports/marina-of-skala-agkistri-in-gr-greece-id-769"},
{"name": "SKALA ATALANTIS", "type": "\u0413\u0430\u0432\u0430\u043d\u044c", "size": "X\u041c\u0430\u043b\u044b\u0439", "UN_LOCODE": "---", "country": "[GR] Greece", "longitude": 23.07581, "latitude": 38.67143, "link": "https://www.myshiptracking.com//ru/ports/marina-of-skala-atalantis-in-gr-greece-id-706"},
{"name": "SKALA ERESOU", "type": "\u0413\u0430\u0432\u0430\u043d\u044c", "size": "X\u041c\u0430\u043b\u044b\u0439", "UN_LOCODE": "---", "country": "[GR] Greece", "longitude": 25.93476, "latitude": 39.13132, "link": "https://www.myshiptracking.com//ru/ports/marina-of-skala-eresou-in-gr-greece-id-620"},
{"name": "SKALA KALLIRACHIS", "type": "\u0413\u0430\u0432\u0430\u043d\u044c", "size": "X\u041c\u0430\u043b\u044b\u0439", "UN_LOCODE": "---", "country": "[GR] Greece", "longitude": 24.53246, "latitude": 40.70953, "link": "https://www.myshiptracking.com//ru/ports/marina-of-skala-kallirachis-in-gr-greece-id-582"},
{"name": "SKALA KALLONIS", "type": "\u0413\u0430\u0432\u0430\u043d\u044c", "size": "X\u041c\u0430\u043b\u044b\u0439", "UN_LOCODE": "---", "country": "[GR] Greece", "longitude": 26.20958, "latitude": 39.20534, "link": "https://www.myshiptracking.com//ru/ports/marina-of-skala-kallonis-in-gr-greece-id-720"},
{"name": "SKALA SOTIROS", "type": "\u0413\u0430\u0432\u0430\u043d\u044c", "size": "X\u041c\u0430\u043b\u044b\u0439", "UN_LOCODE": "---", "country": "[GR] Greece", "longitude": 24.54638, "latitude": 40.72893, "link": "https://www.myshiptracking.com//ru/ports/marina-of-skala-sotiros-in-gr-greece-id-690"},
{"name": "SKALI", "type": "\u041f\u043e\u0440\u0442", "size": "\u041c\u0430\u043b\u0435\u043d\u044c\u043a\u0438\u0439", "UN_LOCODE": "FOSKA", "country": "[FO] Faroe Is", "longitude": -6.78081, "latitude": 62.16122, "link": "https://www.myshiptracking.com//ru/ports/port-of-skali-in-fo-faroe-is-id-5691"},
{"name": "SKALISTYY", "type": "\u041f\u043e\u0440\u0442", "size": "X\u041c\u0430\u043b\u044b\u0439", "UN_LOCODE": "---", "country": "[RU] Russia", "longitude": 132.82362, "latitude": 42.75403, "link": "https://www.myshiptracking.com//ru/ports/port-of-skalistyy-in-ru-russia-id-3089"},
{"name": "SKANSEN", "type": "\u041f\u043e\u0440\u0442", "size": "X\u041c\u0430\u043b\u044b\u0439", "UN_LOCODE": "---", "country": "[SE] Sweden", "longitude": 17.693, "latitude": 59.05158, "link": "https://www.myshiptracking.com//ru/ports/port-of-skansen-in-se-sweden-id-5345"},
{"name": "SKARAMAGAS", "type": "\u041f\u043e\u0440\u0442", "size": "\u041c\u0430\u043b\u0435\u043d\u044c\u043a\u0438\u0439", "UN_LOCODE": "GRSKA", "country": "[GR] Greece", "longitude": 23.59137, "latitude": 38.0079, "link": "https://www.myshiptracking.com//ru/ports/port-of-skaramagas-in-gr-greece-id-468"},
{"name": "SKARSVAG", "type": "\u041f\u043e\u0440\u0442", "size": "X\u041c\u0430\u043b\u044b\u0439", "UN_LOCODE": "NOSKZ", "country": "[NO] Norway", "longitude": 25.8311, "latitude": 71.1123, "link": "https://www.myshiptracking.com//ru/ports/port-of-skarsvag-in-no-norway-id-5162"},
{"name": "SKAVENIK", "type": "\u041f\u043e\u0440\u0442", "size": "X\u041c\u0430\u043b\u044b\u0439", "UN_LOCODE": "---", "country": "[NO] Norway", "longitude": 5.93325, "latitude": 59.73439, "link": "https://www.myshiptracking.com//ru/ports/port-of-skavenik-in-no-norway-id-5074"},
{"name": "SKEPPSMALEN", "type": "\u041f\u043e\u0440\u0442", "size": "X\u041c\u0430\u043b\u044b\u0439", "UN_LOCODE": "SESKP", "country": "[SE] Sweden", "longitude": 19.0136, "latitude": 63.1907, "link": "https://www.myshiptracking.com//ru/ports/port-of-skeppsmalen-in-se-sweden-id-2205"},
{"name": "SKERRIES", "type": "\u041f\u043e\u0440\u0442", "size": "X\u041c\u0430\u043b\u044b\u0439", "UN_LOCODE": "IESKE", "country": "[IE] Ireland", "longitude": -6.10744, "latitude": 53.58466, "link": "https://www.myshiptracking.com//ru/ports/port-of-skerries-in-ie-ireland-id-2483"}]
