[{"name": "SPAY", "type": "\u041f\u043e\u0440\u0442", "size": "X\u041c\u0430\u043b\u044b\u0439", "UN_LOCODE": "DESPY", "country": "[DE] Germany", "longitude": 7.65085, "latitude": 50.25631, "link": "https://www.myshiptracking.com//ru/ports/port-of-spay-in-de-germany-id-1271"},
{"name": "SPETSES", "type": "\u041f\u043e\u0440\u0442", "size": "X\u041c\u0430\u043b\u044b\u0439", "UN_LOCODE": "GRSPE", "country": "[GR] Greece", "longitude": 23.15571, "latitude": 37.26937, "link": "https://www.myshiptracking.com//ru/ports/port-of-spetses-in-gr-greece-id-572"},
{"name": "SPETSES OLD PORT", "type": "\u0413\u0430\u0432\u0430\u043d\u044c", "size": "X\u041c\u0430\u043b\u044b\u0439", "UN_LOCODE": "---", "country": "[GR] Greece", "longitude": 23.16463, "latitude": 37.26227, "link": "https://www.myshiptracking.com//ru/ports/marina-of-spetses-old-port-in-gr-greece-id-662"},
{"name": "SPIEKEROOG", "type": "\u041f\u043e\u0440\u0442", "size": "\u041c\u0430\u043b\u0435\u043d\u044c\u043a\u0438\u0439", "UN_LOCODE": "DESPI", "country": "[DE] Germany", "longitude": 7.69556, "latitude": 53.76123, "link": "https://www.myshiptracking.com//ru/ports/port-of-spiekeroog-in-de-germany-id-1359"},
{"name": "SPIERINGSLUIS", "type": "\u0413\u0430\u0432\u0430\u043d\u044c", "size": "X\u041c\u0430\u043b\u044b\u0439", "UN_LOCODE": "---", "country": "[NL] Netherlands", "longitude": 4.76322, "latitude": 51.77762, "link": "https://www.myshiptracking.com//ru/ports/marina-of-spieringsluis-in-nl-netherlands-id-1141"},
{"name": "SPIJKENISSE", "type": "\u041f\u043e\u0440\u0442", "size": "X\u041c\u0430\u043b\u044b\u0439", "UN_LOCODE": "NLHGV", "country": "[NL] Netherlands", "longitude": 4.33626, "latitude": 51.85505, "link": "https://www.myshiptracking.com//ru/ports/port-of-spijkenisse-in-nl-netherlands-id-1235"},
{"name": "SPIJKENISSE", "type": "\u041f\u043e\u0440\u0442", "size": "\u041c\u0430\u043b\u0435\u043d\u044c\u043a\u0438\u0439", "UN_LOCODE": "NLSPI", "country": "[NL] Netherlands", "longitude": 4.31832, "latitude": 51.85959, "link": "https://www.myshiptracking.com//ru/ports/port-of-spijkenisse-in-nl-netherlands-id-965"},
{"name": "SPIKARNA", "type": "\u041f\u043e\u0440\u0442", "size": "\u041c\u0430\u043b\u0435\u043d\u044c\u043a\u0438\u0439", "UN_LOCODE": "SESPI", "country": "[SE] Sweden", "longitude": 17.53007, "latitude": 62.36398, "link": "https://www.myshiptracking.com//ru/ports/port-of-spikarna-in-se-sweden-id-2199"},
{"name": "SPJELKAVIK", "type": "\u041f\u043e\u0440\u0442", "size": "\u041c\u0430\u043b\u0435\u043d\u044c\u043a\u0438\u0439", "UN_LOCODE": "NOSPV", "country": "[NO] Norway", "longitude": 6.35251, "latitude": 62.4758, "link": "https://www.myshiptracking.com//ru/ports/port-of-spjelkavik-in-no-norway-id-5264"},
{"name": "SPLIT", "type": "\u041f\u043e\u0440\u0442", "size": "\u041c\u0430\u043b\u0435\u043d\u044c\u043a\u0438\u0439", "UN_LOCODE": "HRSPU", "country": "[HR] Croatia", "longitude": 16.4349, "latitude": 43.5041, "link": "https://www.myshiptracking.com//ru/ports/port-of-split-in-hr-croatia-id-392"},
{"name": "SPLIT INNER", "type": "\u041f\u043e\u0440\u0442", "size": "\u0411\u043e\u043b\u044c\u0448\u043e\u0439", "UN_LOCODE": "---", "country": "[HR] Croatia", "longitude": 16.44024, "latitude": 43.53457, "link": "https://www.myshiptracking.com//ru/ports/port-of-split-inner-in-hr-croatia-id-2869"},
{"name": "SPODSBJERG", "type": "\u041f\u043e\u0440\u0442", "size": "X\u041c\u0430\u043b\u044b\u0439", "UN_LOCODE": "DKSPB", "country": "[DK] Denmark", "longitude": 10.8338, "latitude": 54.933, "link": "https://www.myshiptracking.com//ru/ports/port-of-spodsbjerg-in-dk-denmark-id-393"},
{"name": "SPP SHIPBUILDING", "type": "\u041f\u043e\u0440\u0442", "size": "\u041c\u0430\u043b\u0435\u043d\u044c\u043a\u0438\u0439", "UN_LOCODE": "---", "country": "[KR] Korea", "longitude": 128.03784, "latitude": 35.05309, "link": "https://www.myshiptracking.com//ru/ports/port-of-spp-shipbuilding-in-kr-korea-id-5512"},
{"name": "SPRAGGE HARBOR", "type": "\u041f\u043e\u0440\u0442", "size": "\u041c\u0430\u043b\u0435\u043d\u044c\u043a\u0438\u0439", "UN_LOCODE": "CASPR", "country": "[CA] Canada", "longitude": -82.69757, "latitude": 46.196, "link": "https://www.myshiptracking.com//ru/ports/port-of-spragge-harbor-in-ca-canada-id-6405"},
{"name": "SPYCK", "type": "\u041f\u043e\u0440\u0442", "size": "\u041c\u0430\u043b\u0435\u043d\u044c\u043a\u0438\u0439", "UN_LOCODE": "DEPYK", "country": "[DE] Germany", "longitude": 6.17402, "latitude": 51.83653, "link": "https://www.myshiptracking.com//ru/ports/port-of-spyck-in-de-germany-id-1265"},
{"name": "SQUAMISH", "type": "\u041f\u043e\u0440\u0442", "size": "\u0421\u0440\u0435\u0434\u043d\u0438\u0439", "UN_LOCODE": "CASQA", "country": "[CA] Canada", "longitude": -123.16596, "latitude": 49.68163, "link": "https://www.myshiptracking.com//ru/ports/port-of-squamish-in-ca-canada-id-6479"},
{"name": "SREMSKI KARLOVCI", "type": "\u041f\u043e\u0440\u0442", "size": "\u041c\u0430\u043b\u0435\u043d\u044c\u043a\u0438\u0439", "UN_LOCODE": "RSSKA", "country": "[RS] Serbia", "longitude": 19.94122, "latitude": 45.20653, "link": "https://www.myshiptracking.com//ru/ports/port-of-sremski-karlovci-in-rs-serbia-id-5823"},
{"name": "SSV BORSFLETH", "type": "\u0413\u0430\u0432\u0430\u043d\u044c", "size": "X\u041c\u0430\u043b\u044b\u0439", "UN_LOCODE": "---", "country": "[DE] Germany", "longitude": 9.40928, "latitude": 53.8285, "link": "https://www.myshiptracking.com//ru/ports/marina-of-ssv-borsfleth-in-de-germany-id-1343"},
{"name": "ST AGNES", "type": "\u041f\u043e\u0440\u0442", "size": "\u041c\u0430\u043b\u0435\u043d\u044c\u043a\u0438\u0439", "UN_LOCODE": "GBAIS", "country": "[GB] United Kingdom", "longitude": -6.33852, "latitude": 49.89548, "link": "https://www.myshiptracking.com//ru/ports/port-of-st-agnes-in-gb-united-kingdom-id-2271"},
{"name": "ST BARBE", "type": "\u041f\u043e\u0440\u0442", "size": "X\u041c\u0430\u043b\u044b\u0439", "UN_LOCODE": "---", "country": "[CA] Canada", "longitude": -56.77282, "latitude": 51.20507, "link": "https://www.myshiptracking.com//ru/ports/port-of-st-barbe-in-ca-canada-id-6397"},
{"name": "ST CLAIR", "type": "\u041f\u043e\u0440\u0442", "size": "\u041c\u0430\u043b\u0435\u043d\u044c\u043a\u0438\u0439", "UN_LOCODE": "USSCL", "country": "[US] USA", "longitude": -82.4844, "latitude": 42.81455, "link": "https://www.myshiptracking.com//ru/ports/port-of-st-clair-in-us-usa-id-6195"},
{"name": "ST CONSTANTIN HELENA", "type": "\u041f\u043e\u0440\u0442", "size": "X\u041c\u0430\u043b\u044b\u0439", "UN_LOCODE": "---", "country": "[BG] Bulgaria", "longitude": 28.01213, "latitude": 43.22332, "link": "https://www.myshiptracking.com//ru/ports/port-of-st-constantin-helena-in-bg-bulgaria-id-2902"},
{"name": "ST CROIX", "type": "\u041f\u043e\u0440\u0442", "size": "\u0411\u043e\u043b\u044c\u0448\u043e\u0439", "UN_LOCODE": "VILIB", "country": "[VI] US Virgin Is", "longitude": -64.75281, "latitude": 17.68773, "link": "https://www.myshiptracking.com//ru/ports/port-of-st-croix-in-vi-us-virgin-is-id-7089"},
{"name": "ST EUSTATIUS", "type": "\u041f\u043e\u0440\u0442", "size": "\u041c\u0430\u043b\u0435\u043d\u044c\u043a\u0438\u0439", "UN_LOCODE": "BQEUX", "country": "BQ", "longitude": -63.00454, "latitude": 17.49673, "link": "https://www.myshiptracking.com//ru/ports/port-of-st-eustatius-in-bq-id-7056"},
{"name": "ST FRANCIS", "type": "\u041f\u043e\u0440\u0442", "size": "X\u041c\u0430\u043b\u044b\u0439", "UN_LOCODE": "ZASFB", "country": "[ZA] South Africa", "longitude": 24.85201, "latitude": -34.18313, "link": "https://www.myshiptracking.com//ru/ports/port-of-st-francis-in-za-south-africa-id-3393"},
{"name": "ST GEORGES", "type": "\u041f\u043e\u0440\u0442", "size": "\u041c\u0430\u043b\u0435\u043d\u044c\u043a\u0438\u0439", "UN_LOCODE": "GDSTG", "country": "[GD] Grenada", "longitude": -61.75583, "latitude": 12.04647, "link": "https://www.myshiptracking.com//ru/ports/port-of-st-georges-in-gd-grenada-id-7104"},
{"name": "ST HELENS", "type": "\u041f\u043e\u0440\u0442", "size": "\u0421\u0440\u0435\u0434\u043d\u0438\u0439", "UN_LOCODE": "AUHLS", "country": "[AU] Australia", "longitude": 148.25132, "latitude": -41.32731, "link": "https://www.myshiptracking.com//ru/ports/port-of-st-helens-in-au-australia-id-3844"},
{"name": "ST HELENS", "type": "\u0413\u0430\u0432\u0430\u043d\u044c", "size": "\u041c\u0430\u043b\u0435\u043d\u044c\u043a\u0438\u0439", "UN_LOCODE": "---", "country": "[GB] United Kingdom", "longitude": -1.11118, "latitude": 50.69647, "link": "https://www.myshiptracking.com//ru/ports/marina-of-st-helens-in-gb-united-kingdom-id-2409"},
{"name": "ST IGNACE", "type": "\u041f\u043e\u0440\u0442", "size": "\u0421\u0440\u0435\u0434\u043d\u0438\u0439", "UN_LOCODE": "---", "country": "[US] USA", "longitude": -84.72011, "latitude": 45.87037, "link": "https://www.myshiptracking.com//ru/ports/port-of-st-ignace-in-us-usa-id-6009"},
{"name": "ST JOHN BAY", "type": "\u041f\u043e\u0440\u0442", "size": "\u041c\u0430\u043b\u0435\u043d\u044c\u043a\u0438\u0439", "UN_LOCODE": "---", "country": "[VI] US Virgin Is", "longitude": -64.84833, "latitude": 18.33611, "link": "https://www.myshiptracking.com//ru/ports/port-of-st-john-bay-in-vi-us-virgin-is-id-7130"},
{"name": "ST JOHNS", "type": "\u041f\u043e\u0440\u0442", "size": "\u0421\u0440\u0435\u0434\u043d\u0438\u0439", "UN_LOCODE": "AGSJO", "country": "[AG] Antigua Barbuda", "longitude": -61.8593, "latitude": 17.1238, "link": "https://www.myshiptracking.com//ru/ports/port-of-st-johns-in-ag-antigua-barbuda-id-394"},
{"name": "ST JOHNS", "type": "\u041f\u043e\u0440\u0442", "size": "\u041c\u0430\u043b\u0435\u043d\u044c\u043a\u0438\u0439", "UN_LOCODE": "CASJF", "country": "[CA] Canada", "longitude": -52.6973, "latitude": 47.5657, "link": "https://www.myshiptracking.com//ru/ports/port-of-st-johns-in-ca-canada-id-395"},
{"name": "ST LOUIS", "type": "\u041f\u043e\u0440\u0442", "size": "X\u0411\u043e\u043b\u044c\u0449\u043e\u0439", "UN_LOCODE": "USSTL", "country": "[US] USA", "longitude": -90.18439, "latitude": 38.61091, "link": "https://www.myshiptracking.com//ru/ports/port-of-st-louis-in-us-usa-id-6157"},
{"name": "ST MAARTEN", "type": "\u041f\u043e\u0440\u0442", "size": "\u041c\u0430\u043b\u0435\u043d\u044c\u043a\u0438\u0439", "UN_LOCODE": "SXSXM", "country": "SX", "longitude": -63.09238, "latitude": 18.03776, "link": "https://www.myshiptracking.com//ru/ports/port-of-st-maarten-in-sx-id-7149"},
{"name": "ST MARGARET'S HOPE", "type": "\u041f\u043e\u0440\u0442", "size": "\u041c\u0430\u043b\u0435\u043d\u044c\u043a\u0438\u0439", "UN_LOCODE": "GBSGP", "country": "[GB] United Kingdom", "longitude": -2.9612, "latitude": 58.8318, "link": "https://www.myshiptracking.com//ru/ports/port-of-st-margarets-hope-in-gb-united-kingdom-id-1704"},
{"name": "ST MARIA MADDALENA", "type": "\u041f\u043e\u0440\u0442", "size": "\u041c\u0430\u043b\u0435\u043d\u044c\u043a\u0438\u0439", "UN_LOCODE": "ITMDN", "country": "[IT] Italy", "longitude": 11.61484, "latitude": 44.88929, "link": "https://www.myshiptracking.com//ru/ports/port-of-st-maria-maddalena-in-it-italy-id-2752"},
{"name": "ST NAZAIRE", "type": "\u041f\u043e\u0440\u0442", "size": "\u041c\u0430\u043b\u0435\u043d\u044c\u043a\u0438\u0439", "UN_LOCODE": "FRSNR", "country": "[FR] France", "longitude": -2.19304, "latitude": 47.27454, "link": "https://www.myshiptracking.com//ru/ports/port-of-st-nazaire-in-fr-france-id-396"},
{"name": "ST PETERSBURG", "type": "\u041f\u043e\u0440\u0442", "size": "X\u0411\u043e\u043b\u044c\u0449\u043e\u0439", "UN_LOCODE": "RULED", "country": "[RU] Russia", "longitude": 30.2682, "latitude": 59.9245, "link": "https://www.myshiptracking.com//ru/ports/port-of-st-petersburg-in-ru-russia-id-397"},
{"name": "ST PETERSBURG (FL)", "type": "\u041f\u043e\u0440\u0442", "size": "\u0421\u0440\u0435\u0434\u043d\u0438\u0439", "UN_LOCODE": "USPIE", "country": "[US] USA", "longitude": -82.62249, "latitude": 27.76359, "link": "https://www.myshiptracking.com//ru/ports/port-of-st-petersburg-fl-in-us-usa-id-6188"},
{"name": "ST THOMAS", "type": "\u041f\u043e\u0440\u0442", "size": "\u041c\u0430\u043b\u0435\u043d\u044c\u043a\u0438\u0439", "UN_LOCODE": "---", "country": "[VI] US Virgin Is", "longitude": -64.84748, "latitude": 18.32612, "link": "https://www.myshiptracking.com//ru/ports/port-of-st-thomas-in-vi-us-virgin-is-id-7131"},
{"name": "ST THOMAS", "type": "\u041f\u043e\u0440\u0442", "size": "\u0421\u0440\u0435\u0434\u043d\u0438\u0439", "UN_LOCODE": "VISTT", "country": "[VI] US Virgin Is", "longitude": -64.92799, "latitude": 18.33031, "link": "https://www.myshiptracking.com//ru/ports/port-of-st-thomas-in-vi-us-virgin-is-id-7126"},
{"name": "ST VAAST LA HOUGUE", "type": "\u041f\u043e\u0440\u0442", "size": "X\u041c\u0430\u043b\u044b\u0439", "UN_LOCODE": "FRVH2", "country": "[FR] France", "longitude": -1.264, "latitude": 49.58821, "link": "https://www.myshiptracking.com//ru/ports/port-of-st-vaast-la-hougue-in-fr-france-id-1763"},
{"name": "ST VALERY-SUR-SOMME", "type": "\u041f\u043e\u0440\u0442", "size": "\u041c\u0430\u043b\u0435\u043d\u044c\u043a\u0438\u0439", "UN_LOCODE": "FRSVM", "country": "[FR] France", "longitude": 1.64464, "latitude": 50.18383, "link": "https://www.myshiptracking.com//ru/ports/port-of-st-valery-sur-somme-in-fr-france-id-1746"},
{"name": "ST. ABBS", "type": "\u0413\u0430\u0432\u0430\u043d\u044c", "size": "\u041c\u0430\u043b\u0435\u043d\u044c\u043a\u0438\u0439", "UN_LOCODE": "---", "country": "[GB] United Kingdom", "longitude": -2.12706, "latitude": 55.89884, "link": "https://www.myshiptracking.com//ru/ports/marina-of-st-abbs-in-gb-united-kingdom-id-2388"},
{"name": "ST. MONANS", "type": "\u0413\u0430\u0432\u0430\u043d\u044c", "size": "\u041c\u0430\u043b\u0435\u043d\u044c\u043a\u0438\u0439", "UN_LOCODE": "---", "country": "[GB] United Kingdom", "longitude": -2.76573, "latitude": 56.20446, "link": "https://www.myshiptracking.com//ru/ports/marina-of-st-monans-in-gb-united-kingdom-id-2451"},
{"name": "ST.IVES", "type": "\u041f\u043e\u0440\u0442", "size": "\u041c\u0430\u043b\u0435\u043d\u044c\u043a\u0438\u0439", "UN_LOCODE": "GBIVS", "country": "[GB] United Kingdom", "longitude": -5.47571, "latitude": 50.21296, "link": "https://www.myshiptracking.com//ru/ports/port-of-stives-in-gb-united-kingdom-id-1701"},
{"name": "STAD AANT HARINGVLIE", "type": "\u041f\u043e\u0440\u0442", "size": "\u041c\u0430\u043b\u0435\u043d\u044c\u043a\u0438\u0439", "UN_LOCODE": "NLSAT", "country": "[NL] Netherlands", "longitude": 4.24517, "latitude": 51.74234, "link": "https://www.myshiptracking.com//ru/ports/port-of-stad-aant-haringvlie-in-nl-netherlands-id-981"},
{"name": "STADE", "type": "\u041f\u043e\u0440\u0442", "size": "\u041c\u0430\u043b\u0435\u043d\u044c\u043a\u0438\u0439", "UN_LOCODE": "DESTA", "country": "[DE] Germany", "longitude": 9.4812, "latitude": 53.60063, "link": "https://www.myshiptracking.com//ru/ports/port-of-stade-in-de-germany-id-1306"},
{"name": "STADERSAND", "type": "\u041f\u043e\u0440\u0442", "size": "\u041c\u0430\u043b\u0435\u043d\u044c\u043a\u0438\u0439", "UN_LOCODE": "DESTS", "country": "[DE] Germany", "longitude": 9.53404, "latitude": 53.62626, "link": "https://www.myshiptracking.com//ru/ports/port-of-stadersand-in-de-germany-id-1383"},
{"name": "STADSKANAAL", "type": "\u041f\u043e\u0440\u0442", "size": "\u0411\u043e\u043b\u044c\u0448\u043e\u0439", "UN_LOCODE": "NLSTK", "country": "[NL] Netherlands", "longitude": 6.98616, "latitude": 52.9949, "link": "https://www.myshiptracking.com//ru/ports/port-of-stadskanaal-in-nl-netherlands-id-1450"}]
