[{"name": "GROVE", "type": "\u041f\u043e\u0440\u0442", "size": "\u041c\u0430\u043b\u0435\u043d\u044c\u043a\u0438\u0439", "UN_LOCODE": "ESEGR", "country": "[ES] Spain", "longitude": -8.85903, "latitude": 42.49704, "link": "https://www.myshiptracking.com//ru/ports/port-of-grove-in-es-spain-id-1886"},
{"name": "GRUMS", "type": "\u041f\u043e\u0440\u0442", "size": "\u041c\u0430\u043b\u0435\u043d\u044c\u043a\u0438\u0439", "UN_LOCODE": "SEGMS", "country": "[SE] Sweden", "longitude": 13.1262, "latitude": 59.3431, "link": "https://www.myshiptracking.com//ru/ports/port-of-grums-in-se-sweden-id-5347"},
{"name": "GRUNDARFJORDUR", "type": "\u041f\u043e\u0440\u0442", "size": "\u041c\u0430\u043b\u0435\u043d\u044c\u043a\u0438\u0439", "UN_LOCODE": "ISGRF", "country": "[IS] Iceland", "longitude": -23.24983, "latitude": 64.92495, "link": "https://www.myshiptracking.com//ru/ports/port-of-grundarfjordur-in-is-iceland-id-5601"},
{"name": "GRUNDARTANGI", "type": "\u041f\u043e\u0440\u0442", "size": "\u041c\u0430\u043b\u0435\u043d\u044c\u043a\u0438\u0439", "UN_LOCODE": "ISGRT", "country": "[IS] Iceland", "longitude": -21.77208, "latitude": 64.35672, "link": "https://www.myshiptracking.com//ru/ports/port-of-grundartangi-in-is-iceland-id-5556"},
{"name": "GRUNDSUND", "type": "\u041f\u043e\u0440\u0442", "size": "\u041c\u0430\u043b\u0435\u043d\u044c\u043a\u0438\u0439", "UN_LOCODE": "SEGRD", "country": "[SE] Sweden", "longitude": 11.41703, "latitude": 58.21526, "link": "https://www.myshiptracking.com//ru/ports/port-of-grundsund-in-se-sweden-id-2175"},
{"name": "GRYLLEFJORD", "type": "\u041f\u043e\u0440\u0442", "size": "\u0421\u0440\u0435\u0434\u043d\u0438\u0439", "UN_LOCODE": "NOGRY", "country": "[NO] Norway", "longitude": 17.05855, "latitude": 69.3648, "link": "https://www.myshiptracking.com//ru/ports/port-of-gryllefjord-in-no-norway-id-5170"},
{"name": "GUAMARE", "type": "\u041f\u043e\u0440\u0442", "size": "X\u041c\u0430\u043b\u044b\u0439", "UN_LOCODE": "BRGUA", "country": "[BR] Brazil", "longitude": -36.31856, "latitude": -5.10617, "link": "https://www.myshiptracking.com//ru/ports/port-of-guamare-in-br-brazil-id-6664"},
{"name": "GUANAJA", "type": "\u041f\u043e\u0440\u0442", "size": "\u041c\u0430\u043b\u0435\u043d\u044c\u043a\u0438\u0439", "UN_LOCODE": "HNGJA", "country": "[HN] Honduras", "longitude": -85.89057, "latitude": 16.44596, "link": "https://www.myshiptracking.com//ru/ports/port-of-guanaja-in-hn-honduras-id-6969"},
{"name": "GUANAQUERO", "type": "\u041f\u043e\u0440\u0442", "size": "X\u041c\u0430\u043b\u044b\u0439", "UN_LOCODE": "---", "country": "[CL] Chile", "longitude": -71.43039, "latitude": -30.19333, "link": "https://www.myshiptracking.com//ru/ports/port-of-guanaquero-in-cl-chile-id-6720"},
{"name": "GUANDONG", "type": "\u041f\u043e\u0440\u0442", "size": "\u0411\u043e\u043b\u044c\u0448\u043e\u0439", "UN_LOCODE": "CNCIV", "country": "[CN] China", "longitude": 113.12088, "latitude": 22.21963, "link": "https://www.myshiptracking.com//ru/ports/port-of-guandong-in-cn-china-id-4216"},
{"name": "GUANGAO", "type": "\u041f\u043e\u0440\u0442", "size": "\u041c\u0430\u043b\u0435\u043d\u044c\u043a\u0438\u0439", "UN_LOCODE": "CNGNA", "country": "[CN] China", "longitude": 116.7741, "latitude": 23.2225, "link": "https://www.myshiptracking.com//ru/ports/port-of-guangao-in-cn-china-id-4164"},
{"name": "GUANGZHOU SHIPYARD", "type": "\u041f\u043e\u0440\u0442", "size": "\u041c\u0430\u043b\u0435\u043d\u044c\u043a\u0438\u0439", "UN_LOCODE": "---", "country": "[CN] China", "longitude": 113.25242, "latitude": 23.07323, "link": "https://www.myshiptracking.com//ru/ports/port-of-guangzhou-shipyard-in-cn-china-id-4145"},
{"name": "GUANICA", "type": "\u041f\u043e\u0440\u0442", "size": "\u041c\u0430\u043b\u0435\u043d\u044c\u043a\u0438\u0439", "UN_LOCODE": "PRGUX", "country": "[PR] Puerto Rico", "longitude": -66.90804, "latitude": 17.96247, "link": "https://www.myshiptracking.com//ru/ports/port-of-guanica-in-pr-puerto-rico-id-7158"},
{"name": "GUANTA", "type": "\u041f\u043e\u0440\u0442", "size": "\u041c\u0430\u043b\u0435\u043d\u044c\u043a\u0438\u0439", "UN_LOCODE": "VEGUT", "country": "[VE] Venezuela", "longitude": -64.59479, "latitude": 10.24838, "link": "https://www.myshiptracking.com//ru/ports/port-of-guanta-in-ve-venezuela-id-6890"},
{"name": "GUANTANAMO BAY NAVAL", "type": "\u041f\u043e\u0440\u0442", "size": "\u0421\u0440\u0435\u0434\u043d\u0438\u0439", "UN_LOCODE": "CUGUB", "country": "[CU] Cuba", "longitude": -75.15205, "latitude": 19.91963, "link": "https://www.myshiptracking.com//ru/ports/port-of-guantanamo-bay-naval-in-cu-cuba-id-6853"},
{"name": "GUARANAO", "type": "\u041f\u043e\u0440\u0442", "size": "\u0421\u0440\u0435\u0434\u043d\u0438\u0439", "UN_LOCODE": "VEGUB", "country": "[VE] Venezuela", "longitude": -70.21899, "latitude": 11.67857, "link": "https://www.myshiptracking.com//ru/ports/port-of-guaranao-in-ve-venezuela-id-6871"},
{"name": "GUARAQUECABA", "type": "\u041f\u043e\u0440\u0442", "size": "\u041c\u0430\u043b\u0435\u043d\u044c\u043a\u0438\u0439", "UN_LOCODE": "BRGQE", "country": "[BR] Brazil", "longitude": -48.32965, "latitude": -25.30136, "link": "https://www.myshiptracking.com//ru/ports/port-of-guaraquecaba-in-br-brazil-id-6632"},
{"name": "GUARATUBA", "type": "\u041f\u043e\u0440\u0442", "size": "\u041c\u0430\u043b\u0435\u043d\u044c\u043a\u0438\u0439", "UN_LOCODE": "BRGTB", "country": "[BR] Brazil", "longitude": -48.58666, "latitude": -25.87285, "link": "https://www.myshiptracking.com//ru/ports/port-of-guaratuba-in-br-brazil-id-6641"},
{"name": "GUAYABAL", "type": "\u041f\u043e\u0440\u0442", "size": "\u041c\u0430\u043b\u0435\u043d\u044c\u043a\u0438\u0439", "UN_LOCODE": "CUGYB", "country": "[CU] Cuba", "longitude": -77.61977, "latitude": 20.68504, "link": "https://www.myshiptracking.com//ru/ports/port-of-guayabal-in-cu-cuba-id-6817"},
{"name": "GUAYACAN", "type": "\u041f\u043e\u0440\u0442", "size": "\u0421\u0440\u0435\u0434\u043d\u0438\u0439", "UN_LOCODE": "CLGYC", "country": "[CL] Chile", "longitude": -71.35636, "latitude": -29.97067, "link": "https://www.myshiptracking.com//ru/ports/port-of-guayacan-in-cl-chile-id-6723"},
{"name": "GUAYAGUAYARE", "type": "\u041f\u043e\u0440\u0442", "size": "\u041c\u0430\u043b\u0435\u043d\u044c\u043a\u0438\u0439", "UN_LOCODE": "TTGUA", "country": "[TT] Trinidad Tobago", "longitude": -61.00237, "latitude": 10.14003, "link": "https://www.myshiptracking.com//ru/ports/port-of-guayaguayare-in-tt-trinidad-tobago-id-7043"},
{"name": "GUAYANA CITY", "type": "\u041f\u043e\u0440\u0442", "size": "\u041c\u0430\u043b\u0435\u043d\u044c\u043a\u0438\u0439", "UN_LOCODE": "VECGU", "country": "[VE] Venezuela", "longitude": -62.66368, "latitude": 8.37552, "link": "https://www.myshiptracking.com//ru/ports/port-of-guayana-city-in-ve-venezuela-id-6867"},
{"name": "GUAYANILLA", "type": "\u041f\u043e\u0440\u0442", "size": "\u0421\u0440\u0435\u0434\u043d\u0438\u0439", "UN_LOCODE": "PRGUY", "country": "[PR] Puerto Rico", "longitude": -66.76572, "latitude": 17.98993, "link": "https://www.myshiptracking.com//ru/ports/port-of-guayanilla-in-pr-puerto-rico-id-7032"},
{"name": "GUAYAQUIL", "type": "\u041f\u043e\u0440\u0442", "size": "X\u0411\u043e\u043b\u044c\u0449\u043e\u0439", "UN_LOCODE": "ECGYE", "country": "[EC] Ecuador", "longitude": -79.86936, "latitude": -2.18636, "link": "https://www.myshiptracking.com//ru/ports/port-of-guayaquil-in-ec-ecuador-id-7060"},
{"name": "GUAYMAS", "type": "\u041f\u043e\u0440\u0442", "size": "\u0411\u043e\u043b\u044c\u0448\u043e\u0439", "UN_LOCODE": "MXGYM", "country": "[MX] Mexico", "longitude": -110.86336, "latitude": 27.91021, "link": "https://www.myshiptracking.com//ru/ports/port-of-guaymas-in-mx-mexico-id-6599"},
{"name": "GUDHJEM", "type": "\u041f\u043e\u0440\u0442", "size": "X\u041c\u0430\u043b\u044b\u0439", "UN_LOCODE": "DKGDM", "country": "[DK] Denmark", "longitude": 14.97161, "latitude": 55.21348, "link": "https://www.myshiptracking.com//ru/ports/port-of-gudhjem-in-dk-denmark-id-2620"},
{"name": "GUDVANGEN", "type": "\u041f\u043e\u0440\u0442", "size": "\u0421\u0440\u0435\u0434\u043d\u0438\u0439", "UN_LOCODE": "NOGUD", "country": "[NO] Norway", "longitude": 6.84496, "latitude": 60.8823, "link": "https://www.myshiptracking.com//ru/ports/port-of-gudvangen-in-no-norway-id-5119"},
{"name": "GUERNSEY", "type": "\u041f\u043e\u0440\u0442", "size": "\u041c\u0430\u043b\u0435\u043d\u044c\u043a\u0438\u0439", "UN_LOCODE": "GBPPO", "country": "GG", "longitude": -2.53087, "latitude": 49.4571, "link": "https://www.myshiptracking.com//ru/ports/port-of-guernsey-in-gg-id-237"},
{"name": "GUIJALO", "type": "\u041f\u043e\u0440\u0442", "size": "\u041c\u0430\u043b\u0435\u043d\u044c\u043a\u0438\u0439", "UN_LOCODE": "---", "country": "[PH] Philippines", "longitude": 123.8724, "latitude": 13.73486, "link": "https://www.myshiptracking.com//ru/ports/port-of-guijalo-in-ph-philippines-id-5398"},
{"name": "GUILVINEC", "type": "\u041f\u043e\u0440\u0442", "size": "\u041c\u0430\u043b\u0435\u043d\u044c\u043a\u0438\u0439", "UN_LOCODE": "FRGVC", "country": "[FR] France", "longitude": -4.28386, "latitude": 47.79165, "link": "https://www.myshiptracking.com//ru/ports/port-of-guilvinec-in-fr-france-id-1747"},
{"name": "GUIRIA", "type": "\u041f\u043e\u0440\u0442", "size": "\u041c\u0430\u043b\u0435\u043d\u044c\u043a\u0438\u0439", "UN_LOCODE": "VEGUI", "country": "[VE] Venezuela", "longitude": -62.29176, "latitude": 10.57023, "link": "https://www.myshiptracking.com//ru/ports/port-of-guiria-in-ve-venezuela-id-6882"},
{"name": "GUISHAN", "type": "\u041f\u043e\u0440\u0442", "size": "\u0421\u0440\u0435\u0434\u043d\u0438\u0439", "UN_LOCODE": "CNGSH", "country": "[CN] China", "longitude": 113.81682, "latitude": 22.1423, "link": "https://www.myshiptracking.com//ru/ports/port-of-guishan-in-cn-china-id-4117"},
{"name": "GULDBODA", "type": "\u041f\u043e\u0440\u0442", "size": "\u041c\u0430\u043b\u0435\u043d\u044c\u043a\u0438\u0439", "UN_LOCODE": "---", "country": "[SE] Sweden", "longitude": 18.06231, "latitude": 58.97716, "link": "https://www.myshiptracking.com//ru/ports/port-of-guldboda-in-se-sweden-id-5358"},
{"name": "GULEI", "type": "\u041f\u043e\u0440\u0442", "size": "\u0411\u043e\u043b\u044c\u0448\u043e\u0439", "UN_LOCODE": "CNGUL", "country": "[CN] China", "longitude": 117.58251, "latitude": 23.75391, "link": "https://www.myshiptracking.com//ru/ports/port-of-gulei-in-cn-china-id-4113"},
{"name": "GULF BREEZE", "type": "\u041f\u043e\u0440\u0442", "size": "\u041c\u0430\u043b\u0435\u043d\u044c\u043a\u0438\u0439", "UN_LOCODE": "USGBZ", "country": "[US] USA", "longitude": -87.17163, "latitude": 30.34746, "link": "https://www.myshiptracking.com//ru/ports/port-of-gulf-breeze-in-us-usa-id-6164"},
{"name": "GULF HARBOUR", "type": "\u041f\u043e\u0440\u0442", "size": "\u041c\u0430\u043b\u0435\u043d\u044c\u043a\u0438\u0439", "UN_LOCODE": "---", "country": "[NZ] New Zealand", "longitude": 174.78868, "latitude": -36.6214, "link": "https://www.myshiptracking.com//ru/ports/port-of-gulf-harbour-in-nz-new-zealand-id-4020"},
{"name": "GULFPORT", "type": "\u041f\u043e\u0440\u0442", "size": "\u041c\u0430\u043b\u0435\u043d\u044c\u043a\u0438\u0439", "UN_LOCODE": "USGPT", "country": "[US] USA", "longitude": -89.08741, "latitude": 30.35248, "link": "https://www.myshiptracking.com//ru/ports/port-of-gulfport-in-us-usa-id-6160"},
{"name": "GULLUK", "type": "\u041f\u043e\u0440\u0442", "size": "\u041c\u0430\u043b\u0435\u043d\u044c\u043a\u0438\u0439", "UN_LOCODE": "TRGUL", "country": "[TR] Turkey", "longitude": 27.60017, "latitude": 37.24821, "link": "https://www.myshiptracking.com//ru/ports/port-of-gulluk-in-tr-turkey-id-2122"},
{"name": "GUNNESS", "type": "\u041f\u043e\u0440\u0442", "size": "\u0411\u043e\u043b\u044c\u0448\u043e\u0439", "UN_LOCODE": "GBGUS", "country": "[GB] United Kingdom", "longitude": -0.73798, "latitude": 53.59397, "link": "https://www.myshiptracking.com//ru/ports/port-of-gunness-in-gb-united-kingdom-id-1622"},
{"name": "GUNSAN", "type": "\u041f\u043e\u0440\u0442", "size": "\u0411\u043e\u043b\u044c\u0448\u043e\u0439", "UN_LOCODE": "KRKUV", "country": "[KR] Korea", "longitude": 126.59123, "latitude": 35.97898, "link": "https://www.myshiptracking.com//ru/ports/port-of-gunsan-in-kr-korea-id-5527"},
{"name": "GUNTERSVILLE", "type": "\u041f\u043e\u0440\u0442", "size": "\u0411\u043e\u043b\u044c\u0448\u043e\u0439", "UN_LOCODE": "USGUE", "country": "[US] USA", "longitude": -86.28522, "latitude": 34.35502, "link": "https://www.myshiptracking.com//ru/ports/port-of-guntersville-in-us-usa-id-6231"},
{"name": "GUSIPOHAEBYEON", "type": "\u0413\u0430\u0432\u0430\u043d\u044c", "size": "X\u041c\u0430\u043b\u044b\u0439", "UN_LOCODE": "---", "country": "[KR] Korea", "longitude": 126.4251, "latitude": 35.44957, "link": "https://www.myshiptracking.com//ru/ports/marina-of-gusipohaebyeon-in-kr-korea-id-5513"},
{"name": "GUSTAVIA", "type": "\u041f\u043e\u0440\u0442", "size": "\u041c\u0430\u043b\u0435\u043d\u044c\u043a\u0438\u0439", "UN_LOCODE": "BLGUS", "country": "BL", "longitude": -62.85346, "latitude": 17.90023, "link": "https://www.myshiptracking.com//ru/ports/port-of-gustavia-in-bl-id-6972"},
{"name": "GUTTENBERG", "type": "\u041f\u043e\u0440\u0442", "size": "\u041c\u0430\u043b\u0435\u043d\u044c\u043a\u0438\u0439", "UN_LOCODE": "USGUG", "country": "[US] USA", "longitude": -73.99607, "latitude": 40.7905, "link": "https://www.myshiptracking.com//ru/ports/port-of-guttenberg-in-us-usa-id-5952"},
{"name": "GUTVIK", "type": "\u041f\u043e\u0440\u0442", "size": "\u041c\u0430\u043b\u0435\u043d\u044c\u043a\u0438\u0439", "UN_LOCODE": "---", "country": "[NO] Norway", "longitude": 11.82873, "latitude": 65.0853, "link": "https://www.myshiptracking.com//ru/ports/port-of-gutvik-in-no-norway-id-5312"},
{"name": "GWADAR", "type": "\u041f\u043e\u0440\u0442", "size": "\u041c\u0430\u043b\u0435\u043d\u044c\u043a\u0438\u0439", "UN_LOCODE": "PKGWD", "country": "[PK] Pakistan", "longitude": 62.33691, "latitude": 25.11375, "link": "https://www.myshiptracking.com//ru/ports/port-of-gwadar-in-pk-pakistan-id-3609"},
{"name": "GWANGYANG", "type": "\u041f\u043e\u0440\u0442", "size": "X\u0411\u043e\u043b\u044c\u0449\u043e\u0439", "UN_LOCODE": "KRKAN", "country": "[KR] Korea", "longitude": 127.70143, "latitude": 34.90507, "link": "https://www.myshiptracking.com//ru/ports/port-of-gwangyang-in-kr-korea-id-5505"},
{"name": "GYALI", "type": "\u041f\u043e\u0440\u0442", "size": "\u0421\u0440\u0435\u0434\u043d\u0438\u0439", "UN_LOCODE": "GRYLI", "country": "[GR] Greece", "longitude": 27.1249, "latitude": 36.6609, "link": "https://www.myshiptracking.com//ru/ports/port-of-gyali-in-gr-greece-id-2264"},
{"name": "GYEKPO", "type": "\u041f\u043e\u0440\u0442", "size": "\u041c\u0430\u043b\u0435\u043d\u044c\u043a\u0438\u0439", "UN_LOCODE": "---", "country": "[KR] Korea", "longitude": 126.46577, "latitude": 35.62062, "link": "https://www.myshiptracking.com//ru/ports/port-of-gyekpo-in-kr-korea-id-5523"},
{"name": "GYEMA", "type": "\u041f\u043e\u0440\u0442", "size": "\u041c\u0430\u043b\u0435\u043d\u044c\u043a\u0438\u0439", "UN_LOCODE": "---", "country": "[KR] Korea", "longitude": 126.40494, "latitude": 35.39148, "link": "https://www.myshiptracking.com//ru/ports/port-of-gyema-in-kr-korea-id-5498"}]
