[{"name": "NANAO", "type": "\u041f\u043e\u0440\u0442", "size": "X\u0411\u043e\u043b\u044c\u0449\u043e\u0439", "UN_LOCODE": "JPNNO", "country": "[JP] Japan", "longitude": 136.97377, "latitude": 37.0666, "link": "https://www.myshiptracking.com//ru/ports/port-of-nanao-in-jp-japan-id-4747"},
{"name": "NANHAI", "type": "\u041f\u043e\u0440\u0442", "size": "\u0421\u0440\u0435\u0434\u043d\u0438\u0439", "UN_LOCODE": "CNNAH", "country": "[CN] China", "longitude": 113.27934, "latitude": 22.74148, "link": "https://www.myshiptracking.com//ru/ports/port-of-nanhai-in-cn-china-id-4186"},
{"name": "NANJING", "type": "\u041f\u043e\u0440\u0442", "size": "X\u0411\u043e\u043b\u044c\u0449\u043e\u0439", "UN_LOCODE": "CNNKG", "country": "[CN] China", "longitude": 118.79913, "latitude": 32.23076, "link": "https://www.myshiptracking.com//ru/ports/port-of-nanjing-in-cn-china-id-4222"},
{"name": "NANSHA", "type": "\u041f\u043e\u0440\u0442", "size": "\u0411\u043e\u043b\u044c\u0448\u043e\u0439", "UN_LOCODE": "CNNSA", "country": "[CN] China", "longitude": 113.6759, "latitude": 22.67292, "link": "https://www.myshiptracking.com//ru/ports/port-of-nansha-in-cn-china-id-4188"},
{"name": "NANTERRE", "type": "\u041f\u043e\u0440\u0442", "size": "\u041c\u0430\u043b\u0435\u043d\u044c\u043a\u0438\u0439", "UN_LOCODE": "FRNAN", "country": "[FR] France", "longitude": 2.1803, "latitude": 48.89876, "link": "https://www.myshiptracking.com//ru/ports/port-of-nanterre-in-fr-france-id-2658"},
{"name": "NANTES", "type": "\u041f\u043e\u0440\u0442", "size": "\u0411\u043e\u043b\u044c\u0448\u043e\u0439", "UN_LOCODE": "FRNTE", "country": "[FR] France", "longitude": -1.54466, "latitude": 47.2016, "link": "https://www.myshiptracking.com//ru/ports/port-of-nantes-in-fr-france-id-307"},
{"name": "NANTICOKE", "type": "\u041f\u043e\u0440\u0442", "size": "\u0411\u043e\u043b\u044c\u0448\u043e\u0439", "UN_LOCODE": "CANAN", "country": "[CA] Canada", "longitude": -80.06108, "latitude": 42.78977, "link": "https://www.myshiptracking.com//ru/ports/port-of-nanticoke-in-ca-canada-id-6491"},
{"name": "NANTONG", "type": "\u041f\u043e\u0440\u0442", "size": "X\u0411\u043e\u043b\u044c\u0449\u043e\u0439", "UN_LOCODE": "CNNTG", "country": "[CN] China", "longitude": 120.8436, "latitude": 31.96348, "link": "https://www.myshiptracking.com//ru/ports/port-of-nantong-in-cn-china-id-4194"},
{"name": "NANTUCKET", "type": "\u041f\u043e\u0440\u0442", "size": "\u041c\u0430\u043b\u0435\u043d\u044c\u043a\u0438\u0439", "UN_LOCODE": "USACK", "country": "[US] USA", "longitude": -70.09045, "latitude": 41.28508, "link": "https://www.myshiptracking.com//ru/ports/port-of-nantucket-in-us-usa-id-6223"},
{"name": "NAOETSU", "type": "\u041f\u043e\u0440\u0442", "size": "\u0411\u043e\u043b\u044c\u0448\u043e\u0439", "UN_LOCODE": "JPNAO", "country": "[JP] Japan", "longitude": 138.2639, "latitude": 37.20378, "link": "https://www.myshiptracking.com//ru/ports/port-of-naoetsu-in-jp-japan-id-4566"},
{"name": "NAOSHIMA", "type": "\u041f\u043e\u0440\u0442", "size": "\u041c\u0430\u043b\u0435\u043d\u044c\u043a\u0438\u0439", "UN_LOCODE": "JPNAS", "country": "[JP] Japan", "longitude": 133.98897, "latitude": 34.46886, "link": "https://www.myshiptracking.com//ru/ports/port-of-naoshima-in-jp-japan-id-4749"},
{"name": "NAOUSA", "type": "\u041f\u043e\u0440\u0442", "size": "\u0411\u043e\u043b\u044c\u0448\u043e\u0439", "UN_LOCODE": "GRNAS", "country": "[GR] Greece", "longitude": 25.2457, "latitude": 37.1359, "link": "https://www.myshiptracking.com//ru/ports/port-of-naousa-in-gr-greece-id-450"},
{"name": "NAPIER", "type": "\u041f\u043e\u0440\u0442", "size": "\u0421\u0440\u0435\u0434\u043d\u0438\u0439", "UN_LOCODE": "NZNPE", "country": "[NZ] New Zealand", "longitude": 176.91056, "latitude": -39.47311, "link": "https://www.myshiptracking.com//ru/ports/port-of-napier-in-nz-new-zealand-id-4022"},
{"name": "NAPLO", "type": "\u041f\u043e\u0440\u0442", "size": "\u041c\u0430\u043b\u0435\u043d\u044c\u043a\u0438\u0439", "UN_LOCODE": "---", "country": "[PE] Peru", "longitude": -76.79463, "latitude": -12.47633, "link": "https://www.myshiptracking.com//ru/ports/port-of-naplo-in-pe-peru-id-6938"},
{"name": "NAPOLI", "type": "\u041f\u043e\u0440\u0442", "size": "\u0421\u0440\u0435\u0434\u043d\u0438\u0439", "UN_LOCODE": "ITNAP", "country": "[IT] Italy", "longitude": 14.2773, "latitude": 40.832, "link": "https://www.myshiptracking.com//ru/ports/port-of-napoli-in-it-italy-id-308"},
{"name": "NAPPSVAGEN", "type": "\u041f\u043e\u0440\u0442", "size": "\u041c\u0430\u043b\u0435\u043d\u044c\u043a\u0438\u0439", "UN_LOCODE": "---", "country": "[NO] Norway", "longitude": 13.43608, "latitude": 68.1315, "link": "https://www.myshiptracking.com//ru/ports/port-of-nappsvagen-in-no-norway-id-5314"},
{"name": "NARAYANGANJ", "type": "\u041f\u043e\u0440\u0442", "size": "\u0411\u043e\u043b\u044c\u0448\u043e\u0439", "UN_LOCODE": "BDNAR", "country": "[BD] Bangladesh", "longitude": 90.50749, "latitude": 23.61606, "link": "https://www.myshiptracking.com//ru/ports/port-of-narayanganj-in-bd-bangladesh-id-3666"},
{"name": "NAROOMA", "type": "\u041f\u043e\u0440\u0442", "size": "\u0411\u043e\u043b\u044c\u0448\u043e\u0439", "UN_LOCODE": "AUQRX", "country": "[AU] Australia", "longitude": 150.12807, "latitude": -36.2122, "link": "https://www.myshiptracking.com//ru/ports/port-of-narooma-in-au-australia-id-3972"},
{"name": "NARVA-JOESUU", "type": "\u041f\u043e\u0440\u0442", "size": "X\u041c\u0430\u043b\u044b\u0439", "UN_LOCODE": "EENJS", "country": "[EE] Estonia", "longitude": 28.06024, "latitude": 59.46038, "link": "https://www.myshiptracking.com//ru/ports/port-of-narva-joesuu-in-ee-estonia-id-5664"},
{"name": "NARVIK", "type": "\u041f\u043e\u0440\u0442", "size": "\u0411\u043e\u043b\u044c\u0448\u043e\u0439", "UN_LOCODE": "NONVK", "country": "[NO] Norway", "longitude": 17.4076, "latitude": 68.4223, "link": "https://www.myshiptracking.com//ru/ports/port-of-narvik-in-no-norway-id-309"},
{"name": "NASHVILLE", "type": "\u041f\u043e\u0440\u0442", "size": "\u0411\u043e\u043b\u044c\u0448\u043e\u0439", "UN_LOCODE": "USBNA", "country": "[US] USA", "longitude": -86.77066, "latitude": 36.16143, "link": "https://www.myshiptracking.com//ru/ports/port-of-nashville-in-us-usa-id-6166"},
{"name": "NASIPIT", "type": "\u041f\u043e\u0440\u0442", "size": "\u0421\u0440\u0435\u0434\u043d\u0438\u0439", "UN_LOCODE": "PHNAS", "country": "[PH] Philippines", "longitude": 125.33364, "latitude": 8.9785, "link": "https://www.myshiptracking.com//ru/ports/port-of-nasipit-in-ph-philippines-id-5407"},
{"name": "NASSAU", "type": "\u041f\u043e\u0440\u0442", "size": "\u0411\u043e\u043b\u044c\u0448\u043e\u0439", "UN_LOCODE": "BSNAS", "country": "[BS] Bahamas", "longitude": -77.33209, "latitude": 25.08057, "link": "https://www.myshiptracking.com//ru/ports/port-of-nassau-in-bs-bahamas-id-7150"},
{"name": "NASSIT", "type": "\u041f\u043e\u0440\u0442", "size": "\u041c\u0430\u043b\u0435\u043d\u044c\u043a\u0438\u0439", "UN_LOCODE": "SLFNA", "country": "[SL] Sierra Leone", "longitude": -13.23577, "latitude": 8.49252, "link": "https://www.myshiptracking.com//ru/ports/port-of-nassit-in-sl-sierra-leone-id-3329"},
{"name": "NASVA", "type": "\u041f\u043e\u0440\u0442", "size": "X\u041c\u0430\u043b\u044b\u0439", "UN_LOCODE": "EENAS", "country": "[EE] Estonia", "longitude": 22.39695, "latitude": 58.21528, "link": "https://www.myshiptracking.com//ru/ports/port-of-nasva-in-ee-estonia-id-5650"},
{"name": "NATAL", "type": "\u041f\u043e\u0440\u0442", "size": "\u041c\u0430\u043b\u0435\u043d\u044c\u043a\u0438\u0439", "UN_LOCODE": "BRNAT", "country": "[BR] Brazil", "longitude": -35.20694, "latitude": -5.77439, "link": "https://www.myshiptracking.com//ru/ports/port-of-natal-in-br-brazil-id-6640"},
{"name": "NATCHEZ", "type": "\u041f\u043e\u0440\u0442", "size": "\u0411\u043e\u043b\u044c\u0448\u043e\u0439", "UN_LOCODE": "USHEZ", "country": "[US] USA", "longitude": -91.4199, "latitude": 31.55627, "link": "https://www.myshiptracking.com//ru/ports/port-of-natchez-in-us-usa-id-6109"},
{"name": "NATOVI", "type": "\u041f\u043e\u0440\u0442", "size": "\u041c\u0430\u043b\u0435\u043d\u044c\u043a\u0438\u0439", "UN_LOCODE": "---", "country": "[FJ] Fiji", "longitude": 178.58671, "latitude": -17.67465, "link": "https://www.myshiptracking.com//ru/ports/port-of-natovi-in-fj-fiji-id-5756"},
{"name": "NATTARO", "type": "\u041f\u043e\u0440\u0442", "size": "X\u041c\u0430\u043b\u044b\u0439", "UN_LOCODE": "---", "country": "[SE] Sweden", "longitude": 18.1097, "latitude": 58.8821, "link": "https://www.myshiptracking.com//ru/ports/port-of-nattaro-in-se-sweden-id-5368"},
{"name": "NAUERNA", "type": "\u041f\u043e\u0440\u0442", "size": "\u041c\u0430\u043b\u0435\u043d\u044c\u043a\u0438\u0439", "UN_LOCODE": "---", "country": "[NL] Netherlands", "longitude": 4.75249, "latitude": 52.43863, "link": "https://www.myshiptracking.com//ru/ports/port-of-nauerna-in-nl-netherlands-id-1118"},
{"name": "NAVA BANDAR", "type": "\u041f\u043e\u0440\u0442", "size": "\u041c\u0430\u043b\u0435\u043d\u044c\u043a\u0438\u0439", "UN_LOCODE": "INNVB", "country": "[IN] India", "longitude": 71.08147, "latitude": 20.74234, "link": "https://www.myshiptracking.com//ru/ports/port-of-nava-bandar-in-in-india-id-3625"},
{"name": "NAVEGANTES", "type": "\u041f\u043e\u0440\u0442", "size": "\u041c\u0430\u043b\u0435\u043d\u044c\u043a\u0438\u0439", "UN_LOCODE": "BRNVT", "country": "[BR] Brazil", "longitude": -48.6607, "latitude": -26.8984, "link": "https://www.myshiptracking.com//ru/ports/port-of-navegantes-in-br-brazil-id-6657"},
{"name": "NAVEKVARN", "type": "\u041f\u043e\u0440\u0442", "size": "\u041c\u0430\u043b\u0435\u043d\u044c\u043a\u0438\u0439", "UN_LOCODE": "SENAV", "country": "[SE] Sweden", "longitude": 16.79873, "latitude": 58.62396, "link": "https://www.myshiptracking.com//ru/ports/port-of-navekvarn-in-se-sweden-id-2215"},
{"name": "NAVIA", "type": "\u041f\u043e\u0440\u0442", "size": "\u041c\u0430\u043b\u0435\u043d\u044c\u043a\u0438\u0439", "UN_LOCODE": "ESNAV", "country": "[ES] Spain", "longitude": -6.72442, "latitude": 43.54269, "link": "https://www.myshiptracking.com//ru/ports/port-of-navia-in-es-spain-id-2676"},
{"name": "NAWILIWILI", "type": "\u041f\u043e\u0440\u0442", "size": "\u041c\u0430\u043b\u0435\u043d\u044c\u043a\u0438\u0439", "UN_LOCODE": "USNIJ", "country": "[US] USA", "longitude": -159.35344, "latitude": 21.95115, "link": "https://www.myshiptracking.com//ru/ports/port-of-nawiliwili-in-us-usa-id-6303"},
{"name": "NAXOS", "type": "\u041f\u043e\u0440\u0442", "size": "\u041c\u0430\u043b\u0435\u043d\u044c\u043a\u0438\u0439", "UN_LOCODE": "GRJNX", "country": "[GR] Greece", "longitude": 25.3709, "latitude": 37.1041, "link": "https://www.myshiptracking.com//ru/ports/port-of-naxos-in-gr-greece-id-22"},
{"name": "NAY BAND", "type": "\u041f\u043e\u0440\u0442", "size": "\u041c\u0430\u043b\u0435\u043d\u044c\u043a\u0438\u0439", "UN_LOCODE": "---", "country": "[IR] Iran", "longitude": 52.6262, "latitude": 27.34985, "link": "https://www.myshiptracking.com//ru/ports/port-of-nay-band-in-ir-iran-id-3547"},
{"name": "NEA ARTAKI", "type": "\u0413\u0430\u0432\u0430\u043d\u044c", "size": "X\u041c\u0430\u043b\u044b\u0439", "UN_LOCODE": "GRNAR", "country": "[GR] Greece", "longitude": 23.63307, "latitude": 38.51112, "link": "https://www.myshiptracking.com//ru/ports/marina-of-nea-artaki-in-gr-greece-id-733"},
{"name": "NEA FOKAIA", "type": "\u0413\u0430\u0432\u0430\u043d\u044c", "size": "X\u041c\u0430\u043b\u044b\u0439", "UN_LOCODE": "---", "country": "[GR] Greece", "longitude": 23.40215, "latitude": 40.13429, "link": "https://www.myshiptracking.com//ru/ports/marina-of-nea-fokaia-in-gr-greece-id-840"},
{"name": "NEA KALLIKRATEIA", "type": "\u0413\u0430\u0432\u0430\u043d\u044c", "size": "X\u041c\u0430\u043b\u044b\u0439", "UN_LOCODE": "GRNKA", "country": "[GR] Greece", "longitude": 23.05574, "latitude": 40.31033, "link": "https://www.myshiptracking.com//ru/ports/marina-of-nea-kallikrateia-in-gr-greece-id-675"},
{"name": "NEA KARVALI", "type": "\u041f\u043e\u0440\u0442", "size": "\u041c\u0430\u043b\u0435\u043d\u044c\u043a\u0438\u0439", "UN_LOCODE": "GRNKV", "country": "[GR] Greece", "longitude": 24.479, "latitude": 40.947, "link": "https://www.myshiptracking.com//ru/ports/port-of-nea-karvali-in-gr-greece-id-310"},
{"name": "NEA KIOS", "type": "\u0413\u0430\u0432\u0430\u043d\u044c", "size": "X\u041c\u0430\u043b\u044b\u0439", "UN_LOCODE": "GRNKS", "country": "[GR] Greece", "longitude": 22.74731, "latitude": 37.58293, "link": "https://www.myshiptracking.com//ru/ports/marina-of-nea-kios-in-gr-greece-id-576"},
{"name": "NEA MAKRI", "type": "\u0413\u0430\u0432\u0430\u043d\u044c", "size": "X\u041c\u0430\u043b\u044b\u0439", "UN_LOCODE": "---", "country": "[GR] Greece", "longitude": 23.98337, "latitude": 38.08819, "link": "https://www.myshiptracking.com//ru/ports/marina-of-nea-makri-in-gr-greece-id-671"},
{"name": "NEA MICHANIONA", "type": "\u041f\u043e\u0440\u0442", "size": "\u041c\u0430\u043b\u0435\u043d\u044c\u043a\u0438\u0439", "UN_LOCODE": "---", "country": "[GR] Greece", "longitude": 22.8565, "latitude": 40.46086, "link": "https://www.myshiptracking.com//ru/ports/port-of-nea-michaniona-in-gr-greece-id-621"},
{"name": "NEA MOUDANIA", "type": "\u041f\u043e\u0440\u0442", "size": "\u041c\u0430\u043b\u0435\u043d\u044c\u043a\u0438\u0439", "UN_LOCODE": "GRNMA", "country": "[GR] Greece", "longitude": 23.27855, "latitude": 40.23613, "link": "https://www.myshiptracking.com//ru/ports/port-of-nea-moudania-in-gr-greece-id-510"},
{"name": "NEA SCIONE", "type": "\u0413\u0430\u0432\u0430\u043d\u044c", "size": "X\u041c\u0430\u043b\u044b\u0439", "UN_LOCODE": "---", "country": "[GR] Greece", "longitude": 23.52823, "latitude": 39.94619, "link": "https://www.myshiptracking.com//ru/ports/marina-of-nea-scione-in-gr-greece-id-714"},
{"name": "NEA STIRA", "type": "\u041f\u043e\u0440\u0442", "size": "\u041c\u0430\u043b\u0435\u043d\u044c\u043a\u0438\u0439", "UN_LOCODE": "GRNST", "country": "[GR] Greece", "longitude": 24.20517, "latitude": 38.17344, "link": "https://www.myshiptracking.com//ru/ports/port-of-nea-stira-in-gr-greece-id-504"},
{"name": "NEAPOLI", "type": "\u041f\u043e\u0440\u0442", "size": "\u0411\u043e\u043b\u044c\u0448\u043e\u0439", "UN_LOCODE": "GRNEA", "country": "[GR] Greece", "longitude": 23.05407, "latitude": 36.50681, "link": "https://www.myshiptracking.com//ru/ports/port-of-neapoli-in-gr-greece-id-507"},
{"name": "NECOCHEA", "type": "\u041f\u043e\u0440\u0442", "size": "\u0411\u043e\u043b\u044c\u0448\u043e\u0439", "UN_LOCODE": "ARNEC", "country": "[AR] Argentina", "longitude": -58.7117, "latitude": -38.57464, "link": "https://www.myshiptracking.com//ru/ports/port-of-necochea-in-ar-argentina-id-6774"},
{"name": "NEDERHEMERT", "type": "\u041f\u043e\u0440\u0442", "size": "\u041c\u0430\u043b\u0435\u043d\u044c\u043a\u0438\u0439", "UN_LOCODE": "NLZBA", "country": "[NL] Netherlands", "longitude": 5.16666, "latitude": 51.762, "link": "https://www.myshiptracking.com//ru/ports/port-of-nederhemert-in-nl-netherlands-id-986"}]
