[{"name": "GANSBAAI", "type": "\u041f\u043e\u0440\u0442", "size": "\u041c\u0430\u043b\u0435\u043d\u044c\u043a\u0438\u0439", "UN_LOCODE": "---", "country": "[ZA] South Africa", "longitude": 19.3426, "latitude": -34.58416, "link": "https://www.myshiptracking.com//ru/ports/port-of-gansbaai-in-za-south-africa-id-3403"},
{"name": "GANYU", "type": "\u041f\u043e\u0440\u0442", "size": "X\u0411\u043e\u043b\u044c\u0449\u043e\u0439", "UN_LOCODE": "---", "country": "[CN] China", "longitude": 119.19714, "latitude": 34.83439, "link": "https://www.myshiptracking.com//ru/ports/port-of-ganyu-in-cn-china-id-4224"},
{"name": "GANZENDIEP", "type": "\u0413\u0430\u0432\u0430\u043d\u044c", "size": "X\u041c\u0430\u043b\u044b\u0439", "UN_LOCODE": "---", "country": "[NL] Netherlands", "longitude": 5.91803, "latitude": 52.57499, "link": "https://www.myshiptracking.com//ru/ports/marina-of-ganzendiep-in-nl-netherlands-id-1068"},
{"name": "GAOGANG", "type": "\u041f\u043e\u0440\u0442", "size": "X\u0411\u043e\u043b\u044c\u0449\u043e\u0439", "UN_LOCODE": "CNGAO", "country": "[CN] China", "longitude": 119.85348, "latitude": 32.28861, "link": "https://www.myshiptracking.com//ru/ports/port-of-gaogang-in-cn-china-id-4220"},
{"name": "GAOMING", "type": "\u041f\u043e\u0440\u0442", "size": "\u041c\u0430\u043b\u0435\u043d\u044c\u043a\u0438\u0439", "UN_LOCODE": "CNGOM", "country": "[CN] China", "longitude": 112.89026, "latitude": 22.90548, "link": "https://www.myshiptracking.com//ru/ports/port-of-gaoming-in-cn-china-id-4137"},
{"name": "GARCIA HERNANDEZ", "type": "\u041f\u043e\u0440\u0442", "size": "\u041c\u0430\u043b\u0435\u043d\u044c\u043a\u0438\u0439", "UN_LOCODE": "PHGHE", "country": "[PH] Philippines", "longitude": 124.30806, "latitude": 9.61522, "link": "https://www.myshiptracking.com//ru/ports/port-of-garcia-hernandez-in-ph-philippines-id-5405"},
{"name": "GARDENSTOWN", "type": "\u0413\u0430\u0432\u0430\u043d\u044c", "size": "\u041c\u0430\u043b\u0435\u043d\u044c\u043a\u0438\u0439", "UN_LOCODE": "GBGDN", "country": "[GB] United Kingdom", "longitude": -2.33708, "latitude": 57.67418, "link": "https://www.myshiptracking.com//ru/ports/marina-of-gardenstown-in-gb-united-kingdom-id-2295"},
{"name": "GARLIESTON", "type": "\u0413\u0430\u0432\u0430\u043d\u044c", "size": "\u041c\u0430\u043b\u0435\u043d\u044c\u043a\u0438\u0439", "UN_LOCODE": "GBGIS", "country": "[GB] United Kingdom", "longitude": -4.36442, "latitude": 54.78886, "link": "https://www.myshiptracking.com//ru/ports/marina-of-garlieston-in-gb-united-kingdom-id-2446"},
{"name": "GARNWERD", "type": "\u041f\u043e\u0440\u0442", "size": "X\u041c\u0430\u043b\u044b\u0439", "UN_LOCODE": "---", "country": "[NL] Netherlands", "longitude": 6.4942, "latitude": 53.30385, "link": "https://www.myshiptracking.com//ru/ports/port-of-garnwerd-in-nl-netherlands-id-928"},
{"name": "GARONGKONG", "type": "\u041f\u043e\u0440\u0442", "size": "\u0411\u043e\u043b\u044c\u0448\u043e\u0439", "UN_LOCODE": "---", "country": "[ID] Indonesia", "longitude": 119.61023, "latitude": -4.3711, "link": "https://www.myshiptracking.com//ru/ports/port-of-garongkong-in-id-indonesia-id-3717"},
{"name": "GARPAHAMNEN - HASSLO", "type": "\u041f\u043e\u0440\u0442", "size": "X\u041c\u0430\u043b\u044b\u0439", "UN_LOCODE": "SEGHO", "country": "[SE] Sweden", "longitude": 15.47618, "latitude": 56.10162, "link": "https://www.myshiptracking.com//ru/ports/port-of-garpahamnen-hasslo-in-se-sweden-id-5352"},
{"name": "GARRAF", "type": "\u041f\u043e\u0440\u0442", "size": "X\u041c\u0430\u043b\u044b\u0439", "UN_LOCODE": "---", "country": "[ES] Spain", "longitude": 1.90049, "latitude": 41.24962, "link": "https://www.myshiptracking.com//ru/ports/port-of-garraf-in-es-spain-id-1903"},
{"name": "GARRUCHA", "type": "\u041f\u043e\u0440\u0442", "size": "\u041c\u0430\u043b\u0435\u043d\u044c\u043a\u0438\u0439", "UN_LOCODE": "ESGAR", "country": "[ES] Spain", "longitude": -1.81718, "latitude": 37.18307, "link": "https://www.myshiptracking.com//ru/ports/port-of-garrucha-in-es-spain-id-1971"},
{"name": "GARSTON", "type": "\u041f\u043e\u0440\u0442", "size": "\u041c\u0430\u043b\u0435\u043d\u044c\u043a\u0438\u0439", "UN_LOCODE": "GBCSN", "country": "[GB] United Kingdom", "longitude": -2.90836, "latitude": 53.34769, "link": "https://www.myshiptracking.com//ru/ports/port-of-garston-in-gb-united-kingdom-id-1628"},
{"name": "GARY HARBOR", "type": "\u041f\u043e\u0440\u0442", "size": "\u0411\u043e\u043b\u044c\u0448\u043e\u0439", "UN_LOCODE": "USGYY", "country": "[US] USA", "longitude": -87.31991, "latitude": 41.6257, "link": "https://www.myshiptracking.com//ru/ports/port-of-gary-harbor-in-us-usa-id-6004"},
{"name": "GASHEH", "type": "\u041f\u043e\u0440\u0442", "size": "\u041c\u0430\u043b\u0435\u043d\u044c\u043a\u0438\u0439", "UN_LOCODE": "---", "country": "[IR] Iran", "longitude": 54.8515, "latitude": 26.5209, "link": "https://www.myshiptracking.com//ru/ports/port-of-gasheh-in-ir-iran-id-3604"},
{"name": "GASPE", "type": "\u041f\u043e\u0440\u0442", "size": "\u041c\u0430\u043b\u0435\u043d\u044c\u043a\u0438\u0439", "UN_LOCODE": "CAGPE", "country": "[CA] Canada", "longitude": -64.43973, "latitude": 48.82498, "link": "https://www.myshiptracking.com//ru/ports/port-of-gaspe-in-ca-canada-id-6496"},
{"name": "GATTEVILLE LE PHARE", "type": "\u041f\u043e\u0440\u0442", "size": "X\u041c\u0430\u043b\u044b\u0439", "UN_LOCODE": "---", "country": "[FR] France", "longitude": -1.27841, "latitude": 49.69379, "link": "https://www.myshiptracking.com//ru/ports/port-of-gatteville-le-phare-in-fr-france-id-1734"},
{"name": "GAULTOIS", "type": "\u041f\u043e\u0440\u0442", "size": "\u041c\u0430\u043b\u0435\u043d\u044c\u043a\u0438\u0439", "UN_LOCODE": "---", "country": "[CA] Canada", "longitude": -55.90161, "latitude": 47.60745, "link": "https://www.myshiptracking.com//ru/ports/port-of-gaultois-in-ca-canada-id-6438"},
{"name": "GAVDOS", "type": "\u041f\u043e\u0440\u0442", "size": "X\u041c\u0430\u043b\u044b\u0439", "UN_LOCODE": "GRGAD", "country": "[GR] Greece", "longitude": 24.11799, "latitude": 34.8473, "link": "https://www.myshiptracking.com//ru/ports/port-of-gavdos-in-gr-greece-id-641"},
{"name": "GAVLE", "type": "\u041f\u043e\u0440\u0442", "size": "\u0411\u043e\u043b\u044c\u0448\u043e\u0439", "UN_LOCODE": "SEGVX", "country": "[SE] Sweden", "longitude": 17.1869, "latitude": 60.6833, "link": "https://www.myshiptracking.com//ru/ports/port-of-gavle-in-se-sweden-id-177"},
{"name": "GAZENICA", "type": "\u041f\u043e\u0440\u0442", "size": "\u041c\u0430\u043b\u0435\u043d\u044c\u043a\u0438\u0439", "UN_LOCODE": "HRGNA", "country": "[HR] Croatia", "longitude": 15.25502, "latitude": 44.09074, "link": "https://www.myshiptracking.com//ru/ports/port-of-gazenica-in-hr-croatia-id-2801"},
{"name": "GBANGBATOK", "type": "\u041f\u043e\u0440\u0442", "size": "X\u041c\u0430\u043b\u044b\u0439", "UN_LOCODE": "SLGBK", "country": "[SL] Sierra Leone", "longitude": -12.38748, "latitude": 7.8053, "link": "https://www.myshiptracking.com//ru/ports/port-of-gbangbatok-in-sl-sierra-leone-id-3325"},
{"name": "GDANSK", "type": "\u041f\u043e\u0440\u0442", "size": "X\u0411\u043e\u043b\u044c\u0449\u043e\u0439", "UN_LOCODE": "PLGDN", "country": "[PL] Poland", "longitude": 18.65866, "latitude": 54.3812, "link": "https://www.myshiptracking.com//ru/ports/port-of-gdansk-in-pl-poland-id-178"},
{"name": "GDYNIA", "type": "\u041f\u043e\u0440\u0442", "size": "\u0411\u043e\u043b\u044c\u0448\u043e\u0439", "UN_LOCODE": "PLGDY", "country": "[PL] Poland", "longitude": 18.5388, "latitude": 54.5352, "link": "https://www.myshiptracking.com//ru/ports/port-of-gdynia-in-pl-poland-id-179"},
{"name": "GEBZE", "type": "\u041f\u043e\u0440\u0442", "size": "\u0421\u0440\u0435\u0434\u043d\u0438\u0439", "UN_LOCODE": "TRGEB", "country": "[TR] Turkey", "longitude": 29.37963, "latitude": 40.75342, "link": "https://www.myshiptracking.com//ru/ports/port-of-gebze-in-tr-turkey-id-2146"},
{"name": "GEDSER", "type": "\u041f\u043e\u0440\u0442", "size": "X\u041c\u0430\u043b\u044b\u0439", "UN_LOCODE": "DKGED", "country": "[DK] Denmark", "longitude": 11.92624, "latitude": 54.57179, "link": "https://www.myshiptracking.com//ru/ports/port-of-gedser-in-dk-denmark-id-2639"},
{"name": "GEELONG", "type": "\u041f\u043e\u0440\u0442", "size": "\u0411\u043e\u043b\u044c\u0448\u043e\u0439", "UN_LOCODE": "AUGEX", "country": "[AU] Australia", "longitude": 144.36911, "latitude": -38.1147, "link": "https://www.myshiptracking.com//ru/ports/port-of-geelong-in-au-australia-id-180"},
{"name": "GEERSDIJKSEKAAI", "type": "\u0413\u0430\u0432\u0430\u043d\u044c", "size": "X\u041c\u0430\u043b\u044b\u0439", "UN_LOCODE": "---", "country": "[NL] Netherlands", "longitude": 3.76199, "latitude": 51.55471, "link": "https://www.myshiptracking.com//ru/ports/marina-of-geersdijksekaai-in-nl-netherlands-id-931"},
{"name": "GEERTRUIDENBERG", "type": "\u041f\u043e\u0440\u0442", "size": "\u0421\u0440\u0435\u0434\u043d\u0438\u0439", "UN_LOCODE": "NLGTB", "country": "[NL] Netherlands", "longitude": 4.85244, "latitude": 51.70022, "link": "https://www.myshiptracking.com//ru/ports/port-of-geertruidenberg-in-nl-netherlands-id-871"},
{"name": "GEESTHACHT", "type": "\u041f\u043e\u0440\u0442", "size": "\u041c\u0430\u043b\u0435\u043d\u044c\u043a\u0438\u0439", "UN_LOCODE": "DEGET", "country": "[DE] Germany", "longitude": 10.3588, "latitude": 53.42958, "link": "https://www.myshiptracking.com//ru/ports/port-of-geesthacht-in-de-germany-id-1512"},
{"name": "GEILSTON BAY", "type": "\u041f\u043e\u0440\u0442", "size": "\u041c\u0430\u043b\u0435\u043d\u044c\u043a\u0438\u0439", "UN_LOCODE": "---", "country": "[AU] Australia", "longitude": 147.34006, "latitude": -42.83991, "link": "https://www.myshiptracking.com//ru/ports/port-of-geilston-bay-in-au-australia-id-3857"},
{"name": "GEINSHEIM", "type": "\u041f\u043e\u0440\u0442", "size": "\u041c\u0430\u043b\u0435\u043d\u044c\u043a\u0438\u0439", "UN_LOCODE": "DEGIH", "country": "[DE] Germany", "longitude": 8.47489, "latitude": 49.7541, "link": "https://www.myshiptracking.com//ru/ports/port-of-geinsheim-in-de-germany-id-2575"},
{"name": "GEIRANGER", "type": "\u041f\u043e\u0440\u0442", "size": "X\u041c\u0430\u043b\u044b\u0439", "UN_LOCODE": "NOGNR", "country": "[NO] Norway", "longitude": 7.20193, "latitude": 62.1028, "link": "https://www.myshiptracking.com//ru/ports/port-of-geiranger-in-no-norway-id-5071"},
{"name": "GEITANGER", "type": "\u041f\u043e\u0440\u0442", "size": "X\u041c\u0430\u043b\u044b\u0439", "UN_LOCODE": "---", "country": "[NO] Norway", "longitude": 5.06779, "latitude": 60.39288, "link": "https://www.myshiptracking.com//ru/ports/port-of-geitanger-in-no-norway-id-5295"},
{"name": "GELA", "type": "\u041f\u043e\u0440\u0442", "size": "\u0411\u043e\u043b\u044c\u0448\u043e\u0439", "UN_LOCODE": "ITGEA", "country": "[IT] Italy", "longitude": 14.24763, "latitude": 37.03823, "link": "https://www.myshiptracking.com//ru/ports/port-of-gela-in-it-italy-id-2085"},
{"name": "GELENDZHIK", "type": "\u041f\u043e\u0440\u0442", "size": "\u0411\u043e\u043b\u044c\u0448\u043e\u0439", "UN_LOCODE": "RUGDZ", "country": "[RU] Russia", "longitude": 38.04557, "latitude": 44.56976, "link": "https://www.myshiptracking.com//ru/ports/port-of-gelendzhik-in-ru-russia-id-3069"},
{"name": "GELIBOLU", "type": "\u041f\u043e\u0440\u0442", "size": "\u041c\u0430\u043b\u0435\u043d\u044c\u043a\u0438\u0439", "UN_LOCODE": "TRGEL", "country": "[TR] Turkey", "longitude": 26.6705, "latitude": 40.40447, "link": "https://www.myshiptracking.com//ru/ports/port-of-gelibolu-in-tr-turkey-id-2141"},
{"name": "GELKENES", "type": "\u041f\u043e\u0440\u0442", "size": "\u041c\u0430\u043b\u0435\u043d\u044c\u043a\u0438\u0439", "UN_LOCODE": "---", "country": "[NL] Netherlands", "longitude": 4.84618, "latitude": 51.93948, "link": "https://www.myshiptracking.com//ru/ports/port-of-gelkenes-in-nl-netherlands-id-1115"},
{"name": "GELMER", "type": "\u041f\u043e\u0440\u0442", "size": "X\u041c\u0430\u043b\u044b\u0439", "UN_LOCODE": "---", "country": "[DE] Germany", "longitude": 7.66441, "latitude": 52.01738, "link": "https://www.myshiptracking.com//ru/ports/port-of-gelmer-in-de-germany-id-1384"},
{"name": "GELSENKIRCHEN", "type": "\u041f\u043e\u0440\u0442", "size": "\u0411\u043e\u043b\u044c\u0448\u043e\u0439", "UN_LOCODE": "DEGEK", "country": "[DE] Germany", "longitude": 7.0797, "latitude": 51.54141, "link": "https://www.myshiptracking.com//ru/ports/port-of-gelsenkirchen-in-de-germany-id-1418"},
{"name": "GEMLIK", "type": "\u041f\u043e\u0440\u0442", "size": "\u0411\u043e\u043b\u044c\u0448\u043e\u0439", "UN_LOCODE": "TRGEM", "country": "[TR] Turkey", "longitude": 29.09996, "latitude": 40.41989, "link": "https://www.myshiptracking.com//ru/ports/port-of-gemlik-in-tr-turkey-id-2116"},
{"name": "GENDEREN", "type": "\u041f\u043e\u0440\u0442", "size": "X\u041c\u0430\u043b\u044b\u0439", "UN_LOCODE": "NLGND", "country": "[NL] Netherlands", "longitude": 5.09364, "latitude": 51.73139, "link": "https://www.myshiptracking.com//ru/ports/port-of-genderen-in-nl-netherlands-id-1003"},
{"name": "GENEMUIDEN", "type": "\u041f\u043e\u0440\u0442", "size": "\u0421\u0440\u0435\u0434\u043d\u0438\u0439", "UN_LOCODE": "NLGNM", "country": "[NL] Netherlands", "longitude": 6.04814, "latitude": 52.62468, "link": "https://www.myshiptracking.com//ru/ports/port-of-genemuiden-in-nl-netherlands-id-942"},
{"name": "GENERAL LAVALLE", "type": "\u041f\u043e\u0440\u0442", "size": "\u041c\u0430\u043b\u0435\u043d\u044c\u043a\u0438\u0439", "UN_LOCODE": "ARGLV", "country": "[AR] Argentina", "longitude": -56.94745, "latitude": -36.3986, "link": "https://www.myshiptracking.com//ru/ports/port-of-general-lavalle-in-ar-argentina-id-6780"},
{"name": "GENERAL SANTOS", "type": "\u041f\u043e\u0440\u0442", "size": "X\u0411\u043e\u043b\u044c\u0449\u043e\u0439", "UN_LOCODE": "PHGES", "country": "[PH] Philippines", "longitude": 125.17011, "latitude": 6.08289, "link": "https://www.myshiptracking.com//ru/ports/port-of-general-santos-in-ph-philippines-id-5421"},
{"name": "GENK", "type": "\u041f\u043e\u0440\u0442", "size": "\u0421\u0440\u0435\u0434\u043d\u0438\u0439", "UN_LOCODE": "BEGNK", "country": "[BE] Belgium", "longitude": 5.50002, "latitude": 50.93745, "link": "https://www.myshiptracking.com//ru/ports/port-of-genk-in-be-belgium-id-2549"},
{"name": "GENNEP", "type": "\u041f\u043e\u0440\u0442", "size": "\u041c\u0430\u043b\u0435\u043d\u044c\u043a\u0438\u0439", "UN_LOCODE": "NLGEN", "country": "[NL] Netherlands", "longitude": 5.96828, "latitude": 51.68395, "link": "https://www.myshiptracking.com//ru/ports/port-of-gennep-in-nl-netherlands-id-1120"},
{"name": "GENOVA", "type": "\u041f\u043e\u0440\u0442", "size": "X\u0411\u043e\u043b\u044c\u0449\u043e\u0439", "UN_LOCODE": "ITGOA", "country": "[IT] Italy", "longitude": 8.86222, "latitude": 44.4033, "link": "https://www.myshiptracking.com//ru/ports/port-of-genova-in-it-italy-id-181"},
{"name": "GENT", "type": "\u041f\u043e\u0440\u0442", "size": "X\u0411\u043e\u043b\u044c\u0449\u043e\u0439", "UN_LOCODE": "BEGNE", "country": "[BE] Belgium", "longitude": 3.73881, "latitude": 51.0805, "link": "https://www.myshiptracking.com//ru/ports/port-of-gent-in-be-belgium-id-182"}]
