[{"name": "AGUIRRE", "type": "\u041f\u043e\u0440\u0442", "size": "\u041c\u0430\u043b\u0435\u043d\u044c\u043a\u0438\u0439", "UN_LOCODE": "---", "country": "[PR] Puerto Rico", "longitude": -66.22513, "latitude": 17.94745, "link": "https://www.myshiptracking.com//ru/ports/port-of-aguirre-in-pr-puerto-rico-id-7006"},
{"name": "AHUS", "type": "\u041f\u043e\u0440\u0442", "size": "\u0421\u0440\u0435\u0434\u043d\u0438\u0439", "UN_LOCODE": "SEAHU", "country": "[SE] Sweden", "longitude": 14.31202, "latitude": 55.92621, "link": "https://www.myshiptracking.com//ru/ports/port-of-ahus-in-se-sweden-id-2249"},
{"name": "AIDIPSOS", "type": "\u041f\u043e\u0440\u0442", "size": "X\u041c\u0430\u043b\u044b\u0439", "UN_LOCODE": "GRAID", "country": "[GR] Greece", "longitude": 23.04061, "latitude": 38.85783, "link": "https://www.myshiptracking.com//ru/ports/port-of-aidipsos-in-gr-greece-id-460"},
{"name": "AIGIALI", "type": "\u041f\u043e\u0440\u0442", "size": "\u0421\u0440\u0435\u0434\u043d\u0438\u0439", "UN_LOCODE": "GRAIG", "country": "[GR] Greece", "longitude": 25.9719, "latitude": 36.9036, "link": "https://www.myshiptracking.com//ru/ports/port-of-aigiali-in-gr-greece-id-30"},
{"name": "AIGIO", "type": "\u041f\u043e\u0440\u0442", "size": "\u041c\u0430\u043b\u0435\u043d\u044c\u043a\u0438\u0439", "UN_LOCODE": "GRAEN", "country": "[GR] Greece", "longitude": 22.0831, "latitude": 38.2583, "link": "https://www.myshiptracking.com//ru/ports/port-of-aigio-in-gr-greece-id-44"},
{"name": "AIKAWA", "type": "\u041f\u043e\u0440\u0442", "size": "\u041c\u0430\u043b\u0435\u043d\u044c\u043a\u0438\u0439", "UN_LOCODE": "---", "country": "[JP] Japan", "longitude": 141.50284, "latitude": 38.60228, "link": "https://www.myshiptracking.com//ru/ports/port-of-aikawa-in-jp-japan-id-4979"},
{"name": "AINOURA", "type": "\u041f\u043e\u0440\u0442", "size": "\u041c\u0430\u043b\u0435\u043d\u044c\u043a\u0438\u0439", "UN_LOCODE": "JPAIN", "country": "[JP] Japan", "longitude": 129.65117, "latitude": 33.19361, "link": "https://www.myshiptracking.com//ru/ports/port-of-ainoura-in-jp-japan-id-4232"},
{"name": "AIO", "type": "\u041f\u043e\u0440\u0442", "size": "\u041c\u0430\u043b\u0435\u043d\u044c\u043a\u0438\u0439", "UN_LOCODE": "JPAII", "country": "[JP] Japan", "longitude": 131.4206, "latitude": 34.0094, "link": "https://www.myshiptracking.com//ru/ports/port-of-aio-in-jp-japan-id-4317"},
{"name": "AIOI", "type": "\u041f\u043e\u0440\u0442", "size": "\u0411\u043e\u043b\u044c\u0448\u043e\u0439", "UN_LOCODE": "JPAIO", "country": "[JP] Japan", "longitude": 134.46599, "latitude": 34.78232, "link": "https://www.myshiptracking.com//ru/ports/port-of-aioi-in-jp-japan-id-4577"},
{"name": "AIRLIE", "type": "\u041f\u043e\u0440\u0442", "size": "\u041c\u0430\u043b\u0435\u043d\u044c\u043a\u0438\u0439", "UN_LOCODE": "AUWSY", "country": "[AU] Australia", "longitude": 148.71773, "latitude": -20.26425, "link": "https://www.myshiptracking.com//ru/ports/port-of-airlie-in-au-australia-id-3933"},
{"name": "AITH", "type": "\u041f\u043e\u0440\u0442", "size": "X\u041c\u0430\u043b\u044b\u0439", "UN_LOCODE": "GBAIT", "country": "[GB] United Kingdom", "longitude": -1.37403, "latitude": 60.28628, "link": "https://www.myshiptracking.com//ru/ports/port-of-aith-in-gb-united-kingdom-id-1550"},
{"name": "AJACCIO", "type": "\u041f\u043e\u0440\u0442", "size": "\u041c\u0430\u043b\u0435\u043d\u044c\u043a\u0438\u0439", "UN_LOCODE": "FRAJA", "country": "[FR] France", "longitude": 8.74463, "latitude": 41.92232, "link": "https://www.myshiptracking.com//ru/ports/port-of-ajaccio-in-fr-france-id-1749"},
{"name": "AJICHO", "type": "\u041f\u043e\u0440\u0442", "size": "\u041c\u0430\u043b\u0435\u043d\u044c\u043a\u0438\u0439", "UN_LOCODE": "---", "country": "[JP] Japan", "longitude": 134.12414, "latitude": 34.38782, "link": "https://www.myshiptracking.com//ru/ports/port-of-ajicho-in-jp-japan-id-4281"},
{"name": "AJIM BAC", "type": "\u041f\u043e\u0440\u0442", "size": "X\u041c\u0430\u043b\u044b\u0439", "UN_LOCODE": "TNDJE", "country": "[TN] Tunisia", "longitude": 10.74079, "latitude": 33.71536, "link": "https://www.myshiptracking.com//ru/ports/port-of-ajim-bac-in-tn-tunisia-id-3214"},
{"name": "AJIRO", "type": "\u041f\u043e\u0440\u0442", "size": "\u0421\u0440\u0435\u0434\u043d\u0438\u0439", "UN_LOCODE": "JPAJR", "country": "[JP] Japan", "longitude": 139.0796, "latitude": 35.0534, "link": "https://www.myshiptracking.com//ru/ports/port-of-ajiro-in-jp-japan-id-4351"},
{"name": "AJMAN", "type": "\u041f\u043e\u0440\u0442", "size": "\u0411\u043e\u043b\u044c\u0448\u043e\u0439", "UN_LOCODE": "AEAJM", "country": "[AE] UAE", "longitude": 55.45059, "latitude": 25.4243, "link": "https://www.myshiptracking.com//ru/ports/port-of-ajman-in-ae-uae-id-3507"},
{"name": "AJOS", "type": "\u041f\u043e\u0440\u0442", "size": "\u0421\u0440\u0435\u0434\u043d\u0438\u0439", "UN_LOCODE": "FIAJO", "country": "[FI] Finland", "longitude": 24.51045, "latitude": 65.6606, "link": "https://www.myshiptracking.com//ru/ports/port-of-ajos-in-fi-finland-id-5632"},
{"name": "AKADOMARI", "type": "\u041f\u043e\u0440\u0442", "size": "\u041c\u0430\u043b\u0435\u043d\u044c\u043a\u0438\u0439", "UN_LOCODE": "JPAKD", "country": "[JP] Japan", "longitude": 138.41349, "latitude": 37.86498, "link": "https://www.myshiptracking.com//ru/ports/port-of-akadomari-in-jp-japan-id-4939"},
{"name": "AKAROA", "type": "\u041f\u043e\u0440\u0442", "size": "\u041c\u0430\u043b\u0435\u043d\u044c\u043a\u0438\u0439", "UN_LOCODE": "NZAKA", "country": "[NZ] New Zealand", "longitude": 172.9604, "latitude": -43.8067, "link": "https://www.myshiptracking.com//ru/ports/port-of-akaroa-in-nz-new-zealand-id-4066"},
{"name": "AKASAKI", "type": "\u041f\u043e\u0440\u0442", "size": "X\u041c\u0430\u043b\u044b\u0439", "UN_LOCODE": "JPASK", "country": "[JP] Japan", "longitude": 136.67497, "latitude": 37.16602, "link": "https://www.myshiptracking.com//ru/ports/port-of-akasaki-in-jp-japan-id-4239"},
{"name": "AKASHI", "type": "\u041f\u043e\u0440\u0442", "size": "\u041c\u0430\u043b\u0435\u043d\u044c\u043a\u0438\u0439", "UN_LOCODE": "JPAKA", "country": "[JP] Japan", "longitude": 134.99099, "latitude": 34.64229, "link": "https://www.myshiptracking.com//ru/ports/port-of-akashi-in-jp-japan-id-4845"},
{"name": "AKAUSHI", "type": "\u041f\u043e\u0440\u0442", "size": "X\u041c\u0430\u043b\u044b\u0439", "UN_LOCODE": "---", "country": "[JP] Japan", "longitude": 141.53811, "latitude": 38.79621, "link": "https://www.myshiptracking.com//ru/ports/port-of-akaushi-in-jp-japan-id-4833"},
{"name": "AKAZAKI", "type": "\u041f\u043e\u0440\u0442", "size": "X\u041c\u0430\u043b\u044b\u0439", "UN_LOCODE": "---", "country": "[JP] Japan", "longitude": 130.31987, "latitude": 32.51829, "link": "https://www.myshiptracking.com//ru/ports/port-of-akazaki-in-jp-japan-id-4579"},
{"name": "AKCAABAT", "type": "\u041f\u043e\u0440\u0442", "size": "X\u041c\u0430\u043b\u044b\u0439", "UN_LOCODE": "TRAKB", "country": "[TR] Turkey", "longitude": 39.56757, "latitude": 41.02575, "link": "https://www.myshiptracking.com//ru/ports/port-of-akcaabat-in-tr-turkey-id-3101"},
{"name": "AKCANSA", "type": "\u041f\u043e\u0440\u0442", "size": "\u041c\u0430\u043b\u0435\u043d\u044c\u043a\u0438\u0439", "UN_LOCODE": "TRAKC", "country": "[TR] Turkey", "longitude": 26.15227, "latitude": 39.88031, "link": "https://www.myshiptracking.com//ru/ports/port-of-akcansa-in-tr-turkey-id-3116"},
{"name": "AKCAY", "type": "\u041f\u043e\u0440\u0442", "size": "\u041c\u0430\u043b\u0435\u043d\u044c\u043a\u0438\u0439", "UN_LOCODE": "TRAKY", "country": "[TR] Turkey", "longitude": 26.87859, "latitude": 39.58415, "link": "https://www.myshiptracking.com//ru/ports/port-of-akcay-in-tr-turkey-id-3100"},
{"name": "AKERSLOOT", "type": "\u041f\u043e\u0440\u0442", "size": "\u041c\u0430\u043b\u0435\u043d\u044c\u043a\u0438\u0439", "UN_LOCODE": "NLAKL", "country": "[NL] Netherlands", "longitude": 4.74219, "latitude": 52.56239, "link": "https://www.myshiptracking.com//ru/ports/port-of-akersloot-in-nl-netherlands-id-1455"},
{"name": "AKITA", "type": "\u041f\u043e\u0440\u0442", "size": "\u0411\u043e\u043b\u044c\u0448\u043e\u0439", "UN_LOCODE": "JPAXT", "country": "[JP] Japan", "longitude": 140.0289, "latitude": 39.77401, "link": "https://www.myshiptracking.com//ru/ports/port-of-akita-in-jp-japan-id-4663"},
{"name": "AKITAFUNAGAWA", "type": "\u041f\u043e\u0440\u0442", "size": "\u0411\u043e\u043b\u044c\u0448\u043e\u0439", "UN_LOCODE": "JPAFG", "country": "[JP] Japan", "longitude": 139.85995, "latitude": 39.87594, "link": "https://www.myshiptracking.com//ru/ports/port-of-akitafunagawa-in-jp-japan-id-4289"},
{"name": "AKITSU", "type": "\u041f\u043e\u0440\u0442", "size": "\u0411\u043e\u043b\u044c\u0448\u043e\u0439", "UN_LOCODE": "JPAKT", "country": "[JP] Japan", "longitude": 132.81759, "latitude": 34.31274, "link": "https://www.myshiptracking.com//ru/ports/port-of-akitsu-in-jp-japan-id-4699"},
{"name": "AKKESHI", "type": "\u041f\u043e\u0440\u0442", "size": "\u041c\u0430\u043b\u0435\u043d\u044c\u043a\u0438\u0439", "UN_LOCODE": "JPAKE", "country": "[JP] Japan", "longitude": 144.83542, "latitude": 43.04253, "link": "https://www.myshiptracking.com//ru/ports/port-of-akkeshi-in-jp-japan-id-4397"},
{"name": "AKKRUM", "type": "\u041f\u043e\u0440\u0442", "size": "\u0421\u0440\u0435\u0434\u043d\u0438\u0439", "UN_LOCODE": "NLAKR", "country": "[NL] Netherlands", "longitude": 5.83853, "latitude": 53.05041, "link": "https://www.myshiptracking.com//ru/ports/port-of-akkrum-in-nl-netherlands-id-1112"},
{"name": "AKRANES", "type": "\u041f\u043e\u0440\u0442", "size": "\u041c\u0430\u043b\u0435\u043d\u044c\u043a\u0438\u0439", "UN_LOCODE": "ISAKR", "country": "[IS] Iceland", "longitude": -22.07595, "latitude": 64.31411, "link": "https://www.myshiptracking.com//ru/ports/port-of-akranes-in-is-iceland-id-5568"},
{"name": "AKRATA", "type": "\u0413\u0430\u0432\u0430\u043d\u044c", "size": "X\u041c\u0430\u043b\u044b\u0439", "UN_LOCODE": "---", "country": "[GR] Greece", "longitude": 22.31788, "latitude": 38.17219, "link": "https://www.myshiptracking.com//ru/ports/marina-of-akrata-in-gr-greece-id-835"},
{"name": "AKROTIRI", "type": "\u041f\u043e\u0440\u0442", "size": "X\u041c\u0430\u043b\u044b\u0439", "UN_LOCODE": "CYAKT", "country": "[CY] Cyprus", "longitude": 33.03251, "latitude": 34.5729, "link": "https://www.myshiptracking.com//ru/ports/port-of-akrotiri-in-cy-cyprus-id-3141"},
{"name": "AKTAU", "type": "\u041f\u043e\u0440\u0442", "size": "\u0411\u043e\u043b\u044c\u0448\u043e\u0439", "UN_LOCODE": "KZAAU", "country": "[KZ] Kazakhstan", "longitude": 51.21885, "latitude": 43.59, "link": "https://www.myshiptracking.com//ru/ports/port-of-aktau-in-kz-kazakhstan-id-5905"},
{"name": "AKTI YDRAS", "type": "\u0413\u0430\u0432\u0430\u043d\u044c", "size": "\u041c\u0430\u043b\u0435\u043d\u044c\u043a\u0438\u0439", "UN_LOCODE": "---", "country": "[GR] Greece", "longitude": 23.343, "latitude": 37.41413, "link": "https://www.myshiptracking.com//ru/ports/marina-of-akti-ydras-in-gr-greece-id-750"},
{"name": "AKUREYRI", "type": "\u041f\u043e\u0440\u0442", "size": "\u0411\u043e\u043b\u044c\u0448\u043e\u0439", "UN_LOCODE": "ISAKU", "country": "[IS] Iceland", "longitude": -18.07486, "latitude": 65.69186, "link": "https://www.myshiptracking.com//ru/ports/port-of-akureyri-in-is-iceland-id-5575"},
{"name": "AKUTAN", "type": "\u041f\u043e\u0440\u0442", "size": "\u041c\u0430\u043b\u0435\u043d\u044c\u043a\u0438\u0439", "UN_LOCODE": "USKQA", "country": "[US] USA", "longitude": -165.77904, "latitude": 54.13206, "link": "https://www.myshiptracking.com//ru/ports/port-of-akutan-in-us-usa-id-6246"},
{"name": "AKYARLAR", "type": "\u041f\u043e\u0440\u0442", "size": "X\u041c\u0430\u043b\u044b\u0439", "UN_LOCODE": "---", "country": "[TR] Turkey", "longitude": 27.29289, "latitude": 36.96701, "link": "https://www.myshiptracking.com//ru/ports/port-of-akyarlar-in-tr-turkey-id-2101"},
{"name": "AL ADABIYAH", "type": "\u041f\u043e\u0440\u0442", "size": "\u0411\u043e\u043b\u044c\u0448\u043e\u0439", "UN_LOCODE": "EGADA", "country": "[EG] Egypt", "longitude": 32.47822, "latitude": 29.88432, "link": "https://www.myshiptracking.com//ru/ports/port-of-al-adabiyah-in-eg-egypt-id-3172"},
{"name": "AL AQIR", "type": "\u041f\u043e\u0440\u0442", "size": "\u041c\u0430\u043b\u0435\u043d\u044c\u043a\u0438\u0439", "UN_LOCODE": "---", "country": "[AE] UAE", "longitude": 56.08397, "latitude": 26.04683, "link": "https://www.myshiptracking.com//ru/ports/port-of-al-aqir-in-ae-uae-id-3521"},
{"name": "AL ARISH", "type": "\u041f\u043e\u0440\u0442", "size": "\u041c\u0430\u043b\u0435\u043d\u044c\u043a\u0438\u0439", "UN_LOCODE": "---", "country": "[EG] Egypt", "longitude": 33.83695, "latitude": 31.15598, "link": "https://www.myshiptracking.com//ru/ports/port-of-al-arish-in-eg-egypt-id-3171"},
{"name": "AL ASHKHARAH", "type": "\u041f\u043e\u0440\u0442", "size": "\u041c\u0430\u043b\u0435\u043d\u044c\u043a\u0438\u0439", "UN_LOCODE": "---", "country": "[OM] Oman", "longitude": 59.5732, "latitude": 21.8529, "link": "https://www.myshiptracking.com//ru/ports/port-of-al-ashkharah-in-om-oman-id-3464"},
{"name": "AL DUQM", "type": "\u041f\u043e\u0440\u0442", "size": "\u0411\u043e\u043b\u044c\u0448\u043e\u0439", "UN_LOCODE": "---", "country": "[OM] Oman", "longitude": 57.70264, "latitude": 19.67852, "link": "https://www.myshiptracking.com//ru/ports/port-of-al-duqm-in-om-oman-id-3489"},
{"name": "AL HAMRA", "type": "\u041f\u043e\u0440\u0442", "size": "\u041c\u0430\u043b\u0435\u043d\u044c\u043a\u0438\u0439", "UN_LOCODE": "---", "country": "[AE] UAE", "longitude": 55.77868, "latitude": 25.69401, "link": "https://www.myshiptracking.com//ru/ports/port-of-al-hamra-in-ae-uae-id-3499"},
{"name": "AL HOCEIMA", "type": "\u041f\u043e\u0440\u0442", "size": "\u041c\u0430\u043b\u0435\u043d\u044c\u043a\u0438\u0439", "UN_LOCODE": "MAAHU", "country": "[MA] Morocco", "longitude": -3.9202, "latitude": 35.24757, "link": "https://www.myshiptracking.com//ru/ports/port-of-al-hoceima-in-ma-morocco-id-3293"},
{"name": "AL JAHRA", "type": "\u041f\u043e\u0440\u0442", "size": "\u0411\u043e\u043b\u044c\u0448\u043e\u0439", "UN_LOCODE": "KWJAH", "country": "[KW] Kuwait", "longitude": 47.80136, "latitude": 29.38768, "link": "https://www.myshiptracking.com//ru/ports/port-of-al-jahra-in-kw-kuwait-id-3525"},
{"name": "AL JAZEERA", "type": "\u041f\u043e\u0440\u0442", "size": "\u041c\u0430\u043b\u0435\u043d\u044c\u043a\u0438\u0439", "UN_LOCODE": "---", "country": "[AE] UAE", "longitude": 55.79998, "latitude": 25.71688, "link": "https://www.myshiptracking.com//ru/ports/port-of-al-jazeera-in-ae-uae-id-3492"},
{"name": "AL JISSAH", "type": "\u041f\u043e\u0440\u0442", "size": "\u041c\u0430\u043b\u0435\u043d\u044c\u043a\u0438\u0439", "UN_LOCODE": "---", "country": "[OM] Oman", "longitude": 58.65347, "latitude": 23.5484, "link": "https://www.myshiptracking.com//ru/ports/port-of-al-jissah-in-om-oman-id-3472"}]
