[{"name": "SKHIRA", "type": "\u041f\u043e\u0440\u0442", "size": "\u041c\u0430\u043b\u0435\u043d\u044c\u043a\u0438\u0439", "UN_LOCODE": "TNTBX", "country": "[TN] Tunisia", "longitude": 10.1556, "latitude": 34.3057, "link": "https://www.myshiptracking.com//ru/ports/port-of-skhira-in-tn-tunisia-id-3240"},
{"name": "SKHIRAT", "type": "\u041f\u043e\u0440\u0442", "size": "\u041c\u0430\u043b\u0435\u043d\u044c\u043a\u0438\u0439", "UN_LOCODE": "MAZSB", "country": "[MA] Morocco", "longitude": -7.04993, "latitude": 33.87208, "link": "https://www.myshiptracking.com//ru/ports/port-of-skhirat-in-ma-morocco-id-3285"},
{"name": "SKIATHOS", "type": "\u041f\u043e\u0440\u0442", "size": "X\u041c\u0430\u043b\u044b\u0439", "UN_LOCODE": "GRJSI", "country": "[GR] Greece", "longitude": 23.49322, "latitude": 39.16256, "link": "https://www.myshiptracking.com//ru/ports/port-of-skiathos-in-gr-greece-id-600"},
{"name": "SKIBAVIGA - OMBO", "type": "\u041f\u043e\u0440\u0442", "size": "X\u041c\u0430\u043b\u044b\u0439", "UN_LOCODE": "---", "country": "[NO] Norway", "longitude": 6.0972, "latitude": 59.2526, "link": "https://www.myshiptracking.com//ru/ports/port-of-skibaviga-ombo-in-no-norway-id-5226"},
{"name": "SKIKDA", "type": "\u041f\u043e\u0440\u0442", "size": "\u0411\u043e\u043b\u044c\u0448\u043e\u0439", "UN_LOCODE": "DZSKI", "country": "[DZ] Algeria", "longitude": 6.92331, "latitude": 36.89024, "link": "https://www.myshiptracking.com//ru/ports/port-of-skikda-in-dz-algeria-id-3250"},
{"name": "SKILLINGE", "type": "\u041f\u043e\u0440\u0442", "size": "X\u041c\u0430\u043b\u044b\u0439", "UN_LOCODE": "SESLE", "country": "[SE] Sweden", "longitude": 14.28478, "latitude": 55.47287, "link": "https://www.myshiptracking.com//ru/ports/port-of-skillinge-in-se-sweden-id-5367"},
{"name": "SKIPAVIK-GULEN", "type": "\u041f\u043e\u0440\u0442", "size": "\u041c\u0430\u043b\u0435\u043d\u044c\u043a\u0438\u0439", "UN_LOCODE": "NOSIP", "country": "[NO] Norway", "longitude": 5.0357, "latitude": 60.85646, "link": "https://www.myshiptracking.com//ru/ports/port-of-skipavik-gulen-in-no-norway-id-5079"},
{"name": "SKIVE", "type": "\u041f\u043e\u0440\u0442", "size": "\u041c\u0430\u043b\u0435\u043d\u044c\u043a\u0438\u0439", "UN_LOCODE": "DKSKV", "country": "[DK] Denmark", "longitude": 9.05584, "latitude": 56.5703, "link": "https://www.myshiptracking.com//ru/ports/port-of-skive-in-dk-denmark-id-2588"},
{"name": "SKJEBERGKILENS", "type": "\u0413\u0430\u0432\u0430\u043d\u044c", "size": "X\u041c\u0430\u043b\u044b\u0439", "UN_LOCODE": "---", "country": "[NO] Norway", "longitude": 11.15943, "latitude": 59.17886, "link": "https://www.myshiptracking.com//ru/ports/marina-of-skjebergkilens-in-no-norway-id-5131"},
{"name": "SKJERSHOLMANE", "type": "\u041f\u043e\u0440\u0442", "size": "X\u041c\u0430\u043b\u044b\u0439", "UN_LOCODE": "---", "country": "[NO] Norway", "longitude": 5.46824, "latitude": 59.75009, "link": "https://www.myshiptracking.com//ru/ports/port-of-skjersholmane-in-no-norway-id-5214"},
{"name": "SKOGN", "type": "\u041f\u043e\u0440\u0442", "size": "\u041c\u0430\u043b\u0435\u043d\u044c\u043a\u0438\u0439", "UN_LOCODE": "NOSKX", "country": "[NO] Norway", "longitude": 11.15308, "latitude": 63.71792, "link": "https://www.myshiptracking.com//ru/ports/port-of-skogn-in-no-norway-id-5128"},
{"name": "SKOPELOS", "type": "\u041f\u043e\u0440\u0442", "size": "\u0421\u0440\u0435\u0434\u043d\u0438\u0439", "UN_LOCODE": "GRSKO", "country": "[GR] Greece", "longitude": 23.733, "latitude": 39.129, "link": "https://www.myshiptracking.com//ru/ports/port-of-skopelos-in-gr-greece-id-53"},
{"name": "SKOPUN", "type": "\u041f\u043e\u0440\u0442", "size": "\u041c\u0430\u043b\u0435\u043d\u044c\u043a\u0438\u0439", "UN_LOCODE": "---", "country": "[FO] Faroe Is", "longitude": -6.8808, "latitude": 61.90469, "link": "https://www.myshiptracking.com//ru/ports/port-of-skopun-in-fo-faroe-is-id-5675"},
{"name": "SKUDENESHAVN", "type": "\u041f\u043e\u0440\u0442", "size": "\u041c\u0430\u043b\u0435\u043d\u044c\u043a\u0438\u0439", "UN_LOCODE": "NOSKU", "country": "[NO] Norway", "longitude": 5.26199, "latitude": 59.14415, "link": "https://www.myshiptracking.com//ru/ports/port-of-skudeneshavn-in-no-norway-id-5234"},
{"name": "SKULTE", "type": "\u041f\u043e\u0440\u0442", "size": "\u041c\u0430\u043b\u0435\u043d\u044c\u043a\u0438\u0439", "UN_LOCODE": "LVSKU", "country": "[LV] Latvia", "longitude": 24.40372, "latitude": 57.31589, "link": "https://www.myshiptracking.com//ru/ports/port-of-skulte-in-lv-latvia-id-5886"},
{"name": "SKYROS", "type": "\u041f\u043e\u0440\u0442", "size": "\u041c\u0430\u043b\u0435\u043d\u044c\u043a\u0438\u0439", "UN_LOCODE": "GRSKU", "country": "[GR] Greece", "longitude": 24.5326, "latitude": 38.8453, "link": "https://www.myshiptracking.com//ru/ports/port-of-skyros-in-gr-greece-id-37"},
{"name": "SLAGEN", "type": "\u041f\u043e\u0440\u0442", "size": "\u041c\u0430\u043b\u0435\u043d\u044c\u043a\u0438\u0439", "UN_LOCODE": "NOSGE", "country": "[NO] Norway", "longitude": 10.5133, "latitude": 59.3263, "link": "https://www.myshiptracking.com//ru/ports/port-of-slagen-in-no-norway-id-5256"},
{"name": "SLAVYANKA", "type": "\u041f\u043e\u0440\u0442", "size": "\u041c\u0430\u043b\u0435\u043d\u044c\u043a\u0438\u0439", "UN_LOCODE": "RUSKA", "country": "[RU] Russia", "longitude": 131.396, "latitude": 42.874, "link": "https://www.myshiptracking.com//ru/ports/port-of-slavyanka-in-ru-russia-id-3049"},
{"name": "SLEEUWIJK", "type": "\u041f\u043e\u0440\u0442", "size": "\u041c\u0430\u043b\u0435\u043d\u044c\u043a\u0438\u0439", "UN_LOCODE": "NLSWK", "country": "[NL] Netherlands", "longitude": 4.95753, "latitude": 51.81704, "link": "https://www.myshiptracking.com//ru/ports/port-of-sleeuwijk-in-nl-netherlands-id-1028"},
{"name": "SLEMMESTAD", "type": "\u041f\u043e\u0440\u0442", "size": "X\u041c\u0430\u043b\u044b\u0439", "UN_LOCODE": "NOSLM", "country": "[NO] Norway", "longitude": 10.501, "latitude": 59.78354, "link": "https://www.myshiptracking.com//ru/ports/port-of-slemmestad-in-no-norway-id-5220"},
{"name": "SLETTA BAATBYGGERI", "type": "\u041f\u043e\u0440\u0442", "size": "X\u041c\u0430\u043b\u044b\u0439", "UN_LOCODE": "---", "country": "[NO] Norway", "longitude": 8.50451, "latitude": 63.23057, "link": "https://www.myshiptracking.com//ru/ports/port-of-sletta-baatbyggeri-in-no-norway-id-5299"},
{"name": "SLIEDRECHT", "type": "\u041f\u043e\u0440\u0442", "size": "\u041c\u0430\u043b\u0435\u043d\u044c\u043a\u0438\u0439", "UN_LOCODE": "NLSLD", "country": "[NL] Netherlands", "longitude": 4.76101, "latitude": 51.82144, "link": "https://www.myshiptracking.com//ru/ports/port-of-sliedrecht-in-nl-netherlands-id-1246"},
{"name": "SLIGO", "type": "\u041f\u043e\u0440\u0442", "size": "\u0411\u043e\u043b\u044c\u0448\u043e\u0439", "UN_LOCODE": "IESLI", "country": "[IE] Ireland", "longitude": -8.48911, "latitude": 54.28297, "link": "https://www.myshiptracking.com//ru/ports/port-of-sligo-in-ie-ireland-id-2469"},
{"name": "SLITE", "type": "\u041f\u043e\u0440\u0442", "size": "\u041c\u0430\u043b\u0435\u043d\u044c\u043a\u0438\u0439", "UN_LOCODE": "SESLI", "country": "[SE] Sweden", "longitude": 18.8074, "latitude": 57.7164, "link": "https://www.myshiptracking.com//ru/ports/port-of-slite-in-se-sweden-id-387"},
{"name": "SLOTEN", "type": "\u041f\u043e\u0440\u0442", "size": "\u041c\u0430\u043b\u0435\u043d\u044c\u043a\u0438\u0439", "UN_LOCODE": "NLSLT", "country": "[NL] Netherlands", "longitude": 5.64639, "latitude": 52.8948, "link": "https://www.myshiptracking.com//ru/ports/port-of-sloten-in-nl-netherlands-id-1105"},
{"name": "SLOVAG", "type": "\u041f\u043e\u0440\u0442", "size": "\u041c\u0430\u043b\u0435\u043d\u044c\u043a\u0438\u0439", "UN_LOCODE": "NOSLV", "country": "[NO] Norway", "longitude": 5.0641, "latitude": 60.84732, "link": "https://www.myshiptracking.com//ru/ports/port-of-slovag-in-no-norway-id-5275"},
{"name": "SLUISKIL", "type": "\u041f\u043e\u0440\u0442", "size": "\u0421\u0440\u0435\u0434\u043d\u0438\u0439", "UN_LOCODE": "NLSLU", "country": "[NL] Netherlands", "longitude": 3.83619, "latitude": 51.27057, "link": "https://www.myshiptracking.com//ru/ports/port-of-sluiskil-in-nl-netherlands-id-895"},
{"name": "SMEDEREVO", "type": "\u041f\u043e\u0440\u0442", "size": "\u0411\u043e\u043b\u044c\u0448\u043e\u0439", "UN_LOCODE": "RSSMO", "country": "[RS] Serbia", "longitude": 20.93073, "latitude": 44.67504, "link": "https://www.myshiptracking.com//ru/ports/port-of-smederevo-in-rs-serbia-id-5826"},
{"name": "SMIR", "type": "\u0413\u0430\u0432\u0430\u043d\u044c", "size": "\u041c\u0430\u043b\u0435\u043d\u044c\u043a\u0438\u0439", "UN_LOCODE": "---", "country": "[MA] Morocco", "longitude": -5.33996, "latitude": 35.7536, "link": "https://www.myshiptracking.com//ru/ports/marina-of-smir-in-ma-morocco-id-3308"},
{"name": "SMOGEN", "type": "\u041f\u043e\u0440\u0442", "size": "\u041c\u0430\u043b\u0435\u043d\u044c\u043a\u0438\u0439", "UN_LOCODE": "SESMO", "country": "[SE] Sweden", "longitude": 11.22991, "latitude": 58.35327, "link": "https://www.myshiptracking.com//ru/ports/port-of-smogen-in-se-sweden-id-2232"},
{"name": "SNACKO", "type": "\u041f\u043e\u0440\u0442", "size": "X\u041c\u0430\u043b\u044b\u0439", "UN_LOCODE": "---", "country": "[FI] Finland", "longitude": 20.72687, "latitude": 60.21827, "link": "https://www.myshiptracking.com//ru/ports/port-of-snacko-in-fi-finland-id-5617"},
{"name": "SNAPTUN", "type": "\u041f\u043e\u0440\u0442", "size": "X\u041c\u0430\u043b\u044b\u0439", "UN_LOCODE": "---", "country": "[DK] Denmark", "longitude": 10.05321, "latitude": 55.82259, "link": "https://www.myshiptracking.com//ru/ports/port-of-snaptun-in-dk-denmark-id-2586"},
{"name": "SNEEK", "type": "\u041f\u043e\u0440\u0442", "size": "\u0411\u043e\u043b\u044c\u0448\u043e\u0439", "UN_LOCODE": "NLSNK", "country": "[NL] Netherlands", "longitude": 5.66141, "latitude": 53.03418, "link": "https://www.myshiptracking.com//ru/ports/port-of-sneek-in-nl-netherlands-id-1226"},
{"name": "SOBRA", "type": "\u041f\u043e\u0440\u0442", "size": "\u041c\u0430\u043b\u0435\u043d\u044c\u043a\u0438\u0439", "UN_LOCODE": "HRSBR", "country": "[HR] Croatia", "longitude": 17.6082, "latitude": 42.741, "link": "https://www.myshiptracking.com//ru/ports/port-of-sobra-in-hr-croatia-id-2807"},
{"name": "SOCHI", "type": "\u041f\u043e\u0440\u0442", "size": "\u041c\u0430\u043b\u0435\u043d\u044c\u043a\u0438\u0439", "UN_LOCODE": "RUSOC", "country": "[RU] Russia", "longitude": 39.7161, "latitude": 43.57519, "link": "https://www.myshiptracking.com//ru/ports/port-of-sochi-in-ru-russia-id-2981"},
{"name": "SOCOPE", "type": "\u041f\u043e\u0440\u0442", "size": "X\u041c\u0430\u043b\u044b\u0439", "UN_LOCODE": "---", "country": "[CD] DR Congo", "longitude": 13.43185, "latitude": -5.85805, "link": "https://www.myshiptracking.com//ru/ports/port-of-socope-in-cd-dr-congo-id-3378"},
{"name": "SODEHAMA", "type": "\u041f\u043e\u0440\u0442", "size": "X\u041c\u0430\u043b\u044b\u0439", "UN_LOCODE": "---", "country": "[JP] Japan", "longitude": 141.51179, "latitude": 38.51249, "link": "https://www.myshiptracking.com//ru/ports/port-of-sodehama-in-jp-japan-id-4761"},
{"name": "SODERTALJE", "type": "\u041f\u043e\u0440\u0442", "size": "\u0411\u043e\u043b\u044c\u0448\u043e\u0439", "UN_LOCODE": "SESOE", "country": "[SE] Sweden", "longitude": 17.6467, "latitude": 59.1838, "link": "https://www.myshiptracking.com//ru/ports/port-of-sodertalje-in-se-sweden-id-388"},
{"name": "SOEBY", "type": "\u041f\u043e\u0440\u0442", "size": "X\u041c\u0430\u043b\u044b\u0439", "UN_LOCODE": "DKSOB", "country": "[DK] Denmark", "longitude": 10.25811, "latitude": 54.94303, "link": "https://www.myshiptracking.com//ru/ports/port-of-soeby-in-dk-denmark-id-2625"},
{"name": "SOGNDAL", "type": "\u041f\u043e\u0440\u0442", "size": "\u041c\u0430\u043b\u0435\u043d\u044c\u043a\u0438\u0439", "UN_LOCODE": "NOSOG", "country": "[NO] Norway", "longitude": 7.10567, "latitude": 61.228, "link": "https://www.myshiptracking.com//ru/ports/port-of-sogndal-in-no-norway-id-5099"},
{"name": "SOGUT", "type": "\u041f\u043e\u0440\u0442", "size": "X\u041c\u0430\u043b\u044b\u0439", "UN_LOCODE": "TRSGT", "country": "[TR] Turkey", "longitude": 28.08245, "latitude": 36.65827, "link": "https://www.myshiptracking.com//ru/ports/port-of-sogut-in-tr-turkey-id-2099"},
{"name": "SOHAR", "type": "\u041f\u043e\u0440\u0442", "size": "\u0411\u043e\u043b\u044c\u0448\u043e\u0439", "UN_LOCODE": "OMSOH", "country": "[OM] Oman", "longitude": 56.63091, "latitude": 24.50582, "link": "https://www.myshiptracking.com//ru/ports/port-of-sohar-in-om-oman-id-3479"},
{"name": "SOKCHO", "type": "\u041f\u043e\u0440\u0442", "size": "\u0421\u0440\u0435\u0434\u043d\u0438\u0439", "UN_LOCODE": "KRSHO", "country": "[KR] Korea", "longitude": 128.60038, "latitude": 38.20401, "link": "https://www.myshiptracking.com//ru/ports/port-of-sokcho-in-kr-korea-id-5497"},
{"name": "SOKHNA", "type": "\u041f\u043e\u0440\u0442", "size": "\u0421\u0440\u0435\u0434\u043d\u0438\u0439", "UN_LOCODE": "EGSOK", "country": "[EG] Egypt", "longitude": 32.3613, "latitude": 29.64633, "link": "https://www.myshiptracking.com//ru/ports/port-of-sokhna-in-eg-egypt-id-3178"},
{"name": "SOLAVAGEN", "type": "\u041f\u043e\u0440\u0442", "size": "\u041c\u0430\u043b\u0435\u043d\u044c\u043a\u0438\u0439", "UN_LOCODE": "---", "country": "[NO] Norway", "longitude": 6.32492, "latitude": 62.41306, "link": "https://www.myshiptracking.com//ru/ports/port-of-solavagen-in-no-norway-id-5336"},
{"name": "SOLDARFJORDUR", "type": "\u041f\u043e\u0440\u0442", "size": "X\u041c\u0430\u043b\u044b\u0439", "UN_LOCODE": "FOSMJ", "country": "[FO] Faroe Is", "longitude": -6.75394, "latitude": 62.15547, "link": "https://www.myshiptracking.com//ru/ports/port-of-soldarfjordur-in-fo-faroe-is-id-5682"},
{"name": "SOLENT", "type": "\u041f\u043e\u0440\u0442", "size": "\u041c\u0430\u043b\u0435\u043d\u044c\u043a\u0438\u0439", "UN_LOCODE": "---", "country": "[GB] United Kingdom", "longitude": -1.1066, "latitude": 50.8435, "link": "https://www.myshiptracking.com//ru/ports/port-of-solent-in-gb-united-kingdom-id-1675"},
{"name": "SOLIKAMSK", "type": "\u041f\u043e\u0440\u0442", "size": "\u0421\u0440\u0435\u0434\u043d\u0438\u0439", "UN_LOCODE": "RUSOK", "country": "[RU] Russia", "longitude": 56.69602, "latitude": 59.61365, "link": "https://www.myshiptracking.com//ru/ports/port-of-solikamsk-in-ru-russia-id-2994"},
{"name": "SOLT", "type": "\u041f\u043e\u0440\u0442", "size": "X\u041c\u0430\u043b\u044b\u0439", "UN_LOCODE": "HUSOL", "country": "[HU] Hungary", "longitude": 18.95738, "latitude": 46.79779, "link": "https://www.myshiptracking.com//ru/ports/port-of-solt-in-hu-hungary-id-5775"},
{"name": "SOLVESBORG", "type": "\u041f\u043e\u0440\u0442", "size": "\u0411\u043e\u043b\u044c\u0448\u043e\u0439", "UN_LOCODE": "SESOL", "country": "[SE] Sweden", "longitude": 14.58824, "latitude": 56.03655, "link": "https://www.myshiptracking.com//ru/ports/port-of-solvesborg-in-se-sweden-id-2186"}]
