[{"name": "VANERSBORG", "type": "\u041f\u043e\u0440\u0442", "size": "X\u041c\u0430\u043b\u044b\u0439", "UN_LOCODE": "SEVAN", "country": "[SE] Sweden", "longitude": 12.31812, "latitude": 58.38448, "link": "https://www.myshiptracking.com//ru/ports/port-of-vanersborg-in-se-sweden-id-5370"},
{"name": "VANINO", "type": "\u041f\u043e\u0440\u0442", "size": "\u0411\u043e\u043b\u044c\u0448\u043e\u0439", "UN_LOCODE": "RUVNN", "country": "[RU] Russia", "longitude": 140.27389, "latitude": 49.08651, "link": "https://www.myshiptracking.com//ru/ports/port-of-vanino-in-ru-russia-id-2973"},
{"name": "VANNES", "type": "\u041f\u043e\u0440\u0442", "size": "\u041c\u0430\u043b\u0435\u043d\u044c\u043a\u0438\u0439", "UN_LOCODE": "FRVNE", "country": "[FR] France", "longitude": -2.75924, "latitude": 47.63417, "link": "https://www.myshiptracking.com//ru/ports/port-of-vannes-in-fr-france-id-1740"},
{"name": "VARADERO", "type": "\u041f\u043e\u0440\u0442", "size": "X\u0411\u043e\u043b\u044c\u0449\u043e\u0439", "UN_LOCODE": "CUVRA", "country": "[CU] Cuba", "longitude": -81.19543, "latitude": 23.14958, "link": "https://www.myshiptracking.com//ru/ports/port-of-varadero-in-cu-cuba-id-6837"},
{"name": "VARALDSOY", "type": "\u041f\u043e\u0440\u0442", "size": "X\u041c\u0430\u043b\u044b\u0439", "UN_LOCODE": "---", "country": "[NO] Norway", "longitude": 5.97136, "latitude": 60.08703, "link": "https://www.myshiptracking.com//ru/ports/port-of-varaldsoy-in-no-norway-id-5294"},
{"name": "VARANUS", "type": "\u041f\u043e\u0440\u0442", "size": "\u041c\u0430\u043b\u0435\u043d\u044c\u043a\u0438\u0439", "UN_LOCODE": "AUVAR", "country": "[AU] Australia", "longitude": 115.58168, "latitude": -20.65617, "link": "https://www.myshiptracking.com//ru/ports/port-of-varanus-in-au-australia-id-4008"},
{"name": "VARAZZE", "type": "\u041f\u043e\u0440\u0442", "size": "\u041c\u0430\u043b\u0435\u043d\u044c\u043a\u0438\u0439", "UN_LOCODE": "ITVRZ", "country": "[IT] Italy", "longitude": 8.57214, "latitude": 44.3536, "link": "https://www.myshiptracking.com//ru/ports/port-of-varazze-in-it-italy-id-436"},
{"name": "VARBERG", "type": "\u041f\u043e\u0440\u0442", "size": "\u041c\u0430\u043b\u0435\u043d\u044c\u043a\u0438\u0439", "UN_LOCODE": "SEVAG", "country": "[SE] Sweden", "longitude": 12.2352, "latitude": 57.1118, "link": "https://www.myshiptracking.com//ru/ports/port-of-varberg-in-se-sweden-id-437"},
{"name": "VARBY", "type": "\u041f\u043e\u0440\u0442", "size": "\u041c\u0430\u043b\u0435\u043d\u044c\u043a\u0438\u0439", "UN_LOCODE": "SEVRB", "country": "[SE] Sweden", "longitude": 17.87318, "latitude": 59.25252, "link": "https://www.myshiptracking.com//ru/ports/port-of-varby-in-se-sweden-id-2255"},
{"name": "VARDHOLMEN", "type": "\u041f\u043e\u0440\u0442", "size": "\u041c\u0430\u043b\u0435\u043d\u044c\u043a\u0438\u0439", "UN_LOCODE": "---", "country": "[NO] Norway", "longitude": 15.67781, "latitude": 69.13997, "link": "https://www.myshiptracking.com//ru/ports/port-of-vardholmen-in-no-norway-id-5227"},
{"name": "VARDO", "type": "\u041f\u043e\u0440\u0442", "size": "\u041c\u0430\u043b\u0435\u043d\u044c\u043a\u0438\u0439", "UN_LOCODE": "NOVAO", "country": "[NO] Norway", "longitude": 31.1067, "latitude": 70.3749, "link": "https://www.myshiptracking.com//ru/ports/port-of-vardo-in-no-norway-id-5309"},
{"name": "VAREL", "type": "\u0413\u0430\u0432\u0430\u043d\u044c", "size": "\u041c\u0430\u043b\u0435\u043d\u044c\u043a\u0438\u0439", "UN_LOCODE": "---", "country": "[DE] Germany", "longitude": 8.18371, "latitude": 53.40824, "link": "https://www.myshiptracking.com//ru/ports/marina-of-varel-in-de-germany-id-1284"},
{"name": "VARKAUS", "type": "\u041f\u043e\u0440\u0442", "size": "\u0411\u043e\u043b\u044c\u0448\u043e\u0439", "UN_LOCODE": "FIVRK", "country": "[FI] Finland", "longitude": 27.89247, "latitude": 62.30407, "link": "https://www.myshiptracking.com//ru/ports/port-of-varkaus-in-fi-finland-id-5628"},
{"name": "VARKIZA", "type": "\u0413\u0430\u0432\u0430\u043d\u044c", "size": "X\u041c\u0430\u043b\u044b\u0439", "UN_LOCODE": "---", "country": "[GR] Greece", "longitude": 23.80324, "latitude": 37.81695, "link": "https://www.myshiptracking.com//ru/ports/marina-of-varkiza-in-gr-greece-id-577"},
{"name": "VARNA", "type": "\u041f\u043e\u0440\u0442", "size": "X\u0411\u043e\u043b\u044c\u0449\u043e\u0439", "UN_LOCODE": "BGVAR", "country": "[BG] Bulgaria", "longitude": 27.9114, "latitude": 43.1902, "link": "https://www.myshiptracking.com//ru/ports/port-of-varna-in-bg-bulgaria-id-438"},
{"name": "VARTDAL", "type": "\u041f\u043e\u0440\u0442", "size": "X\u041c\u0430\u043b\u044b\u0439", "UN_LOCODE": "NOVTL", "country": "[NO] Norway", "longitude": 6.08217, "latitude": 62.30227, "link": "https://www.myshiptracking.com//ru/ports/port-of-vartdal-in-no-norway-id-5335"},
{"name": "VASHON ISLAND", "type": "\u041f\u043e\u0440\u0442", "size": "\u041c\u0430\u043b\u0435\u043d\u044c\u043a\u0438\u0439", "UN_LOCODE": "USYVI", "country": "[US] USA", "longitude": -122.46324, "latitude": 47.51206, "link": "https://www.myshiptracking.com//ru/ports/port-of-vashon-island-in-us-usa-id-5959"},
{"name": "VASILIKO", "type": "\u0413\u0430\u0432\u0430\u043d\u044c", "size": "X\u041c\u0430\u043b\u044b\u0439", "UN_LOCODE": "---", "country": "[GR] Greece", "longitude": 20.99208, "latitude": 37.71676, "link": "https://www.myshiptracking.com//ru/ports/marina-of-vasiliko-in-gr-greece-id-542"},
{"name": "VASSILIKI", "type": "\u041f\u043e\u0440\u0442", "size": "\u041c\u0430\u043b\u0435\u043d\u044c\u043a\u0438\u0439", "UN_LOCODE": "GRVSS", "country": "[GR] Greece", "longitude": 20.60411, "latitude": 38.62588, "link": "https://www.myshiptracking.com//ru/ports/port-of-vassiliki-in-gr-greece-id-490"},
{"name": "VASSILIKO", "type": "\u041f\u043e\u0440\u0442", "size": "\u0411\u043e\u043b\u044c\u0448\u043e\u0439", "UN_LOCODE": "CYVAS", "country": "[CY] Cyprus", "longitude": 33.29464, "latitude": 34.7192, "link": "https://www.myshiptracking.com//ru/ports/port-of-vassiliko-in-cy-cyprus-id-3136"},
{"name": "VASSOY", "type": "\u041f\u043e\u0440\u0442", "size": "X\u041c\u0430\u043b\u044b\u0439", "UN_LOCODE": "---", "country": "[NO] Norway", "longitude": 5.78092, "latitude": 58.99735, "link": "https://www.myshiptracking.com//ru/ports/port-of-vassoy-in-no-norway-id-5251"},
{"name": "VASTERAS", "type": "\u041f\u043e\u0440\u0442", "size": "\u0411\u043e\u043b\u044c\u0448\u043e\u0439", "UN_LOCODE": "SEVST", "country": "[SE] Sweden", "longitude": 16.55279, "latitude": 59.59157, "link": "https://www.myshiptracking.com//ru/ports/port-of-vasteras-in-se-sweden-id-2182"},
{"name": "VASTERVIK", "type": "\u041f\u043e\u0440\u0442", "size": "\u0411\u043e\u043b\u044c\u0448\u043e\u0439", "UN_LOCODE": "SEVVK", "country": "[SE] Sweden", "longitude": 16.6605, "latitude": 57.75213, "link": "https://www.myshiptracking.com//ru/ports/port-of-vastervik-in-se-sweden-id-2226"},
{"name": "VASTO", "type": "\u041f\u043e\u0440\u0442", "size": "\u041c\u0430\u043b\u0435\u043d\u044c\u043a\u0438\u0439", "UN_LOCODE": "ITVSO", "country": "[IT] Italy", "longitude": 14.71077, "latitude": 42.17817, "link": "https://www.myshiptracking.com//ru/ports/port-of-vasto-in-it-italy-id-2764"},
{"name": "VATHI", "type": "\u0413\u0430\u0432\u0430\u043d\u044c", "size": "\u041c\u0430\u043b\u0435\u043d\u044c\u043a\u0438\u0439", "UN_LOCODE": "---", "country": "[GR] Greece", "longitude": 24.68939, "latitude": 36.92948, "link": "https://www.myshiptracking.com//ru/ports/marina-of-vathi-in-gr-greece-id-603"},
{"name": "VATHI MEGALOHORIO", "type": "\u0413\u0430\u0432\u0430\u043d\u044c", "size": "X\u041c\u0430\u043b\u044b\u0439", "UN_LOCODE": "---", "country": "[GR] Greece", "longitude": 23.33906, "latitude": 37.5937, "link": "https://www.myshiptracking.com//ru/ports/marina-of-vathi-megalohorio-in-gr-greece-id-597"},
{"name": "VATHI MEGANHSI", "type": "\u0413\u0430\u0432\u0430\u043d\u044c", "size": "X\u041c\u0430\u043b\u044b\u0439", "UN_LOCODE": "---", "country": "[GR] Greece", "longitude": 20.78282, "latitude": 38.66471, "link": "https://www.myshiptracking.com//ru/ports/marina-of-vathi-meganhsi-in-gr-greece-id-704"},
{"name": "VATHI PREVEZA", "type": "\u0413\u0430\u0432\u0430\u043d\u044c", "size": "X\u041c\u0430\u043b\u044b\u0439", "UN_LOCODE": "---", "country": "[GR] Greece", "longitude": 20.7543, "latitude": 38.97301, "link": "https://www.myshiptracking.com//ru/ports/marina-of-vathi-preveza-in-gr-greece-id-498"},
{"name": "VAXHOLM", "type": "\u041f\u043e\u0440\u0442", "size": "X\u041c\u0430\u043b\u044b\u0439", "UN_LOCODE": "SEVXH", "country": "[SE] Sweden", "longitude": 18.3526, "latitude": 59.4003, "link": "https://www.myshiptracking.com//ru/ports/port-of-vaxholm-in-se-sweden-id-439"},
{"name": "VEDAVAGEN", "type": "\u041f\u043e\u0440\u0442", "size": "\u041c\u0430\u043b\u0435\u043d\u044c\u043a\u0438\u0439", "UN_LOCODE": "NOVMD", "country": "[NO] Norway", "longitude": 5.22976, "latitude": 59.2979, "link": "https://www.myshiptracking.com//ru/ports/port-of-vedavagen-in-no-norway-id-5292"},
{"name": "VEEN", "type": "\u041f\u043e\u0440\u0442", "size": "X\u041c\u0430\u043b\u044b\u0439", "UN_LOCODE": "NLNEV", "country": "[NL] Netherlands", "longitude": 5.11264, "latitude": 51.78038, "link": "https://www.myshiptracking.com//ru/ports/port-of-veen-in-nl-netherlands-id-5006"},
{"name": "VEENDAM", "type": "\u041f\u043e\u0440\u0442", "size": "\u0411\u043e\u043b\u044c\u0448\u043e\u0439", "UN_LOCODE": "NLVDM", "country": "[NL] Netherlands", "longitude": 6.88615, "latitude": 53.10131, "link": "https://www.myshiptracking.com//ru/ports/port-of-veendam-in-nl-netherlands-id-1096"},
{"name": "VEERE", "type": "\u041f\u043e\u0440\u0442", "size": "X\u041c\u0430\u043b\u044b\u0439", "UN_LOCODE": "---", "country": "[NL] Netherlands", "longitude": 3.66871, "latitude": 51.55012, "link": "https://www.myshiptracking.com//ru/ports/port-of-veere-in-nl-netherlands-id-1005"},
{"name": "VEERE", "type": "\u041f\u043e\u0440\u0442", "size": "X\u041c\u0430\u043b\u044b\u0439", "UN_LOCODE": "EEVEE", "country": "[EE] Estonia", "longitude": 22.05143, "latitude": 58.46033, "link": "https://www.myshiptracking.com//ru/ports/port-of-veere-in-ee-estonia-id-5646"},
{"name": "VEESSEN", "type": "\u041f\u043e\u0440\u0442", "size": "\u041c\u0430\u043b\u0435\u043d\u044c\u043a\u0438\u0439", "UN_LOCODE": "---", "country": "[NL] Netherlands", "longitude": 6.09237, "latitude": 52.37475, "link": "https://www.myshiptracking.com//ru/ports/port-of-veessen-in-nl-netherlands-id-1162"},
{"name": "VEGHEL", "type": "\u041f\u043e\u0440\u0442", "size": "\u0421\u0440\u0435\u0434\u043d\u0438\u0439", "UN_LOCODE": "NLVEG", "country": "[NL] Netherlands", "longitude": 5.51966, "latitude": 51.61552, "link": "https://www.myshiptracking.com//ru/ports/port-of-veghel-in-nl-netherlands-id-1218"},
{"name": "VEITSILUOTO", "type": "\u041f\u043e\u0440\u0442", "size": "\u041c\u0430\u043b\u0435\u043d\u044c\u043a\u0438\u0439", "UN_LOCODE": "FIVEI", "country": "[FI] Finland", "longitude": 24.61676, "latitude": 65.68511, "link": "https://www.myshiptracking.com//ru/ports/port-of-veitsiluoto-in-fi-finland-id-5631"},
{"name": "VEJLE", "type": "\u041f\u043e\u0440\u0442", "size": "\u041c\u0430\u043b\u0435\u043d\u044c\u043a\u0438\u0439", "UN_LOCODE": "DKVEJ", "country": "[DK] Denmark", "longitude": 9.56182, "latitude": 55.70455, "link": "https://www.myshiptracking.com//ru/ports/port-of-vejle-in-dk-denmark-id-2593"},
{"name": "VELEZ", "type": "\u041f\u043e\u0440\u0442", "size": "\u041c\u0430\u043b\u0435\u043d\u044c\u043a\u0438\u0439", "UN_LOCODE": "ESVMG", "country": "[ES] Spain", "longitude": -4.0684, "latitude": 36.7476, "link": "https://www.myshiptracking.com//ru/ports/port-of-velez-in-es-spain-id-1949"},
{"name": "VELO", "type": "\u0413\u0430\u0432\u0430\u043d\u044c", "size": "X\u041c\u0430\u043b\u044b\u0439", "UN_LOCODE": "GRVEL", "country": "[GR] Greece", "longitude": 22.76569, "latitude": 38.00306, "link": "https://www.myshiptracking.com//ru/ports/marina-of-velo-in-gr-greece-id-483"},
{"name": "VELUWEMEER", "type": "\u041f\u043e\u0440\u0442", "size": "\u041c\u0430\u043b\u0435\u043d\u044c\u043a\u0438\u0439", "UN_LOCODE": "---", "country": "[NL] Netherlands", "longitude": 5.74471, "latitude": 52.41354, "link": "https://www.myshiptracking.com//ru/ports/port-of-veluwemeer-in-nl-netherlands-id-1454"},
{"name": "VENE BALTI", "type": "\u041f\u043e\u0440\u0442", "size": "\u041c\u0430\u043b\u0435\u043d\u044c\u043a\u0438\u0439", "UN_LOCODE": "EEVEB", "country": "[EE] Estonia", "longitude": 24.65789, "latitude": 59.45699, "link": "https://www.myshiptracking.com//ru/ports/port-of-vene-balti-in-ee-estonia-id-5652"},
{"name": "VENEZIA", "type": "\u041f\u043e\u0440\u0442", "size": "X\u0411\u043e\u043b\u044c\u0449\u043e\u0439", "UN_LOCODE": "ITVCE", "country": "[IT] Italy", "longitude": 12.30056, "latitude": 45.43862, "link": "https://www.myshiptracking.com//ru/ports/port-of-venezia-in-it-italy-id-2035"},
{"name": "VENICE (FL)", "type": "\u041f\u043e\u0440\u0442", "size": "\u041c\u0430\u043b\u0435\u043d\u044c\u043a\u0438\u0439", "UN_LOCODE": "---", "country": "[US] USA", "longitude": -82.44719, "latitude": 27.10501, "link": "https://www.myshiptracking.com//ru/ports/port-of-venice-fl-in-us-usa-id-6385"},
{"name": "VENICE (LA)", "type": "\u041f\u043e\u0440\u0442", "size": "\u0421\u0440\u0435\u0434\u043d\u0438\u0439", "UN_LOCODE": "USVN3", "country": "[US] USA", "longitude": -89.35056, "latitude": 29.2744, "link": "https://www.myshiptracking.com//ru/ports/port-of-venice-la-in-us-usa-id-6311"},
{"name": "VENLO", "type": "\u041f\u043e\u0440\u0442", "size": "\u0411\u043e\u043b\u044c\u0448\u043e\u0439", "UN_LOCODE": "NLVEN", "country": "[NL] Netherlands", "longitude": 6.16505, "latitude": 51.37059, "link": "https://www.myshiptracking.com//ru/ports/port-of-venlo-in-nl-netherlands-id-870"},
{"name": "VENNEMEER", "type": "\u041f\u043e\u0440\u0442", "size": "\u041c\u0430\u043b\u0435\u043d\u044c\u043a\u0438\u0439", "UN_LOCODE": "---", "country": "[NL] Netherlands", "longitude": 4.54364, "latitude": 52.18925, "link": "https://www.myshiptracking.com//ru/ports/port-of-vennemeer-in-nl-netherlands-id-1185"},
{"name": "VENNESUND", "type": "\u041f\u043e\u0440\u0442", "size": "\u041c\u0430\u043b\u0435\u043d\u044c\u043a\u0438\u0439", "UN_LOCODE": "---", "country": "[NO] Norway", "longitude": 12.04089, "latitude": 65.21511, "link": "https://www.myshiptracking.com//ru/ports/port-of-vennesund-in-no-norway-id-5172"},
{"name": "VENTNOR HEIGHTS", "type": "\u041f\u043e\u0440\u0442", "size": "\u041c\u0430\u043b\u0435\u043d\u044c\u043a\u0438\u0439", "UN_LOCODE": "USVYA", "country": "[US] USA", "longitude": -74.48418, "latitude": 39.34262, "link": "https://www.myshiptracking.com//ru/ports/port-of-ventnor-heights-in-us-usa-id-6023"},
{"name": "VENTSPILS", "type": "\u041f\u043e\u0440\u0442", "size": "\u0411\u043e\u043b\u044c\u0448\u043e\u0439", "UN_LOCODE": "LVVNT", "country": "[LV] Latvia", "longitude": 21.53611, "latitude": 57.40355, "link": "https://www.myshiptracking.com//ru/ports/port-of-ventspils-in-lv-latvia-id-5874"}]
