[{"name": "WLADYSLAWOWO", "type": "\u041f\u043e\u0440\u0442", "size": "\u041c\u0430\u043b\u0435\u043d\u044c\u043a\u0438\u0439", "UN_LOCODE": "PLWLA", "country": "[PL] Poland", "longitude": 18.41872, "latitude": 54.79659, "link": "https://www.myshiptracking.com//ru/ports/port-of-wladyslawowo-in-pl-poland-id-5788"},
{"name": "WOERDEN", "type": "\u041f\u043e\u0440\u0442", "size": "\u0411\u043e\u043b\u044c\u0448\u043e\u0439", "UN_LOCODE": "NLWOR", "country": "[NL] Netherlands", "longitude": 4.87892, "latitude": 52.08442, "link": "https://www.myshiptracking.com//ru/ports/port-of-woerden-in-nl-netherlands-id-1225"},
{"name": "WOERTH", "type": "\u041f\u043e\u0440\u0442", "size": "\u0421\u0440\u0435\u0434\u043d\u0438\u0439", "UN_LOCODE": "---", "country": "[DE] Germany", "longitude": 8.31743, "latitude": 49.06931, "link": "https://www.myshiptracking.com//ru/ports/port-of-woerth-in-de-germany-id-1348"},
{"name": "WOLGAST", "type": "\u041f\u043e\u0440\u0442", "size": "\u0421\u0440\u0435\u0434\u043d\u0438\u0439", "UN_LOCODE": "DEWOL", "country": "[DE] Germany", "longitude": 13.78638, "latitude": 54.05029, "link": "https://www.myshiptracking.com//ru/ports/port-of-wolgast-in-de-germany-id-1278"},
{"name": "WOLLONGONG", "type": "\u041f\u043e\u0440\u0442", "size": "\u041c\u0430\u043b\u0435\u043d\u044c\u043a\u0438\u0439", "UN_LOCODE": "AUWOL", "country": "[AU] Australia", "longitude": 150.90567, "latitude": -34.42046, "link": "https://www.myshiptracking.com//ru/ports/port-of-wollongong-in-au-australia-id-3828"},
{"name": "WOLPHAARTSDIJK", "type": "\u041f\u043e\u0440\u0442", "size": "X\u041c\u0430\u043b\u044b\u0439", "UN_LOCODE": "---", "country": "[NL] Netherlands", "longitude": 3.81821, "latitude": 51.54882, "link": "https://www.myshiptracking.com//ru/ports/port-of-wolphaartsdijk-in-nl-netherlands-id-1150"},
{"name": "WONSAN", "type": "\u041f\u043e\u0440\u0442", "size": "\u0411\u043e\u043b\u044c\u0448\u043e\u0439", "UN_LOCODE": "KPWON", "country": "[KP] DPR Korea", "longitude": 127.45379, "latitude": 39.1626, "link": "https://www.myshiptracking.com//ru/ports/port-of-wonsan-in-kp-dpr-korea-id-5838"},
{"name": "WONSANDO", "type": "\u041f\u043e\u0440\u0442", "size": "X\u041c\u0430\u043b\u044b\u0439", "UN_LOCODE": "---", "country": "[KR] Korea", "longitude": 126.43475, "latitude": 36.38381, "link": "https://www.myshiptracking.com//ru/ports/port-of-wonsando-in-kr-korea-id-5543"},
{"name": "WOOD RIVER", "type": "\u041f\u043e\u0440\u0442", "size": "\u0411\u043e\u043b\u044c\u0448\u043e\u0439", "UN_LOCODE": "USWRV", "country": "[US] USA", "longitude": -90.10909, "latitude": 38.84805, "link": "https://www.myshiptracking.com//ru/ports/port-of-wood-river-in-us-usa-id-6248"},
{"name": "WOODS HOLE", "type": "\u041f\u043e\u0440\u0442", "size": "\u041c\u0430\u043b\u0435\u043d\u044c\u043a\u0438\u0439", "UN_LOCODE": "USWOH", "country": "[US] USA", "longitude": -70.67399, "latitude": 41.52179, "link": "https://www.myshiptracking.com//ru/ports/port-of-woods-hole-in-us-usa-id-6073"},
{"name": "WOOLRICH", "type": "\u0413\u0430\u0432\u0430\u043d\u044c", "size": "\u041c\u0430\u043b\u0435\u043d\u044c\u043a\u0438\u0439", "UN_LOCODE": "---", "country": "[GB] United Kingdom", "longitude": 0.06891, "latitude": 51.49552, "link": "https://www.myshiptracking.com//ru/ports/marina-of-woolrich-in-gb-united-kingdom-id-2323"},
{"name": "WOOLVERSTONE", "type": "\u0413\u0430\u0432\u0430\u043d\u044c", "size": "X\u041c\u0430\u043b\u044b\u0439", "UN_LOCODE": "---", "country": "[GB] United Kingdom", "longitude": 1.19619, "latitude": 52.00726, "link": "https://www.myshiptracking.com//ru/ports/marina-of-woolverstone-in-gb-united-kingdom-id-2342"},
{"name": "WORKINGTON", "type": "\u041f\u043e\u0440\u0442", "size": "\u041c\u0430\u043b\u0435\u043d\u044c\u043a\u0438\u0439", "UN_LOCODE": "GBWOR", "country": "[GB] United Kingdom", "longitude": -3.56067, "latitude": 54.6478, "link": "https://www.myshiptracking.com//ru/ports/port-of-workington-in-gb-united-kingdom-id-192"},
{"name": "WORKUM", "type": "\u041f\u043e\u0440\u0442", "size": "\u0421\u0440\u0435\u0434\u043d\u0438\u0439", "UN_LOCODE": "NLWKU", "country": "[NL] Netherlands", "longitude": 5.4377, "latitude": 52.97296, "link": "https://www.myshiptracking.com//ru/ports/port-of-workum-in-nl-netherlands-id-1171"},
{"name": "WORMER", "type": "\u041f\u043e\u0440\u0442", "size": "\u0421\u0440\u0435\u0434\u043d\u0438\u0439", "UN_LOCODE": "NLWMO", "country": "[NL] Netherlands", "longitude": 4.80604, "latitude": 52.49485, "link": "https://www.myshiptracking.com//ru/ports/port-of-wormer-in-nl-netherlands-id-861"},
{"name": "WORMS", "type": "\u041f\u043e\u0440\u0442", "size": "\u0421\u0440\u0435\u0434\u043d\u0438\u0439", "UN_LOCODE": "DEWOR", "country": "[DE] Germany", "longitude": 8.37257, "latitude": 49.64576, "link": "https://www.myshiptracking.com//ru/ports/port-of-worms-in-de-germany-id-1321"},
{"name": "WOUBRUGGE", "type": "\u041f\u043e\u0440\u0442", "size": "\u041c\u0430\u043b\u0435\u043d\u044c\u043a\u0438\u0439", "UN_LOCODE": "---", "country": "[NL] Netherlands", "longitude": 4.63892, "latitude": 52.16755, "link": "https://www.myshiptracking.com//ru/ports/port-of-woubrugge-in-nl-netherlands-id-1013"},
{"name": "WOUDRICHEM", "type": "\u041f\u043e\u0440\u0442", "size": "\u041c\u0430\u043b\u0435\u043d\u044c\u043a\u0438\u0439", "UN_LOCODE": "NLWCM", "country": "[NL] Netherlands", "longitude": 5.00277, "latitude": 51.81642, "link": "https://www.myshiptracking.com//ru/ports/port-of-woudrichem-in-nl-netherlands-id-915"},
{"name": "WOUDSEND", "type": "\u041f\u043e\u0440\u0442", "size": "\u0421\u0440\u0435\u0434\u043d\u0438\u0439", "UN_LOCODE": "NLWSD", "country": "[NL] Netherlands", "longitude": 5.63008, "latitude": 52.94243, "link": "https://www.myshiptracking.com//ru/ports/port-of-woudsend-in-nl-netherlands-id-1133"},
{"name": "WOY WOY BAY", "type": "\u041f\u043e\u0440\u0442", "size": "X\u041c\u0430\u043b\u044b\u0439", "UN_LOCODE": "---", "country": "[AU] Australia", "longitude": 151.31211, "latitude": -33.48146, "link": "https://www.myshiptracking.com//ru/ports/port-of-woy-woy-bay-in-au-australia-id-3923"},
{"name": "WOY WOY WHARF", "type": "\u041f\u043e\u0440\u0442", "size": "X\u041c\u0430\u043b\u044b\u0439", "UN_LOCODE": "---", "country": "[AU] Australia", "longitude": 151.32501, "latitude": -33.48321, "link": "https://www.myshiptracking.com//ru/ports/port-of-woy-woy-wharf-in-au-australia-id-3922"},
{"name": "WRANGELL", "type": "\u041f\u043e\u0440\u0442", "size": "\u041c\u0430\u043b\u0435\u043d\u044c\u043a\u0438\u0439", "UN_LOCODE": "USWRG", "country": "[US] USA", "longitude": -132.3883, "latitude": 56.46699, "link": "https://www.myshiptracking.com//ru/ports/port-of-wrangell-in-us-usa-id-6208"},
{"name": "WURTLAND", "type": "\u041f\u043e\u0440\u0442", "size": "\u0421\u0440\u0435\u0434\u043d\u0438\u0439", "UN_LOCODE": "USWUR", "country": "[US] USA", "longitude": -82.76659, "latitude": 38.55738, "link": "https://www.myshiptracking.com//ru/ports/port-of-wurtland-in-us-usa-id-6034"},
{"name": "WURZBURG", "type": "\u041f\u043e\u0440\u0442", "size": "\u041c\u0430\u043b\u0435\u043d\u044c\u043a\u0438\u0439", "UN_LOCODE": "DEWUE", "country": "[DE] Germany", "longitude": 9.92576, "latitude": 49.79438, "link": "https://www.myshiptracking.com//ru/ports/port-of-wurzburg-in-de-germany-id-1402"},
{"name": "WUXUE", "type": "\u041f\u043e\u0440\u0442", "size": "\u0411\u043e\u043b\u044c\u0448\u043e\u0439", "UN_LOCODE": "CNWXP", "country": "[CN] China", "longitude": 115.54409, "latitude": 29.84167, "link": "https://www.myshiptracking.com//ru/ports/port-of-wuxue-in-cn-china-id-4091"},
{"name": "WYK AUF FOHR", "type": "\u041f\u043e\u0440\u0442", "size": "X\u041c\u0430\u043b\u044b\u0439", "UN_LOCODE": "DEWYK", "country": "[DE] Germany", "longitude": 8.57659, "latitude": 54.6938, "link": "https://www.myshiptracking.com//ru/ports/port-of-wyk-auf-fohr-in-de-germany-id-191"},
{"name": "WYNDHAM", "type": "\u041f\u043e\u0440\u0442", "size": "\u041c\u0430\u043b\u0435\u043d\u044c\u043a\u0438\u0439", "UN_LOCODE": "AUWYN", "country": "[AU] Australia", "longitude": 128.10043, "latitude": -15.45782, "link": "https://www.myshiptracking.com//ru/ports/port-of-wyndham-in-au-australia-id-3898"},
{"name": "WYRE", "type": "\u041f\u043e\u0440\u0442", "size": "X\u041c\u0430\u043b\u044b\u0439", "UN_LOCODE": "GBWYR", "country": "[GB] United Kingdom", "longitude": -2.9733, "latitude": 59.12522, "link": "https://www.myshiptracking.com//ru/ports/port-of-wyre-in-gb-united-kingdom-id-1665"},
{"name": "XIAMEN", "type": "\u041f\u043e\u0440\u0442", "size": "X\u0411\u043e\u043b\u044c\u0449\u043e\u0439", "UN_LOCODE": "CNXMG", "country": "[CN] China", "longitude": 118.06454, "latitude": 24.46537, "link": "https://www.myshiptracking.com//ru/ports/port-of-xiamen-in-cn-china-id-4120"},
{"name": "XIANGZHOU", "type": "\u041f\u043e\u0440\u0442", "size": "\u041c\u0430\u043b\u0435\u043d\u044c\u043a\u0438\u0439", "UN_LOCODE": "CNXIZ", "country": "[CN] China", "longitude": 113.58125, "latitude": 22.29002, "link": "https://www.myshiptracking.com//ru/ports/port-of-xiangzhou-in-cn-china-id-4111"},
{"name": "XIANTOULING", "type": "\u041f\u043e\u0440\u0442", "size": "\u0421\u0440\u0435\u0434\u043d\u0438\u0439", "UN_LOCODE": "CNDPG", "country": "[CN] China", "longitude": 114.43149, "latitude": 22.58222, "link": "https://www.myshiptracking.com//ru/ports/port-of-xiantouling-in-cn-china-id-4161"},
{"name": "XILIADOU", "type": "\u0413\u0430\u0432\u0430\u043d\u044c", "size": "X\u041c\u0430\u043b\u044b\u0439", "UN_LOCODE": "---", "country": "[GR] Greece", "longitude": 21.91726, "latitude": 38.38843, "link": "https://www.myshiptracking.com//ru/ports/marina-of-xiliadou-in-gr-greece-id-771"},
{"name": "XINHIAXIANG", "type": "\u041f\u043e\u0440\u0442", "size": "\u0421\u0440\u0435\u0434\u043d\u0438\u0439", "UN_LOCODE": "CNXYG", "country": "[CN] China", "longitude": 110.14323, "latitude": 20.04956, "link": "https://www.myshiptracking.com//ru/ports/port-of-xinhiaxiang-in-cn-china-id-4114"},
{"name": "XINKAI", "type": "\u041f\u043e\u0440\u0442", "size": "X\u0411\u043e\u043b\u044c\u0449\u043e\u0439", "UN_LOCODE": "---", "country": "[CN] China", "longitude": 120.97319, "latitude": 32.65104, "link": "https://www.myshiptracking.com//ru/ports/port-of-xinkai-in-cn-china-id-4124"},
{"name": "XINSHA", "type": "\u041f\u043e\u0440\u0442", "size": "\u0421\u0440\u0435\u0434\u043d\u0438\u0439", "UN_LOCODE": "CNXNA", "country": "[CN] China", "longitude": 113.5414, "latitude": 22.98245, "link": "https://www.myshiptracking.com//ru/ports/port-of-xinsha-in-cn-china-id-4097"},
{"name": "XIUYU", "type": "\u041f\u043e\u0440\u0442", "size": "X\u0411\u043e\u043b\u044c\u0449\u043e\u0439", "UN_LOCODE": "CNXIU", "country": "[CN] China", "longitude": 119.00179, "latitude": 25.19351, "link": "https://www.myshiptracking.com//ru/ports/port-of-xiuyu-in-cn-china-id-4112"},
{"name": "YABUCOA", "type": "\u041f\u043e\u0440\u0442", "size": "\u041c\u0430\u043b\u0435\u043d\u044c\u043a\u0438\u0439", "UN_LOCODE": "PRPYA", "country": "[PR] Puerto Rico", "longitude": -65.83293, "latitude": 18.05143, "link": "https://www.myshiptracking.com//ru/ports/port-of-yabucoa-in-pr-puerto-rico-id-6970"},
{"name": "YACHTHAFEN HANNOVER", "type": "\u0413\u0430\u0432\u0430\u043d\u044c", "size": "X\u041c\u0430\u043b\u044b\u0439", "UN_LOCODE": "---", "country": "[DE] Germany", "longitude": 9.74685, "latitude": 52.40541, "link": "https://www.myshiptracking.com//ru/ports/marina-of-yachthafen-hannover-in-de-germany-id-1263"},
{"name": "YADO", "type": "\u041f\u043e\u0440\u0442", "size": "\u041c\u0430\u043b\u0435\u043d\u044c\u043a\u0438\u0439", "UN_LOCODE": "---", "country": "[JP] Japan", "longitude": 141.97202, "latitude": 39.69013, "link": "https://www.myshiptracking.com//ru/ports/port-of-yado-in-jp-japan-id-4297"},
{"name": "YAGIKITA", "type": "\u041f\u043e\u0440\u0442", "size": "\u041c\u0430\u043b\u0435\u043d\u044c\u043a\u0438\u0439", "UN_LOCODE": "---", "country": "[JP] Japan", "longitude": 141.76885, "latitude": 40.34872, "link": "https://www.myshiptracking.com//ru/ports/port-of-yagikita-in-jp-japan-id-4486"},
{"name": "YAGISHIRI", "type": "\u041f\u043e\u0440\u0442", "size": "X\u041c\u0430\u043b\u044b\u0439", "UN_LOCODE": "JPYGR", "country": "[JP] Japan", "longitude": 141.42896, "latitude": 44.44091, "link": "https://www.myshiptracking.com//ru/ports/port-of-yagishiri-in-jp-japan-id-4466"},
{"name": "YAGOI", "type": "\u041f\u043e\u0440\u0442", "size": "X\u041c\u0430\u043b\u044b\u0439", "UN_LOCODE": "---", "country": "[SL] Sierra Leone", "longitude": -12.33691, "latitude": 7.57195, "link": "https://www.myshiptracking.com//ru/ports/port-of-yagoi-in-sl-sierra-leone-id-3332"},
{"name": "YAIZU", "type": "\u041f\u043e\u0440\u0442", "size": "\u0411\u043e\u043b\u044c\u0448\u043e\u0439", "UN_LOCODE": "JPYZU", "country": "[JP] Japan", "longitude": 138.33225, "latitude": 34.86741, "link": "https://www.myshiptracking.com//ru/ports/port-of-yaizu-in-jp-japan-id-4290"},
{"name": "YAKUTAT", "type": "\u041f\u043e\u0440\u0442", "size": "\u041c\u0430\u043b\u0435\u043d\u044c\u043a\u0438\u0439", "UN_LOCODE": "USYAK", "country": "[US] USA", "longitude": -139.73916, "latitude": 59.54758, "link": "https://www.myshiptracking.com//ru/ports/port-of-yakutat-in-us-usa-id-6111"},
{"name": "YALOVA", "type": "\u041f\u043e\u0440\u0442", "size": "\u0421\u0440\u0435\u0434\u043d\u0438\u0439", "UN_LOCODE": "TRYLA", "country": "[TR] Turkey", "longitude": 29.27535, "latitude": 40.66233, "link": "https://www.myshiptracking.com//ru/ports/port-of-yalova-in-tr-turkey-id-2144"},
{"name": "YALOVA", "type": "\u041f\u043e\u0440\u0442", "size": "\u0411\u043e\u043b\u044c\u0448\u043e\u0439", "UN_LOCODE": "TRYAL", "country": "[TR] Turkey", "longitude": 29.47238, "latitude": 40.71823, "link": "https://www.myshiptracking.com//ru/ports/port-of-yalova-in-tr-turkey-id-2152"},
{"name": "YALTA", "type": "\u041f\u043e\u0440\u0442", "size": "\u041c\u0430\u043b\u0435\u043d\u044c\u043a\u0438\u0439", "UN_LOCODE": "UAYAL", "country": "[UA] Ukraine", "longitude": 34.16734, "latitude": 44.49079, "link": "https://www.myshiptracking.com//ru/ports/port-of-yalta-in-ua-ukraine-id-2957"},
{"name": "YAMADA", "type": "\u041f\u043e\u0440\u0442", "size": "\u0411\u043e\u043b\u044c\u0448\u043e\u0439", "UN_LOCODE": "JPYAD", "country": "[JP] Japan", "longitude": 141.97498, "latitude": 39.46365, "link": "https://www.myshiptracking.com//ru/ports/port-of-yamada-in-jp-japan-id-4384"},
{"name": "YAMADA", "type": "\u041f\u043e\u0440\u0442", "size": "\u041c\u0430\u043b\u0435\u043d\u044c\u043a\u0438\u0439", "UN_LOCODE": "JPYQD", "country": "[JP] Japan", "longitude": 134.01025, "latitude": 34.54708, "link": "https://www.myshiptracking.com//ru/ports/port-of-yamada-in-jp-japan-id-4775"},
{"name": "YAMAGAWA", "type": "\u041f\u043e\u0440\u0442", "size": "\u0421\u0440\u0435\u0434\u043d\u0438\u0439", "UN_LOCODE": "JPYAM", "country": "[JP] Japan", "longitude": 130.63674, "latitude": 31.21119, "link": "https://www.myshiptracking.com//ru/ports/port-of-yamagawa-in-jp-japan-id-4743"}]
