[{"name": "MONTEGO BAY", "type": "\u041f\u043e\u0440\u0442", "size": "\u041c\u0430\u043b\u0435\u043d\u044c\u043a\u0438\u0439", "UN_LOCODE": "JMMBJ", "country": "[JM] Jamaica", "longitude": -77.93858, "latitude": 18.4621, "link": "https://www.myshiptracking.com//ru/ports/port-of-montego-bay-in-jm-jamaica-id-7005"},
{"name": "MONTEREY", "type": "\u041f\u043e\u0440\u0442", "size": "\u041c\u0430\u043b\u0435\u043d\u044c\u043a\u0438\u0439", "UN_LOCODE": "USMY3", "country": "[US] USA", "longitude": -121.89053, "latitude": 36.60666, "link": "https://www.myshiptracking.com//ru/ports/port-of-monterey-in-us-usa-id-6233"},
{"name": "MONTEVERDE", "type": "\u041f\u043e\u0440\u0442", "size": "\u041c\u0430\u043b\u0435\u043d\u044c\u043a\u0438\u0439", "UN_LOCODE": "ECMTV", "country": "[EC] Ecuador", "longitude": -80.74715, "latitude": -2.06576, "link": "https://www.myshiptracking.com//ru/ports/port-of-monteverde-in-ec-ecuador-id-7124"},
{"name": "MONTEVIDEO", "type": "\u041f\u043e\u0440\u0442", "size": "\u0411\u043e\u043b\u044c\u0448\u043e\u0439", "UN_LOCODE": "UYMVD", "country": "[UY] Uruguay", "longitude": -56.23017, "latitude": -34.89269, "link": "https://www.myshiptracking.com//ru/ports/port-of-montevideo-in-uy-uruguay-id-7010"},
{"name": "MONTFOORT", "type": "\u041f\u043e\u0440\u0442", "size": "\u0421\u0440\u0435\u0434\u043d\u0438\u0439", "UN_LOCODE": "NLMNT", "country": "[NL] Netherlands", "longitude": 4.94313, "latitude": 52.0435, "link": "https://www.myshiptracking.com//ru/ports/port-of-montfoort-in-nl-netherlands-id-1471"},
{"name": "MONTGOMERY", "type": "\u041f\u043e\u0440\u0442", "size": "\u041c\u0430\u043b\u0435\u043d\u044c\u043a\u0438\u0439", "UN_LOCODE": "USOTE", "country": "[US] USA", "longitude": -81.32764, "latitude": 38.18343, "link": "https://www.myshiptracking.com//ru/ports/port-of-montgomery-in-us-usa-id-6092"},
{"name": "MONTMAGNY", "type": "\u041f\u043e\u0440\u0442", "size": "\u041c\u0430\u043b\u0435\u043d\u044c\u043a\u0438\u0439", "UN_LOCODE": "CAMGN", "country": "[CA] Canada", "longitude": -70.55291, "latitude": 46.98945, "link": "https://www.myshiptracking.com//ru/ports/port-of-montmagny-in-ca-canada-id-6460"},
{"name": "MONTOIR", "type": "\u041f\u043e\u0440\u0442", "size": "\u0421\u0440\u0435\u0434\u043d\u0438\u0439", "UN_LOCODE": "FRMTX", "country": "[FR] France", "longitude": -2.14649, "latitude": 47.29735, "link": "https://www.myshiptracking.com//ru/ports/port-of-montoir-in-fr-france-id-2662"},
{"name": "MONTREAL", "type": "\u041f\u043e\u0440\u0442", "size": "X\u0411\u043e\u043b\u044c\u0449\u043e\u0439", "UN_LOCODE": "CAMTR", "country": "[CA] Canada", "longitude": -73.5321, "latitude": 45.5292, "link": "https://www.myshiptracking.com//ru/ports/port-of-montreal-in-ca-canada-id-302"},
{"name": "MONTROSE", "type": "\u041f\u043e\u0440\u0442", "size": "\u041c\u0430\u043b\u0435\u043d\u044c\u043a\u0438\u0439", "UN_LOCODE": "GBMON", "country": "[GB] United Kingdom", "longitude": -2.46852, "latitude": 56.7031, "link": "https://www.myshiptracking.com//ru/ports/port-of-montrose-in-gb-united-kingdom-id-1624"},
{"name": "MOOK", "type": "\u041f\u043e\u0440\u0442", "size": "\u041c\u0430\u043b\u0435\u043d\u044c\u043a\u0438\u0439", "UN_LOCODE": "NLMOK", "country": "[NL] Netherlands", "longitude": 5.88017, "latitude": 51.75015, "link": "https://www.myshiptracking.com//ru/ports/port-of-mook-in-nl-netherlands-id-997"},
{"name": "MOOLOOLABA", "type": "\u041f\u043e\u0440\u0442", "size": "\u0421\u0440\u0435\u0434\u043d\u0438\u0439", "UN_LOCODE": "AUMLL", "country": "[AU] Australia", "longitude": 153.13517, "latitude": -26.68174, "link": "https://www.myshiptracking.com//ru/ports/port-of-mooloolaba-in-au-australia-id-3934"},
{"name": "MOORETOWN", "type": "\u041f\u043e\u0440\u0442", "size": "\u041c\u0430\u043b\u0435\u043d\u044c\u043a\u0438\u0439", "UN_LOCODE": "CAMRW", "country": "[CA] Canada", "longitude": -82.46801, "latitude": 42.84095, "link": "https://www.myshiptracking.com//ru/ports/port-of-mooretown-in-ca-canada-id-6519"},
{"name": "MORAIRA", "type": "\u041f\u043e\u0440\u0442", "size": "X\u041c\u0430\u043b\u044b\u0439", "UN_LOCODE": "ESMRA", "country": "[ES] Spain", "longitude": 0.13653, "latitude": 38.68622, "link": "https://www.myshiptracking.com//ru/ports/port-of-moraira-in-es-spain-id-1958"},
{"name": "MORDOGAN", "type": "\u041f\u043e\u0440\u0442", "size": "\u041c\u0430\u043b\u0435\u043d\u044c\u043a\u0438\u0439", "UN_LOCODE": "---", "country": "[TR] Turkey", "longitude": 26.63167, "latitude": 38.5141, "link": "https://www.myshiptracking.com//ru/ports/port-of-mordogan-in-tr-turkey-id-2105"},
{"name": "MOREHEAD CITY", "type": "\u041f\u043e\u0440\u0442", "size": "\u041c\u0430\u043b\u0435\u043d\u044c\u043a\u0438\u0439", "UN_LOCODE": "USMRH", "country": "[US] USA", "longitude": -76.70768, "latitude": 34.7148, "link": "https://www.myshiptracking.com//ru/ports/port-of-morehead-city-in-us-usa-id-6365"},
{"name": "MORGAN CITY", "type": "\u041f\u043e\u0440\u0442", "size": "\u041c\u0430\u043b\u0435\u043d\u044c\u043a\u0438\u0439", "UN_LOCODE": "USLMO", "country": "[US] USA", "longitude": -91.21425, "latitude": 29.69937, "link": "https://www.myshiptracking.com//ru/ports/port-of-morgan-city-in-us-usa-id-6294"},
{"name": "MORGANTOWN", "type": "\u041f\u043e\u0440\u0442", "size": "\u0421\u0440\u0435\u0434\u043d\u0438\u0439", "UN_LOCODE": "USMGW", "country": "[US] USA", "longitude": -79.95849, "latitude": 39.63548, "link": "https://www.myshiptracking.com//ru/ports/port-of-morgantown-in-us-usa-id-6379"},
{"name": "MORI", "type": "\u041f\u043e\u0440\u0442", "size": "\u041c\u0430\u043b\u0435\u043d\u044c\u043a\u0438\u0439", "UN_LOCODE": "JPMOR", "country": "[JP] Japan", "longitude": 135.38731, "latitude": 33.71322, "link": "https://www.myshiptracking.com//ru/ports/port-of-mori-in-jp-japan-id-4919"},
{"name": "MORIE", "type": "\u041f\u043e\u0440\u0442", "size": "\u0411\u043e\u043b\u044c\u0448\u043e\u0439", "UN_LOCODE": "JPMOO", "country": "[JP] Japan", "longitude": 131.6496, "latitude": 33.41051, "link": "https://www.myshiptracking.com//ru/ports/port-of-morie-in-jp-japan-id-4596"},
{"name": "MORIGAMI", "type": "\u041f\u043e\u0440\u0442", "size": "\u041c\u0430\u043b\u0435\u043d\u044c\u043a\u0438\u0439", "UN_LOCODE": "---", "country": "[JP] Japan", "longitude": 132.93527, "latitude": 34.12921, "link": "https://www.myshiptracking.com//ru/ports/port-of-morigami-in-jp-japan-id-4643"},
{"name": "MORMUGAO", "type": "\u041f\u043e\u0440\u0442", "size": "\u0411\u043e\u043b\u044c\u0448\u043e\u0439", "UN_LOCODE": "INMRM", "country": "[IN] India", "longitude": 73.81, "latitude": 15.414, "link": "https://www.myshiptracking.com//ru/ports/port-of-mormugao-in-in-india-id-3626"},
{"name": "MOROKUI", "type": "\u041f\u043e\u0440\u0442", "size": "X\u041c\u0430\u043b\u044b\u0439", "UN_LOCODE": "---", "country": "[JP] Japan", "longitude": 133.26519, "latitude": 35.57333, "link": "https://www.myshiptracking.com//ru/ports/port-of-morokui-in-jp-japan-id-4810"},
{"name": "MORONI", "type": "\u041f\u043e\u0440\u0442", "size": "\u041c\u0430\u043b\u0435\u043d\u044c\u043a\u0438\u0439", "UN_LOCODE": "KMYVA", "country": "[KM] Comoros", "longitude": 43.24836, "latitude": -11.70157, "link": "https://www.myshiptracking.com//ru/ports/port-of-moroni-in-km-comoros-id-7156"},
{"name": "MOROZAKI", "type": "\u041f\u043e\u0440\u0442", "size": "\u041c\u0430\u043b\u0435\u043d\u044c\u043a\u0438\u0439", "UN_LOCODE": "JPMRZ", "country": "[JP] Japan", "longitude": 136.97617, "latitude": 34.69962, "link": "https://www.myshiptracking.com//ru/ports/port-of-morozaki-in-jp-japan-id-4839"},
{"name": "MORRO DEL JABLE", "type": "\u041f\u043e\u0440\u0442", "size": "\u041c\u0430\u043b\u0435\u043d\u044c\u043a\u0438\u0439", "UN_LOCODE": "ESMHR", "country": "[ES] Spain", "longitude": -14.36463, "latitude": 28.0495, "link": "https://www.myshiptracking.com//ru/ports/port-of-morro-del-jable-in-es-spain-id-2682"},
{"name": "MORROW", "type": "\u041f\u043e\u0440\u0442", "size": "\u041c\u0430\u043b\u0435\u043d\u044c\u043a\u0438\u0439", "UN_LOCODE": "USMRW", "country": "[US] USA", "longitude": -119.67418, "latitude": 45.8547, "link": "https://www.myshiptracking.com//ru/ports/port-of-morrow-in-us-usa-id-5924"},
{"name": "MORTAGNE DU NORD", "type": "\u041f\u043e\u0440\u0442", "size": "X\u041c\u0430\u043b\u044b\u0439", "UN_LOCODE": "FRZJK", "country": "[FR] France", "longitude": 3.44627, "latitude": 50.50017, "link": "https://www.myshiptracking.com//ru/ports/port-of-mortagne-du-nord-in-fr-france-id-1754"},
{"name": "MORTAVIKA", "type": "\u041f\u043e\u0440\u0442", "size": "\u041c\u0430\u043b\u0435\u043d\u044c\u043a\u0438\u0439", "UN_LOCODE": "---", "country": "[NO] Norway", "longitude": 5.59183, "latitude": 59.14008, "link": "https://www.myshiptracking.com//ru/ports/port-of-mortavika-in-no-norway-id-5245"},
{"name": "MOSCOW", "type": "\u041f\u043e\u0440\u0442", "size": "X\u0411\u043e\u043b\u044c\u0449\u043e\u0439", "UN_LOCODE": "RUMOW", "country": "[RU] Russia", "longitude": 37.5964, "latitude": 55.7293, "link": "https://www.myshiptracking.com//ru/ports/port-of-moscow-in-ru-russia-id-2975"},
{"name": "MOSJOEN", "type": "\u041f\u043e\u0440\u0442", "size": "\u0411\u043e\u043b\u044c\u0448\u043e\u0439", "UN_LOCODE": "NOMJF", "country": "[NO] Norway", "longitude": 13.18087, "latitude": 65.85319, "link": "https://www.myshiptracking.com//ru/ports/port-of-mosjoen-in-no-norway-id-5278"},
{"name": "MOSKENES", "type": "\u041f\u043e\u0440\u0442", "size": "\u041c\u0430\u043b\u0435\u043d\u044c\u043a\u0438\u0439", "UN_LOCODE": "NOMSK", "country": "[NO] Norway", "longitude": 13.03836, "latitude": 67.89971, "link": "https://www.myshiptracking.com//ru/ports/port-of-moskenes-in-no-norway-id-5266"},
{"name": "MOSMAN", "type": "\u041f\u043e\u0440\u0442", "size": "\u041c\u0430\u043b\u0435\u043d\u044c\u043a\u0438\u0439", "UN_LOCODE": "AUMSA", "country": "[AU] Australia", "longitude": 151.23658, "latitude": -33.847, "link": "https://www.myshiptracking.com//ru/ports/port-of-mosman-in-au-australia-id-3947"},
{"name": "MOSS", "type": "\u041f\u043e\u0440\u0442", "size": "\u0421\u0440\u0435\u0434\u043d\u0438\u0439", "UN_LOCODE": "NOMSS", "country": "[NO] Norway", "longitude": 10.65204, "latitude": 59.42851, "link": "https://www.myshiptracking.com//ru/ports/port-of-moss-in-no-norway-id-5072"},
{"name": "MOSSEL BAY", "type": "\u041f\u043e\u0440\u0442", "size": "\u041c\u0430\u043b\u0435\u043d\u044c\u043a\u0438\u0439", "UN_LOCODE": "ZAMZY", "country": "[ZA] South Africa", "longitude": 22.14502, "latitude": -34.17561, "link": "https://www.myshiptracking.com//ru/ports/port-of-mossel-bay-in-za-south-africa-id-3402"},
{"name": "MOSSELPLAAT", "type": "\u0413\u0430\u0432\u0430\u043d\u044c", "size": "X\u041c\u0430\u043b\u044b\u0439", "UN_LOCODE": "---", "country": "[NL] Netherlands", "longitude": 3.67293, "latitude": 51.55691, "link": "https://www.myshiptracking.com//ru/ports/marina-of-mosselplaat-in-nl-netherlands-id-864"},
{"name": "MOSTAGANEM", "type": "\u041f\u043e\u0440\u0442", "size": "\u041c\u0430\u043b\u0435\u043d\u044c\u043a\u0438\u0439", "UN_LOCODE": "DZMOS", "country": "[DZ] Algeria", "longitude": 0.07308, "latitude": 35.93396, "link": "https://www.myshiptracking.com//ru/ports/port-of-mostaganem-in-dz-algeria-id-3256"},
{"name": "MOSTYN", "type": "\u041f\u043e\u0440\u0442", "size": "\u041c\u0430\u043b\u0435\u043d\u044c\u043a\u0438\u0439", "UN_LOCODE": "GBCHE", "country": "[GB] United Kingdom", "longitude": -3.26114, "latitude": 53.319, "link": "https://www.myshiptracking.com//ru/ports/port-of-mostyn-in-gb-united-kingdom-id-303"},
{"name": "MOTA BERTH", "type": "\u041f\u043e\u0440\u0442", "size": "\u0421\u0440\u0435\u0434\u043d\u0438\u0439", "UN_LOCODE": "---", "country": "[JO] Jordan", "longitude": 34.97411, "latitude": 29.46779, "link": "https://www.myshiptracking.com//ru/ports/port-of-mota-berth-in-jo-jordan-id-5899"},
{"name": "MOTOCHI", "type": "\u041f\u043e\u0440\u0442", "size": "X\u041c\u0430\u043b\u044b\u0439", "UN_LOCODE": "---", "country": "[JP] Japan", "longitude": 141.0211, "latitude": 45.30506, "link": "https://www.myshiptracking.com//ru/ports/port-of-motochi-in-jp-japan-id-4677"},
{"name": "MOTOHAMACHO", "type": "\u041f\u043e\u0440\u0442", "size": "\u0421\u0440\u0435\u0434\u043d\u0438\u0439", "UN_LOCODE": "---", "country": "[JP] Japan", "longitude": 132.05751, "latitude": 34.8946, "link": "https://www.myshiptracking.com//ru/ports/port-of-motohamacho-in-jp-japan-id-4279"},
{"name": "MOTOINABU", "type": "\u041f\u043e\u0440\u0442", "size": "\u041c\u0430\u043b\u0435\u043d\u044c\u043a\u0438\u0439", "UN_LOCODE": "---", "country": "[JP] Japan", "longitude": 142.94559, "latitude": 44.60586, "link": "https://www.myshiptracking.com//ru/ports/port-of-motoinabu-in-jp-japan-id-4852"},
{"name": "MOTOMACHI", "type": "\u041f\u043e\u0440\u0442", "size": "\u041c\u0430\u043b\u0435\u043d\u044c\u043a\u0438\u0439", "UN_LOCODE": "JPMOT", "country": "[JP] Japan", "longitude": 140.12945, "latitude": 41.96941, "link": "https://www.myshiptracking.com//ru/ports/port-of-motomachi-in-jp-japan-id-4665"},
{"name": "MOTOMURACHO", "type": "\u041f\u043e\u0440\u0442", "size": "\u041c\u0430\u043b\u0435\u043d\u044c\u043a\u0438\u0439", "UN_LOCODE": "---", "country": "[JP] Japan", "longitude": 141.16884, "latitude": 41.82166, "link": "https://www.myshiptracking.com//ru/ports/port-of-motomuracho-in-jp-japan-id-4419"},
{"name": "MOTRIL", "type": "\u041f\u043e\u0440\u0442", "size": "\u041c\u0430\u043b\u0435\u043d\u044c\u043a\u0438\u0439", "UN_LOCODE": "ESMOT", "country": "[ES] Spain", "longitude": -3.51901, "latitude": 36.71772, "link": "https://www.myshiptracking.com//ru/ports/port-of-motril-in-es-spain-id-1976"},
{"name": "MOUDROS", "type": "\u041f\u043e\u0440\u0442", "size": "X\u041c\u0430\u043b\u044b\u0439", "UN_LOCODE": "GRMDR", "country": "[GR] Greece", "longitude": 25.26543, "latitude": 39.87096, "link": "https://www.myshiptracking.com//ru/ports/port-of-moudros-in-gr-greece-id-455"},
{"name": "MOULIN MER", "type": "\u041f\u043e\u0440\u0442", "size": "X\u041c\u0430\u043b\u044b\u0439", "UN_LOCODE": "FRMM5", "country": "[FR] France", "longitude": -4.28497, "latitude": 48.31598, "link": "https://www.myshiptracking.com//ru/ports/port-of-moulin-mer-in-fr-france-id-2651"},
{"name": "MOUND CITY", "type": "\u041f\u043e\u0440\u0442", "size": "\u041c\u0430\u043b\u0435\u043d\u044c\u043a\u0438\u0439", "UN_LOCODE": "---", "country": "[US] USA", "longitude": -89.15854, "latitude": 37.08387, "link": "https://www.myshiptracking.com//ru/ports/port-of-mound-city-in-us-usa-id-6142"},
{"name": "MOUNT VERNON", "type": "\u041f\u043e\u0440\u0442", "size": "X\u0411\u043e\u043b\u044c\u0449\u043e\u0439", "UN_LOCODE": "USMXH", "country": "[US] USA", "longitude": -87.89702, "latitude": 37.92563, "link": "https://www.myshiptracking.com//ru/ports/port-of-mount-vernon-in-us-usa-id-6115"},
{"name": "MOURTOS", "type": "\u0413\u0430\u0432\u0430\u043d\u044c", "size": "X\u041c\u0430\u043b\u044b\u0439", "UN_LOCODE": "---", "country": "[GR] Greece", "longitude": 20.23546, "latitude": 39.39988, "link": "https://www.myshiptracking.com//ru/ports/marina-of-mourtos-in-gr-greece-id-522"}]
