[{"name": "KULEVI", "type": "\u041f\u043e\u0440\u0442", "size": "\u041c\u0430\u043b\u0435\u043d\u044c\u043a\u0438\u0439", "UN_LOCODE": "GEKUL", "country": "[GE] Georgia", "longitude": 41.63379, "latitude": 42.27516, "link": "https://www.myshiptracking.com//ru/ports/port-of-kulevi-in-ge-georgia-id-3146"},
{"name": "KULLAVIK", "type": "\u041f\u043e\u0440\u0442", "size": "\u041c\u0430\u043b\u0435\u043d\u044c\u043a\u0438\u0439", "UN_LOCODE": "SEKLV", "country": "[SE] Sweden", "longitude": 11.92333, "latitude": 57.55052, "link": "https://www.myshiptracking.com//ru/ports/port-of-kullavik-in-se-sweden-id-2240"},
{"name": "KUMAGE", "type": "\u041f\u043e\u0440\u0442", "size": "\u041c\u0430\u043b\u0435\u043d\u044c\u043a\u0438\u0439", "UN_LOCODE": "JPKGE", "country": "[JP] Japan", "longitude": 131.65088, "latitude": 33.66819, "link": "https://www.myshiptracking.com//ru/ports/port-of-kumage-in-jp-japan-id-4758"},
{"name": "KUMAI", "type": "\u041f\u043e\u0440\u0442", "size": "\u041c\u0430\u043b\u0435\u043d\u044c\u043a\u0438\u0439", "UN_LOCODE": "IDKUM", "country": "[ID] Indonesia", "longitude": 111.72521, "latitude": -2.74505, "link": "https://www.myshiptracking.com//ru/ports/port-of-kumai-in-id-indonesia-id-3763"},
{"name": "KUMAISHIUNSEKICHO", "type": "\u041f\u043e\u0440\u0442", "size": "\u041c\u0430\u043b\u0435\u043d\u044c\u043a\u0438\u0439", "UN_LOCODE": "---", "country": "[JP] Japan", "longitude": 139.98396, "latitude": 42.12657, "link": "https://www.myshiptracking.com//ru/ports/port-of-kumaishiunsekicho-in-jp-japan-id-4353"},
{"name": "KUMAMOTO", "type": "\u041f\u043e\u0440\u0442", "size": "\u0411\u043e\u043b\u044c\u0448\u043e\u0439", "UN_LOCODE": "JPKMJ", "country": "[JP] Japan", "longitude": 130.58232, "latitude": 32.75825, "link": "https://www.myshiptracking.com//ru/ports/port-of-kumamoto-in-jp-japan-id-4887"},
{"name": "KUMBAG", "type": "\u041f\u043e\u0440\u0442", "size": "X\u041c\u0430\u043b\u044b\u0439", "UN_LOCODE": "---", "country": "[TR] Turkey", "longitude": 27.4613, "latitude": 40.8655, "link": "https://www.myshiptracking.com//ru/ports/port-of-kumbag-in-tr-turkey-id-2157"},
{"name": "KUMIHAMA", "type": "\u041f\u043e\u0440\u0442", "size": "\u0421\u0440\u0435\u0434\u043d\u0438\u0439", "UN_LOCODE": "JPKMH", "country": "[JP] Japan", "longitude": 134.89919, "latitude": 35.61015, "link": "https://www.myshiptracking.com//ru/ports/port-of-kumihama-in-jp-japan-id-4448"},
{"name": "KUMOZU", "type": "\u041f\u043e\u0440\u0442", "size": "\u041c\u0430\u043b\u0435\u043d\u044c\u043a\u0438\u0439", "UN_LOCODE": "---", "country": "[JP] Japan", "longitude": 133.27729, "latitude": 35.57506, "link": "https://www.myshiptracking.com//ru/ports/port-of-kumozu-in-jp-japan-id-4453"},
{"name": "KUNAK", "type": "\u041f\u043e\u0440\u0442", "size": "\u041c\u0430\u043b\u0435\u043d\u044c\u043a\u0438\u0439", "UN_LOCODE": "MYKUN", "country": "[MY] Malaysia", "longitude": 118.25513, "latitude": 4.6995, "link": "https://www.myshiptracking.com//ru/ports/port-of-kunak-in-my-malaysia-id-5723"},
{"name": "KUNDA", "type": "\u041f\u043e\u0440\u0442", "size": "\u041c\u0430\u043b\u0435\u043d\u044c\u043a\u0438\u0439", "UN_LOCODE": "EEKND", "country": "[EE] Estonia", "longitude": 26.54779, "latitude": 59.52578, "link": "https://www.myshiptracking.com//ru/ports/port-of-kunda-in-ee-estonia-id-5671"},
{"name": "KUNEHAMA", "type": "\u041f\u043e\u0440\u0442", "size": "\u041c\u0430\u043b\u0435\u043d\u044c\u043a\u0438\u0439", "UN_LOCODE": "JPKNH", "country": "[JP] Japan", "longitude": 129.17714, "latitude": 34.16973, "link": "https://www.myshiptracking.com//ru/ports/port-of-kunehama-in-jp-japan-id-4817"},
{"name": "KUNIASAKI", "type": "\u041f\u043e\u0440\u0442", "size": "\u041c\u0430\u043b\u0435\u043d\u044c\u043a\u0438\u0439", "UN_LOCODE": "JPKNS", "country": "[JP] Japan", "longitude": 131.73989, "latitude": 33.56845, "link": "https://www.myshiptracking.com//ru/ports/port-of-kuniasaki-in-jp-japan-id-4867"},
{"name": "KUNIMISHIRAHAMA", "type": "\u041f\u043e\u0440\u0442", "size": "X\u041c\u0430\u043b\u044b\u0439", "UN_LOCODE": "---", "country": "[JP] Japan", "longitude": 136.02693, "latitude": 36.08218, "link": "https://www.myshiptracking.com//ru/ports/port-of-kunimishirahama-in-jp-japan-id-4920"},
{"name": "KUOPIO", "type": "\u041f\u043e\u0440\u0442", "size": "\u0421\u0440\u0435\u0434\u043d\u0438\u0439", "UN_LOCODE": "FIKUO", "country": "[FI] Finland", "longitude": 27.70645, "latitude": 62.88697, "link": "https://www.myshiptracking.com//ru/ports/port-of-kuopio-in-fi-finland-id-5620"},
{"name": "KUPANG", "type": "\u041f\u043e\u0440\u0442", "size": "\u041c\u0430\u043b\u0435\u043d\u044c\u043a\u0438\u0439", "UN_LOCODE": "IDKOE", "country": "[ID] Indonesia", "longitude": 123.52601, "latitude": -10.19632, "link": "https://www.myshiptracking.com//ru/ports/port-of-kupang-in-id-indonesia-id-3774"},
{"name": "KURAMAI", "type": "\u041f\u043e\u0440\u0442", "size": "\u041c\u0430\u043b\u0435\u043d\u044c\u043a\u0438\u0439", "UN_LOCODE": "JPKRC", "country": "[JP] Japan", "longitude": 137.17246, "latitude": 34.7765, "link": "https://www.myshiptracking.com//ru/ports/port-of-kuramai-in-jp-japan-id-4426"},
{"name": "KURANOMOTO", "type": "\u041f\u043e\u0440\u0442", "size": "\u041c\u0430\u043b\u0435\u043d\u044c\u043a\u0438\u0439", "UN_LOCODE": "---", "country": "[JP] Japan", "longitude": 130.10396, "latitude": 32.18992, "link": "https://www.myshiptracking.com//ru/ports/port-of-kuranomoto-in-jp-japan-id-4625"},
{"name": "KURE", "type": "\u041f\u043e\u0440\u0442", "size": "X\u0411\u043e\u043b\u044c\u0449\u043e\u0439", "UN_LOCODE": "JPKRE", "country": "[JP] Japan", "longitude": 132.54575, "latitude": 34.2374, "link": "https://www.myshiptracking.com//ru/ports/port-of-kure-in-jp-japan-id-4688"},
{"name": "KURE KAWAJIRI", "type": "\u041f\u043e\u0440\u0442", "size": "\u041c\u0430\u043b\u0435\u043d\u044c\u043a\u0438\u0439", "UN_LOCODE": "---", "country": "[JP] Japan", "longitude": 132.69786, "latitude": 34.23266, "link": "https://www.myshiptracking.com//ru/ports/port-of-kure-kawajiri-in-jp-japan-id-4495"},
{"name": "KURIHAMA", "type": "\u041f\u043e\u0440\u0442", "size": "\u041c\u0430\u043b\u0435\u043d\u044c\u043a\u0438\u0439", "UN_LOCODE": "JPKRH", "country": "[JP] Japan", "longitude": 139.72, "latitude": 35.2232, "link": "https://www.myshiptracking.com//ru/ports/port-of-kurihama-in-jp-japan-id-4703"},
{"name": "KURII", "type": "\u041f\u043e\u0440\u0442", "size": "X\u041c\u0430\u043b\u044b\u0439", "UN_LOCODE": "JPKRU", "country": "[JP] Japan", "longitude": 133.03986, "latitude": 36.0264, "link": "https://www.myshiptracking.com//ru/ports/port-of-kurii-in-jp-japan-id-4444"},
{"name": "KURNELL", "type": "\u041f\u043e\u0440\u0442", "size": "\u041c\u0430\u043b\u0435\u043d\u044c\u043a\u0438\u0439", "UN_LOCODE": "AUKUR", "country": "[AU] Australia", "longitude": 151.2111, "latitude": -34.00213, "link": "https://www.myshiptracking.com//ru/ports/port-of-kurnell-in-au-australia-id-3928"},
{"name": "KUROSE", "type": "\u041f\u043e\u0440\u0442", "size": "X\u041c\u0430\u043b\u044b\u0439", "UN_LOCODE": "---", "country": "[JP] Japan", "longitude": 129.28826, "latitude": 34.29568, "link": "https://www.myshiptracking.com//ru/ports/port-of-kurose-in-jp-japan-id-4702"},
{"name": "KURUWA", "type": "\u041f\u043e\u0440\u0442", "size": "X\u041c\u0430\u043b\u044b\u0439", "UN_LOCODE": "---", "country": "[JP] Japan", "longitude": 139.59086, "latitude": 35.24681, "link": "https://www.myshiptracking.com//ru/ports/port-of-kuruwa-in-jp-japan-id-4301"},
{"name": "KURYK", "type": "\u041f\u043e\u0440\u0442", "size": "\u041c\u0430\u043b\u0435\u043d\u044c\u043a\u0438\u0439", "UN_LOCODE": "KZKUR", "country": "[KZ] Kazakhstan", "longitude": 51.59608, "latitude": 43.18218, "link": "https://www.myshiptracking.com//ru/ports/port-of-kuryk-in-kz-kazakhstan-id-5845"},
{"name": "KUSADASI", "type": "\u041f\u043e\u0440\u0442", "size": "\u0421\u0440\u0435\u0434\u043d\u0438\u0439", "UN_LOCODE": "TRKUS", "country": "[TR] Turkey", "longitude": 27.25586, "latitude": 37.8667, "link": "https://www.myshiptracking.com//ru/ports/port-of-kusadasi-in-tr-turkey-id-2156"},
{"name": "KUSAKABE", "type": "\u041f\u043e\u0440\u0442", "size": "\u0421\u0440\u0435\u0434\u043d\u0438\u0439", "UN_LOCODE": "JPUCN", "country": "[JP] Japan", "longitude": 134.29698, "latitude": 34.47578, "link": "https://www.myshiptracking.com//ru/ports/port-of-kusakabe-in-jp-japan-id-4529"},
{"name": "KUSAPIN", "type": "\u041f\u043e\u0440\u0442", "size": "\u041c\u0430\u043b\u0435\u043d\u044c\u043a\u0438\u0439", "UN_LOCODE": "---", "country": "[PA] Panama", "longitude": -81.88559, "latitude": 9.18354, "link": "https://www.myshiptracking.com//ru/ports/port-of-kusapin-in-pa-panama-id-6917"},
{"name": "KUSHIMOTO", "type": "\u041f\u043e\u0440\u0442", "size": "\u041c\u0430\u043b\u0435\u043d\u044c\u043a\u0438\u0439", "UN_LOCODE": "JPKUJ", "country": "[JP] Japan", "longitude": 135.78754, "latitude": 33.47135, "link": "https://www.myshiptracking.com//ru/ports/port-of-kushimoto-in-jp-japan-id-4891"},
{"name": "KUSHIRO", "type": "\u041f\u043e\u0440\u0442", "size": "\u0411\u043e\u043b\u044c\u0448\u043e\u0439", "UN_LOCODE": "JPKUH", "country": "[JP] Japan", "longitude": 144.36373, "latitude": 42.98101, "link": "https://www.myshiptracking.com//ru/ports/port-of-kushiro-in-jp-japan-id-4414"},
{"name": "KUSUBO", "type": "\u041f\u043e\u0440\u0442", "size": "\u041c\u0430\u043b\u0435\u043d\u044c\u043a\u0438\u0439", "UN_LOCODE": "JPKSB", "country": "[JP] Japan", "longitude": 129.3609, "latitude": 34.3004, "link": "https://www.myshiptracking.com//ru/ports/port-of-kusubo-in-jp-japan-id-4307"},
{"name": "KUTAMAMACHI", "type": "\u041f\u043e\u0440\u0442", "size": "\u041c\u0430\u043b\u0435\u043d\u044c\u043a\u0438\u0439", "UN_LOCODE": "---", "country": "[JP] Japan", "longitude": 130.03137, "latitude": 32.21206, "link": "https://www.myshiptracking.com//ru/ports/port-of-kutamamachi-in-jp-japan-id-4364"},
{"name": "KUTSUGATA", "type": "\u041f\u043e\u0440\u0442", "size": "\u041c\u0430\u043b\u0435\u043d\u044c\u043a\u0438\u0439", "UN_LOCODE": "JPKTG", "country": "[JP] Japan", "longitude": 141.1358, "latitude": 45.19, "link": "https://www.myshiptracking.com//ru/ports/port-of-kutsugata-in-jp-japan-id-4913"},
{"name": "KUWA", "type": "\u041f\u043e\u0440\u0442", "size": "\u041c\u0430\u043b\u0435\u043d\u044c\u043a\u0438\u0439", "UN_LOCODE": "---", "country": "[JP] Japan", "longitude": 129.25823, "latitude": 34.12572, "link": "https://www.myshiptracking.com//ru/ports/port-of-kuwa-in-jp-japan-id-4627"},
{"name": "KUWAIT", "type": "\u041f\u043e\u0440\u0442", "size": "\u041c\u0430\u043b\u0435\u043d\u044c\u043a\u0438\u0439", "UN_LOCODE": "KWKWI", "country": "[KW] Kuwait", "longitude": 47.9291, "latitude": 29.3516, "link": "https://www.myshiptracking.com//ru/ports/port-of-kuwait-in-kw-kuwait-id-255"},
{"name": "KUWEIT NAVAL BASE", "type": "\u041f\u043e\u0440\u0442", "size": "\u041c\u0430\u043b\u0435\u043d\u044c\u043a\u0438\u0439", "UN_LOCODE": "---", "country": "[KW] Kuwait", "longitude": 48.28666, "latitude": 28.86315, "link": "https://www.myshiptracking.com//ru/ports/port-of-kuweit-naval-base-in-kw-kuwait-id-3524"},
{"name": "KVALSUND", "type": "\u041f\u043e\u0440\u0442", "size": "X\u041c\u0430\u043b\u044b\u0439", "UN_LOCODE": "NOKVS", "country": "[NO] Norway", "longitude": 5.608, "latitude": 62.3425, "link": "https://www.myshiptracking.com//ru/ports/port-of-kvalsund-in-no-norway-id-5300"},
{"name": "KVALSVIK", "type": "\u041f\u043e\u0440\u0442", "size": "X\u041c\u0430\u043b\u044b\u0439", "UN_LOCODE": "---", "country": "[NO] Norway", "longitude": 5.557, "latitude": 62.3655, "link": "https://www.myshiptracking.com//ru/ports/port-of-kvalsvik-in-no-norway-id-5330"},
{"name": "KWINANA", "type": "\u041f\u043e\u0440\u0442", "size": "X\u0411\u043e\u043b\u044c\u0449\u043e\u0439", "UN_LOCODE": "AUKWI", "country": "[AU] Australia", "longitude": 115.73052, "latitude": -32.21602, "link": "https://www.myshiptracking.com//ru/ports/port-of-kwinana-in-au-australia-id-3914"},
{"name": "KYAUKPYU", "type": "\u041f\u043e\u0440\u0442", "size": "\u041c\u0430\u043b\u0435\u043d\u044c\u043a\u0438\u0439", "UN_LOCODE": "MMKYP", "country": "[MM] Myanmar", "longitude": 93.55267, "latitude": 19.4318, "link": "https://www.myshiptracking.com//ru/ports/port-of-kyaukpyu-in-mm-myanmar-id-5861"},
{"name": "KYLE OF LOCHALSH", "type": "\u041f\u043e\u0440\u0442", "size": "\u041c\u0430\u043b\u0435\u043d\u044c\u043a\u0438\u0439", "UN_LOCODE": "GBKYL", "country": "[GB] United Kingdom", "longitude": -5.71211, "latitude": 57.27868, "link": "https://www.myshiptracking.com//ru/ports/port-of-kyle-of-lochalsh-in-gb-united-kingdom-id-1613"},
{"name": "KYLEAKIN", "type": "\u041f\u043e\u0440\u0442", "size": "X\u041c\u0430\u043b\u044b\u0439", "UN_LOCODE": "GBKYN", "country": "[GB] United Kingdom", "longitude": -5.72348, "latitude": 57.27319, "link": "https://www.myshiptracking.com//ru/ports/port-of-kyleakin-in-gb-united-kingdom-id-1693"},
{"name": "KYLLINI", "type": "\u041f\u043e\u0440\u0442", "size": "\u041c\u0430\u043b\u0435\u043d\u044c\u043a\u0438\u0439", "UN_LOCODE": "GRKYL", "country": "[GR] Greece", "longitude": 21.1524, "latitude": 37.9349, "link": "https://www.myshiptracking.com//ru/ports/port-of-kyllini-in-gr-greece-id-42"},
{"name": "KYMI", "type": "\u041f\u043e\u0440\u0442", "size": "\u041c\u0430\u043b\u0435\u043d\u044c\u043a\u0438\u0439", "UN_LOCODE": "---", "country": "[GR] Greece", "longitude": 24.12471, "latitude": 38.62388, "link": "https://www.myshiptracking.com//ru/ports/port-of-kymi-in-gr-greece-id-670"},
{"name": "KYPARISSIA", "type": "\u0413\u0430\u0432\u0430\u043d\u044c", "size": "X\u041c\u0430\u043b\u044b\u0439", "UN_LOCODE": "GRKYP", "country": "[GR] Greece", "longitude": 21.66471, "latitude": 37.25668, "link": "https://www.myshiptracking.com//ru/ports/marina-of-kyparissia-in-gr-greece-id-463"},
{"name": "KYRENIA", "type": "\u041f\u043e\u0440\u0442", "size": "\u041c\u0430\u043b\u0435\u043d\u044c\u043a\u0438\u0439", "UN_LOCODE": "CYKYR", "country": "[CY] Cyprus", "longitude": 33.32934, "latitude": 35.34444, "link": "https://www.myshiptracking.com//ru/ports/port-of-kyrenia-in-cy-cyprus-id-3135"},
{"name": "KYSTVEIEN", "type": "\u041f\u043e\u0440\u0442", "size": "X\u041c\u0430\u043b\u044b\u0439", "UN_LOCODE": "---", "country": "[NO] Norway", "longitude": 8.10633, "latitude": 58.11675, "link": "https://www.myshiptracking.com//ru/ports/port-of-kystveien-in-no-norway-id-5194"},
{"name": "KYTHNOS", "type": "\u041f\u043e\u0440\u0442", "size": "\u041c\u0430\u043b\u0435\u043d\u044c\u043a\u0438\u0439", "UN_LOCODE": "GRKYT", "country": "[GR] Greece", "longitude": 24.3936, "latitude": 37.3926, "link": "https://www.myshiptracking.com//ru/ports/port-of-kythnos-in-gr-greece-id-16"},
{"name": "L'AMETLLA DE MAR", "type": "\u041f\u043e\u0440\u0442", "size": "X\u041c\u0430\u043b\u044b\u0439", "UN_LOCODE": "ESKLL", "country": "[ES] Spain", "longitude": 0.80284, "latitude": 40.88022, "link": "https://www.myshiptracking.com//ru/ports/port-of-lametlla-de-mar-in-es-spain-id-1953"}]
