[{"name": "ANTALAHA", "type": "\u041f\u043e\u0440\u0442", "size": "X\u041c\u0430\u043b\u044b\u0439", "UN_LOCODE": "MGANM", "country": "[MG] Madagascar", "longitude": 50.28279, "latitude": -14.89956, "link": "https://www.myshiptracking.com//ru/ports/port-of-antalaha-in-mg-madagascar-id-7070"},
{"name": "ANTALYA", "type": "\u041f\u043e\u0440\u0442", "size": "\u041c\u0430\u043b\u0435\u043d\u044c\u043a\u0438\u0439", "UN_LOCODE": "TRAYT", "country": "[TR] Turkey", "longitude": 30.61095, "latitude": 36.8334, "link": "https://www.myshiptracking.com//ru/ports/port-of-antalya-in-tr-turkey-id-2159"},
{"name": "ANTARES", "type": "\u041f\u043e\u0440\u0442", "size": "X\u041c\u0430\u043b\u044b\u0439", "UN_LOCODE": "---", "country": "[RU] Russia", "longitude": 132.76984, "latitude": 42.84647, "link": "https://www.myshiptracking.com//ru/ports/port-of-antares-in-ru-russia-id-2985"},
{"name": "ANTIBES", "type": "\u041f\u043e\u0440\u0442", "size": "\u041c\u0430\u043b\u0435\u043d\u044c\u043a\u0438\u0439", "UN_LOCODE": "FRANT", "country": "[FR] France", "longitude": 7.1277, "latitude": 43.5866, "link": "https://www.myshiptracking.com//ru/ports/port-of-antibes-in-fr-france-id-90"},
{"name": "ANTIFER", "type": "\u041f\u043e\u0440\u0442", "size": "\u0411\u043e\u043b\u044c\u0448\u043e\u0439", "UN_LOCODE": "FRCIF", "country": "[FR] France", "longitude": 0.13738, "latitude": 49.65894, "link": "https://www.myshiptracking.com//ru/ports/port-of-antifer-in-fr-france-id-1790"},
{"name": "ANTIGUA", "type": "\u041f\u043e\u0440\u0442", "size": "\u041c\u0430\u043b\u0435\u043d\u044c\u043a\u0438\u0439", "UN_LOCODE": "AGANU", "country": "[AG] Antigua Barbuda", "longitude": -61.77285, "latitude": 17.01316, "link": "https://www.myshiptracking.com//ru/ports/port-of-antigua-in-ag-antigua-barbuda-id-7094"},
{"name": "ANTIKITHIRA", "type": "\u041f\u043e\u0440\u0442", "size": "\u041c\u0430\u043b\u0435\u043d\u044c\u043a\u0438\u0439", "UN_LOCODE": "GRPOA", "country": "[GR] Greece", "longitude": 23.29162, "latitude": 35.88801, "link": "https://www.myshiptracking.com//ru/ports/port-of-antikithira-in-gr-greece-id-689"},
{"name": "ANTILLA", "type": "\u041f\u043e\u0440\u0442", "size": "\u041c\u0430\u043b\u0435\u043d\u044c\u043a\u0438\u0439", "UN_LOCODE": "CUANT", "country": "[CU] Cuba", "longitude": -75.74456, "latitude": 20.82323, "link": "https://www.myshiptracking.com//ru/ports/port-of-antilla-in-cu-cuba-id-6831"},
{"name": "ANTIPAROS", "type": "\u041f\u043e\u0440\u0442", "size": "X\u041c\u0430\u043b\u044b\u0439", "UN_LOCODE": "GRANP", "country": "[GR] Greece", "longitude": 25.0862, "latitude": 37.0412, "link": "https://www.myshiptracking.com//ru/ports/port-of-antiparos-in-gr-greece-id-452"},
{"name": "ANTIPAXOS", "type": "\u0413\u0430\u0432\u0430\u043d\u044c", "size": "X\u041c\u0430\u043b\u044b\u0439", "UN_LOCODE": "---", "country": "[GR] Greece", "longitude": 20.23279, "latitude": 39.15341, "link": "https://www.myshiptracking.com//ru/ports/marina-of-antipaxos-in-gr-greece-id-822"},
{"name": "ANTIRIO", "type": "\u041f\u043e\u0440\u0442", "size": "\u041c\u0430\u043b\u0435\u043d\u044c\u043a\u0438\u0439", "UN_LOCODE": "GRANT", "country": "[GR] Greece", "longitude": 21.76997, "latitude": 38.32976, "link": "https://www.myshiptracking.com//ru/ports/port-of-antirio-in-gr-greece-id-700"},
{"name": "ANTOFAGASTA", "type": "\u041f\u043e\u0440\u0442", "size": "\u041c\u0430\u043b\u0435\u043d\u044c\u043a\u0438\u0439", "UN_LOCODE": "CLANF", "country": "[CL] Chile", "longitude": -70.40669, "latitude": -23.64985, "link": "https://www.myshiptracking.com//ru/ports/port-of-antofagasta-in-cl-chile-id-6711"},
{"name": "ANTOING", "type": "\u041f\u043e\u0440\u0442", "size": "\u041c\u0430\u043b\u0435\u043d\u044c\u043a\u0438\u0439", "UN_LOCODE": "BEATO", "country": "[BE] Belgium", "longitude": 3.44221, "latitude": 50.56957, "link": "https://www.myshiptracking.com//ru/ports/port-of-antoing-in-be-belgium-id-2546"},
{"name": "ANTONINA", "type": "\u041f\u043e\u0440\u0442", "size": "\u041c\u0430\u043b\u0435\u043d\u044c\u043a\u0438\u0439", "UN_LOCODE": "BRANT", "country": "[BR] Brazil", "longitude": -48.70721, "latitude": -25.42997, "link": "https://www.myshiptracking.com//ru/ports/port-of-antonina-in-br-brazil-id-6681"},
{"name": "ANTSIRANANA", "type": "\u041f\u043e\u0440\u0442", "size": "\u041c\u0430\u043b\u0435\u043d\u044c\u043a\u0438\u0439", "UN_LOCODE": "MGDIE", "country": "[MG] Madagascar", "longitude": 49.28316, "latitude": -12.27439, "link": "https://www.myshiptracking.com//ru/ports/port-of-antsiranana-in-mg-madagascar-id-7034"},
{"name": "ANTWERP", "type": "\u041f\u043e\u0440\u0442", "size": "X\u0411\u043e\u043b\u044c\u0449\u043e\u0439", "UN_LOCODE": "BEANR", "country": "[BE] Belgium", "longitude": 4.34107, "latitude": 51.2594, "link": "https://www.myshiptracking.com//ru/ports/port-of-antwerp-in-be-belgium-id-91"},
{"name": "ANZALI", "type": "\u041f\u043e\u0440\u0442", "size": "\u0411\u043e\u043b\u044c\u0448\u043e\u0439", "UN_LOCODE": "IRBAZ", "country": "[IR] Iran", "longitude": 49.46587, "latitude": 37.48363, "link": "https://www.myshiptracking.com//ru/ports/port-of-anzali-in-ir-iran-id-3544"},
{"name": "ANZIO", "type": "\u041f\u043e\u0440\u0442", "size": "\u041c\u0430\u043b\u0435\u043d\u044c\u043a\u0438\u0439", "UN_LOCODE": "ITANZ", "country": "[IT] Italy", "longitude": 12.63533, "latitude": 41.44487, "link": "https://www.myshiptracking.com//ru/ports/port-of-anzio-in-it-italy-id-2003"},
{"name": "AO", "type": "\u041f\u043e\u0440\u0442", "size": "\u041c\u0430\u043b\u0435\u043d\u044c\u043a\u0438\u0439", "UN_LOCODE": "---", "country": "[JP] Japan", "longitude": 135.07616, "latitude": 33.90467, "link": "https://www.myshiptracking.com//ru/ports/port-of-ao-in-jp-japan-id-4870"},
{"name": "AOJIANG", "type": "\u041f\u043e\u0440\u0442", "size": "\u0411\u043e\u043b\u044c\u0448\u043e\u0439", "UN_LOCODE": "CNAJG", "country": "[CN] China", "longitude": 120.55756, "latitude": 27.58374, "link": "https://www.myshiptracking.com//ru/ports/port-of-aojiang-in-cn-china-id-4099"},
{"name": "AOMORI", "type": "\u041f\u043e\u0440\u0442", "size": "\u0411\u043e\u043b\u044c\u0448\u043e\u0439", "UN_LOCODE": "JPAOJ", "country": "[JP] Japan", "longitude": 140.72375, "latitude": 40.84746, "link": "https://www.myshiptracking.com//ru/ports/port-of-aomori-in-jp-japan-id-4612"},
{"name": "AONAE", "type": "\u041f\u043e\u0440\u0442", "size": "\u041c\u0430\u043b\u0435\u043d\u044c\u043a\u0438\u0439", "UN_LOCODE": "JPAON", "country": "[JP] Japan", "longitude": 139.45413, "latitude": 42.05994, "link": "https://www.myshiptracking.com//ru/ports/port-of-aonae-in-jp-japan-id-4858"},
{"name": "AOSHIMA", "type": "\u041f\u043e\u0440\u0442", "size": "\u041c\u0430\u043b\u0435\u043d\u044c\u043a\u0438\u0439", "UN_LOCODE": "JPAOS", "country": "[JP] Japan", "longitude": 131.47519, "latitude": 31.79882, "link": "https://www.myshiptracking.com//ru/ports/port-of-aoshima-in-jp-japan-id-4456"},
{"name": "AP CHAU", "type": "\u041f\u043e\u0440\u0442", "size": "X\u041c\u0430\u043b\u044b\u0439", "UN_LOCODE": "---", "country": "[CN] China", "longitude": 114.26964, "latitude": 22.55052, "link": "https://www.myshiptracking.com//ru/ports/port-of-ap-chau-in-cn-china-id-4168"},
{"name": "APATIN", "type": "\u041f\u043e\u0440\u0442", "size": "\u041c\u0430\u043b\u0435\u043d\u044c\u043a\u0438\u0439", "UN_LOCODE": "RSAPT", "country": "[RS] Serbia", "longitude": 18.96617, "latitude": 45.67824, "link": "https://www.myshiptracking.com//ru/ports/port-of-apatin-in-rs-serbia-id-5825"},
{"name": "APIA", "type": "\u041f\u043e\u0440\u0442", "size": "\u041c\u0430\u043b\u0435\u043d\u044c\u043a\u0438\u0439", "UN_LOCODE": "WSAPW", "country": "[WS] Samoa", "longitude": -171.76326, "latitude": -13.82808, "link": "https://www.myshiptracking.com//ru/ports/port-of-apia-in-ws-samoa-id-5862"},
{"name": "APOLLO BAY", "type": "\u041f\u043e\u0440\u0442", "size": "X\u041c\u0430\u043b\u044b\u0439", "UN_LOCODE": "---", "country": "[AU] Australia", "longitude": 143.67742, "latitude": -38.75813, "link": "https://www.myshiptracking.com//ru/ports/port-of-apollo-bay-in-au-australia-id-3885"},
{"name": "APPINGEDAM", "type": "\u041f\u043e\u0440\u0442", "size": "\u0421\u0440\u0435\u0434\u043d\u0438\u0439", "UN_LOCODE": "NLAPP", "country": "[NL] Netherlands", "longitude": 6.85737, "latitude": 53.31994, "link": "https://www.myshiptracking.com//ru/ports/port-of-appingedam-in-nl-netherlands-id-1055"},
{"name": "APPLECROSS", "type": "\u0413\u0430\u0432\u0430\u043d\u044c", "size": "\u041c\u0430\u043b\u0435\u043d\u044c\u043a\u0438\u0439", "UN_LOCODE": "AUAPP", "country": "[AU] Australia", "longitude": 115.84754, "latitude": -32.00332, "link": "https://www.myshiptracking.com//ru/ports/marina-of-applecross-in-au-australia-id-3864"},
{"name": "APPLEDORE", "type": "\u041f\u043e\u0440\u0442", "size": "\u041c\u0430\u043b\u0435\u043d\u044c\u043a\u0438\u0439", "UN_LOCODE": "GBAPP", "country": "[GB] United Kingdom", "longitude": -4.18996, "latitude": 51.05075, "link": "https://www.myshiptracking.com//ru/ports/port-of-appledore-in-gb-united-kingdom-id-1580"},
{"name": "AQABA", "type": "\u041f\u043e\u0440\u0442", "size": "\u0411\u043e\u043b\u044c\u0448\u043e\u0439", "UN_LOCODE": "JOAQB", "country": "[JO] Jordan", "longitude": 34.99356, "latitude": 29.52084, "link": "https://www.myshiptracking.com//ru/ports/port-of-aqaba-in-jo-jordan-id-5903"},
{"name": "AQABA INDUSTRIAL", "type": "\u041f\u043e\u0440\u0442", "size": "\u0421\u0440\u0435\u0434\u043d\u0438\u0439", "UN_LOCODE": "---", "country": "[JO] Jordan", "longitude": 34.95911, "latitude": 29.37695, "link": "https://www.myshiptracking.com//ru/ports/port-of-aqaba-industrial-in-jo-jordan-id-5840"},
{"name": "AQUILIA", "type": "\u0413\u0430\u0432\u0430\u043d\u044c", "size": "X\u041c\u0430\u043b\u044b\u0439", "UN_LOCODE": "ITZLS", "country": "[IT] Italy", "longitude": 16.57006, "latitude": 38.59116, "link": "https://www.myshiptracking.com//ru/ports/marina-of-aquilia-in-it-italy-id-2079"},
{"name": "ARACAJU", "type": "\u041f\u043e\u0440\u0442", "size": "\u0411\u043e\u043b\u044c\u0448\u043e\u0439", "UN_LOCODE": "BRAJU", "country": "[BR] Brazil", "longitude": -37.04767, "latitude": -10.93712, "link": "https://www.myshiptracking.com//ru/ports/port-of-aracaju-in-br-brazil-id-6692"},
{"name": "ARAHAMA", "type": "\u041f\u043e\u0440\u0442", "size": "\u0421\u0440\u0435\u0434\u043d\u0438\u0439", "UN_LOCODE": "---", "country": "[JP] Japan", "longitude": 140.91251, "latitude": 38.03449, "link": "https://www.myshiptracking.com//ru/ports/port-of-arahama-in-jp-japan-id-4274"},
{"name": "ARAHOVITIKA", "type": "\u0413\u0430\u0432\u0430\u043d\u044c", "size": "X\u041c\u0430\u043b\u044b\u0439", "UN_LOCODE": "---", "country": "[GR] Greece", "longitude": 21.84281, "latitude": 38.33157, "link": "https://www.myshiptracking.com//ru/ports/marina-of-arahovitika-in-gr-greece-id-550"},
{"name": "ARANSAS PASS", "type": "\u041f\u043e\u0440\u0442", "size": "\u0421\u0440\u0435\u0434\u043d\u0438\u0439", "UN_LOCODE": "USYAS", "country": "[US] USA", "longitude": -97.14104, "latitude": 27.89307, "link": "https://www.myshiptracking.com//ru/ports/port-of-aransas-pass-in-us-usa-id-6182"},
{"name": "ARARI", "type": "\u041f\u043e\u0440\u0442", "size": "\u041c\u0430\u043b\u0435\u043d\u044c\u043a\u0438\u0439", "UN_LOCODE": "JPARA", "country": "[JP] Japan", "longitude": 138.76584, "latitude": 34.82953, "link": "https://www.myshiptracking.com//ru/ports/port-of-arari-in-jp-japan-id-4238"},
{"name": "ARASHIMACHO", "type": "\u041f\u043e\u0440\u0442", "size": "\u041c\u0430\u043b\u0435\u043d\u044c\u043a\u0438\u0439", "UN_LOCODE": "---", "country": "[JP] Japan", "longitude": 136.87256, "latitude": 34.46, "link": "https://www.myshiptracking.com//ru/ports/port-of-arashimacho-in-jp-japan-id-4885"},
{"name": "ARATU", "type": "\u041f\u043e\u0440\u0442", "size": "X\u0411\u043e\u043b\u044c\u0449\u043e\u0439", "UN_LOCODE": "BRARB", "country": "[BR] Brazil", "longitude": -38.4723, "latitude": -12.7863, "link": "https://www.myshiptracking.com//ru/ports/port-of-aratu-in-br-brazil-id-92"},
{"name": "ARBATAX", "type": "\u041f\u043e\u0440\u0442", "size": "\u041c\u0430\u043b\u0435\u043d\u044c\u043a\u0438\u0439", "UN_LOCODE": "ITATX", "country": "[IT] Italy", "longitude": 9.70101, "latitude": 39.94257, "link": "https://www.myshiptracking.com//ru/ports/port-of-arbatax-in-it-italy-id-2059"},
{"name": "ARBROATH", "type": "\u0413\u0430\u0432\u0430\u043d\u044c", "size": "\u041c\u0430\u043b\u0435\u043d\u044c\u043a\u0438\u0439", "UN_LOCODE": "GBARB", "country": "[GB] United Kingdom", "longitude": -2.584, "latitude": 56.55407, "link": "https://www.myshiptracking.com//ru/ports/marina-of-arbroath-in-gb-united-kingdom-id-2367"},
{"name": "ARCHANGELOS", "type": "\u0413\u0430\u0432\u0430\u043d\u044c", "size": "X\u041c\u0430\u043b\u044b\u0439", "UN_LOCODE": "---", "country": "[GR] Greece", "longitude": 22.8785, "latitude": 36.6292, "link": "https://www.myshiptracking.com//ru/ports/marina-of-archangelos-in-gr-greece-id-660"},
{"name": "ARCHIVAN", "type": "\u041f\u043e\u0440\u0442", "size": "X\u041c\u0430\u043b\u044b\u0439", "UN_LOCODE": "---", "country": "[AZ] Azerbaijan", "longitude": 48.87969, "latitude": 38.51982, "link": "https://www.myshiptracking.com//ru/ports/port-of-archivan-in-az-azerbaijan-id-5811"},
{"name": "ARDAL", "type": "\u041f\u043e\u0440\u0442", "size": "\u041c\u0430\u043b\u0435\u043d\u044c\u043a\u0438\u0439", "UN_LOCODE": "NOAAN", "country": "[NO] Norway", "longitude": 6.162, "latitude": 59.1438, "link": "https://www.myshiptracking.com//ru/ports/port-of-ardal-in-no-norway-id-5333"},
{"name": "ARDALSTANGEN", "type": "\u041f\u043e\u0440\u0442", "size": "\u041c\u0430\u043b\u0435\u043d\u044c\u043a\u0438\u0439", "UN_LOCODE": "NOARD", "country": "[NO] Norway", "longitude": 7.70283, "latitude": 61.23387, "link": "https://www.myshiptracking.com//ru/ports/port-of-ardalstangen-in-no-norway-id-5247"},
{"name": "ARDFERN", "type": "\u0413\u0430\u0432\u0430\u043d\u044c", "size": "\u041c\u0430\u043b\u0435\u043d\u044c\u043a\u0438\u0439", "UN_LOCODE": "GBADF", "country": "[GB] United Kingdom", "longitude": -5.52421, "latitude": 56.18469, "link": "https://www.myshiptracking.com//ru/ports/marina-of-ardfern-in-gb-united-kingdom-id-2407"},
{"name": "ARDGLASS", "type": "\u041f\u043e\u0440\u0442", "size": "\u041c\u0430\u043b\u0435\u043d\u044c\u043a\u0438\u0439", "UN_LOCODE": "GBAGL", "country": "[GB] United Kingdom", "longitude": -5.60333, "latitude": 54.2615, "link": "https://www.myshiptracking.com//ru/ports/port-of-ardglass-in-gb-united-kingdom-id-1554"},
{"name": "ARDGOUR", "type": "\u041f\u043e\u0440\u0442", "size": "X\u041c\u0430\u043b\u044b\u0439", "UN_LOCODE": "GBAGU", "country": "[GB] United Kingdom", "longitude": -5.23667, "latitude": 56.72121, "link": "https://www.myshiptracking.com//ru/ports/port-of-ardgour-in-gb-united-kingdom-id-1606"},
{"name": "ARDRISHAIG", "type": "\u0413\u0430\u0432\u0430\u043d\u044c", "size": "\u041c\u0430\u043b\u0435\u043d\u044c\u043a\u0438\u0439", "UN_LOCODE": "GBASG", "country": "[GB] United Kingdom", "longitude": -5.44409, "latitude": 56.01484, "link": "https://www.myshiptracking.com//ru/ports/marina-of-ardrishaig-in-gb-united-kingdom-id-2394"}]
