[{"name": "PUNTA GORDA", "type": "\u041f\u043e\u0440\u0442", "size": "\u041c\u0430\u043b\u0435\u043d\u044c\u043a\u0438\u0439", "UN_LOCODE": "BZPND", "country": "[BZ] Belize", "longitude": -88.80014, "latitude": 16.10043, "link": "https://www.myshiptracking.com//ru/ports/port-of-punta-gorda-in-bz-belize-id-7157"},
{"name": "PUNTA LANGOSTEIRA", "type": "\u041f\u043e\u0440\u0442", "size": "\u0411\u043e\u043b\u044c\u0448\u043e\u0439", "UN_LOCODE": "---", "country": "[ES] Spain", "longitude": -8.5145, "latitude": 43.3465, "link": "https://www.myshiptracking.com//ru/ports/port-of-punta-langosteira-in-es-spain-id-2707"},
{"name": "PUNTA PEREIRA", "type": "\u041f\u043e\u0440\u0442", "size": "\u041c\u0430\u043b\u0435\u043d\u044c\u043a\u0438\u0439", "UN_LOCODE": "UYPTP", "country": "[UY] Uruguay", "longitude": -58.06799, "latitude": -34.22413, "link": "https://www.myshiptracking.com//ru/ports/port-of-punta-pereira-in-uy-uruguay-id-6965"},
{"name": "PUNTARENAS", "type": "\u041f\u043e\u0440\u0442", "size": "\u0411\u043e\u043b\u044c\u0448\u043e\u0439", "UN_LOCODE": "CRPAS", "country": "[CR] Costa Rica", "longitude": -84.83395, "latitude": 9.9704, "link": "https://www.myshiptracking.com//ru/ports/port-of-puntarenas-in-cr-costa-rica-id-7135"},
{"name": "PUNTO FIJO", "type": "\u041f\u043e\u0440\u0442", "size": "\u0421\u0440\u0435\u0434\u043d\u0438\u0439", "UN_LOCODE": "VEPFI", "country": "[VE] Venezuela", "longitude": -70.21795, "latitude": 11.70694, "link": "https://www.myshiptracking.com//ru/ports/port-of-punto-fijo-in-ve-venezuela-id-6889"},
{"name": "PURFLEET", "type": "\u041f\u043e\u0440\u0442", "size": "\u041c\u0430\u043b\u0435\u043d\u044c\u043a\u0438\u0439", "UN_LOCODE": "GBPFT", "country": "[GB] United Kingdom", "longitude": 0.2547, "latitude": 51.4678, "link": "https://www.myshiptracking.com//ru/ports/port-of-purfleet-in-gb-united-kingdom-id-1677"},
{"name": "PURMEREND", "type": "\u041f\u043e\u0440\u0442", "size": "\u0411\u043e\u043b\u044c\u0448\u043e\u0439", "UN_LOCODE": "NLPUM", "country": "[NL] Netherlands", "longitude": 4.944, "latitude": 52.51224, "link": "https://www.myshiptracking.com//ru/ports/port-of-purmerend-in-nl-netherlands-id-1473"},
{"name": "PUTTERSHOEK", "type": "\u041f\u043e\u0440\u0442", "size": "\u041c\u0430\u043b\u0435\u043d\u044c\u043a\u0438\u0439", "UN_LOCODE": "NLPTK", "country": "[NL] Netherlands", "longitude": 4.5773, "latitude": 51.8073, "link": "https://www.myshiptracking.com//ru/ports/port-of-puttershoek-in-nl-netherlands-id-1459"},
{"name": "PUTTGARDEN", "type": "\u041f\u043e\u0440\u0442", "size": "\u041c\u0430\u043b\u0435\u043d\u044c\u043a\u0438\u0439", "UN_LOCODE": "DEPUT", "country": "[DE] Germany", "longitude": 11.2297, "latitude": 54.5038, "link": "https://www.myshiptracking.com//ru/ports/port-of-puttgarden-in-de-germany-id-349"},
{"name": "PYEONGTAEK", "type": "\u041f\u043e\u0440\u0442", "size": "X\u0411\u043e\u043b\u044c\u0449\u043e\u0439", "UN_LOCODE": "KRPTK", "country": "[KR] Korea", "longitude": 126.80987, "latitude": 36.96571, "link": "https://www.myshiptracking.com//ru/ports/port-of-pyeongtaek-in-kr-korea-id-5542"},
{"name": "PYLOS", "type": "\u0413\u0430\u0432\u0430\u043d\u044c", "size": "\u041c\u0430\u043b\u0435\u043d\u044c\u043a\u0438\u0439", "UN_LOCODE": "GRPYL", "country": "[GR] Greece", "longitude": 21.69679, "latitude": 36.91742, "link": "https://www.myshiptracking.com//ru/ports/marina-of-pylos-in-gr-greece-id-816"},
{"name": "PYOSEONDANGPO", "type": "\u041f\u043e\u0440\u0442", "size": "X\u041c\u0430\u043b\u044b\u0439", "UN_LOCODE": "---", "country": "[KR] Korea", "longitude": 126.84638, "latitude": 33.32667, "link": "https://www.myshiptracking.com//ru/ports/port-of-pyoseondangpo-in-kr-korea-id-5479"},
{"name": "PYRGADIKIA", "type": "\u0413\u0430\u0432\u0430\u043d\u044c", "size": "X\u041c\u0430\u043b\u044b\u0439", "UN_LOCODE": "---", "country": "[GR] Greece", "longitude": 23.72073, "latitude": 40.33425, "link": "https://www.myshiptracking.com//ru/ports/marina-of-pyrgadikia-in-gr-greece-id-697"},
{"name": "PYTHAGOREIO", "type": "\u041f\u043e\u0440\u0442", "size": "\u041c\u0430\u043b\u0435\u043d\u044c\u043a\u0438\u0439", "UN_LOCODE": "GRPYT", "country": "[GR] Greece", "longitude": 26.94542, "latitude": 37.68845, "link": "https://www.myshiptracking.com//ru/ports/port-of-pythagoreio-in-gr-greece-id-836"},
{"name": "QALHAT", "type": "\u041f\u043e\u0440\u0442", "size": "\u0421\u0440\u0435\u0434\u043d\u0438\u0439", "UN_LOCODE": "OMQAL", "country": "[OM] Oman", "longitude": 59.42162, "latitude": 22.66088, "link": "https://www.myshiptracking.com//ru/ports/port-of-qalhat-in-om-oman-id-3488"},
{"name": "QARADAG", "type": "\u041f\u043e\u0440\u0442", "size": "X\u0411\u043e\u043b\u044c\u0449\u043e\u0439", "UN_LOCODE": "AZQDG", "country": "[AZ] Azerbaijan", "longitude": 49.68981, "latitude": 40.24676, "link": "https://www.myshiptracking.com//ru/ports/port-of-qaradag-in-az-azerbaijan-id-5804"},
{"name": "QARNAIN", "type": "\u041f\u043e\u0440\u0442", "size": "\u041c\u0430\u043b\u0435\u043d\u044c\u043a\u0438\u0439", "UN_LOCODE": "---", "country": "[AE] UAE", "longitude": 52.85636, "latitude": 24.92618, "link": "https://www.myshiptracking.com//ru/ports/port-of-qarnain-in-ae-uae-id-3497"},
{"name": "QESHM ISLAND", "type": "\u041f\u043e\u0440\u0442", "size": "X\u041c\u0430\u043b\u044b\u0439", "UN_LOCODE": "IRQSH", "country": "[IR] Iran", "longitude": 55.75182, "latitude": 26.95271, "link": "https://www.myshiptracking.com//ru/ports/port-of-qeshm-island-in-ir-iran-id-3575"},
{"name": "QINGDAO", "type": "\u041f\u043e\u0440\u0442", "size": "X\u0411\u043e\u043b\u044c\u0449\u043e\u0439", "UN_LOCODE": "CNQDG", "country": "[CN] China", "longitude": 120.2663, "latitude": 36.05302, "link": "https://www.myshiptracking.com//ru/ports/port-of-qingdao-in-cn-china-id-4157"},
{"name": "QINHUANGDAO", "type": "\u041f\u043e\u0440\u0442", "size": "X\u0411\u043e\u043b\u044c\u0449\u043e\u0439", "UN_LOCODE": "CNSHP", "country": "[CN] China", "longitude": 119.64996, "latitude": 39.91458, "link": "https://www.myshiptracking.com//ru/ports/port-of-qinhuangdao-in-cn-china-id-4221"},
{"name": "QINZHOU", "type": "\u041f\u043e\u0440\u0442", "size": "X\u0411\u043e\u043b\u044c\u0449\u043e\u0439", "UN_LOCODE": "CNQZH", "country": "[CN] China", "longitude": 108.64425, "latitude": 21.64962, "link": "https://www.myshiptracking.com//ru/ports/port-of-qinzhou-in-cn-china-id-4190"},
{"name": "QOBUSTAN", "type": "\u041f\u043e\u0440\u0442", "size": "\u041c\u0430\u043b\u0435\u043d\u044c\u043a\u0438\u0439", "UN_LOCODE": "---", "country": "[AZ] Azerbaijan", "longitude": 49.4836, "latitude": 40.12844, "link": "https://www.myshiptracking.com//ru/ports/port-of-qobustan-in-az-azerbaijan-id-5809"},
{"name": "QUANZHOU", "type": "\u041f\u043e\u0440\u0442", "size": "X\u0411\u043e\u043b\u044c\u0449\u043e\u0439", "UN_LOCODE": "CNQZJ", "country": "[CN] China", "longitude": 118.67748, "latitude": 24.8301, "link": "https://www.myshiptracking.com//ru/ports/port-of-quanzhou-in-cn-china-id-4095"},
{"name": "QUEBEC", "type": "\u041f\u043e\u0440\u0442", "size": "\u0411\u043e\u043b\u044c\u0448\u043e\u0439", "UN_LOCODE": "CAQUE", "country": "[CA] Canada", "longitude": -71.19454, "latitude": 46.82266, "link": "https://www.myshiptracking.com//ru/ports/port-of-quebec-in-ca-canada-id-6506"},
{"name": "QUEENSCLIFF", "type": "\u041f\u043e\u0440\u0442", "size": "\u041c\u0430\u043b\u0435\u043d\u044c\u043a\u0438\u0439", "UN_LOCODE": "---", "country": "[AU] Australia", "longitude": 144.6733, "latitude": -38.26502, "link": "https://www.myshiptracking.com//ru/ports/port-of-queenscliff-in-au-australia-id-3839"},
{"name": "QUELIMANE", "type": "\u041f\u043e\u0440\u0442", "size": "\u041c\u0430\u043b\u0435\u043d\u044c\u043a\u0438\u0439", "UN_LOCODE": "MZUEL", "country": "[MZ] Mozambique", "longitude": 36.88405, "latitude": -17.88326, "link": "https://www.myshiptracking.com//ru/ports/port-of-quelimane-in-mz-mozambique-id-3416"},
{"name": "QUELLON", "type": "\u041f\u043e\u0440\u0442", "size": "\u0411\u043e\u043b\u044c\u0448\u043e\u0439", "UN_LOCODE": "CLPTE", "country": "[CL] Chile", "longitude": -73.60137, "latitude": -43.12305, "link": "https://www.myshiptracking.com//ru/ports/port-of-quellon-in-cl-chile-id-6752"},
{"name": "QUENUIR", "type": "\u041f\u043e\u0440\u0442", "size": "X\u041c\u0430\u043b\u044b\u0439", "UN_LOCODE": "---", "country": "[CL] Chile", "longitude": -73.6763, "latitude": -41.56561, "link": "https://www.myshiptracking.com//ru/ports/port-of-quenuir-in-cl-chile-id-6749"},
{"name": "QUEPOS", "type": "\u0413\u0430\u0432\u0430\u043d\u044c", "size": "\u041c\u0430\u043b\u0435\u043d\u044c\u043a\u0438\u0439", "UN_LOCODE": "CRXQP", "country": "[CR] Costa Rica", "longitude": -84.16923, "latitude": 9.42586, "link": "https://www.myshiptracking.com//ru/ports/marina-of-quepos-in-cr-costa-rica-id-7011"},
{"name": "QUERQUEVILLE", "type": "\u041f\u043e\u0440\u0442", "size": "X\u041c\u0430\u043b\u044b\u0439", "UN_LOCODE": "FRQUL", "country": "[FR] France", "longitude": -1.6798, "latitude": 49.66901, "link": "https://www.myshiptracking.com//ru/ports/port-of-querqueville-in-fr-france-id-1797"},
{"name": "QUESHM", "type": "\u041f\u043e\u0440\u0442", "size": "\u0421\u0440\u0435\u0434\u043d\u0438\u0439", "UN_LOCODE": "IRQSM", "country": "[IR] Iran", "longitude": 56.27163, "latitude": 26.96922, "link": "https://www.myshiptracking.com//ru/ports/port-of-queshm-in-ir-iran-id-3562"},
{"name": "QUI NHON", "type": "\u041f\u043e\u0440\u0442", "size": "\u0411\u043e\u043b\u044c\u0448\u043e\u0439", "UN_LOCODE": "VNVIH", "country": "[VN] Vietnam", "longitude": 109.24934, "latitude": 13.77938, "link": "https://www.myshiptracking.com//ru/ports/port-of-qui-nhon-in-vn-vietnam-id-4077"},
{"name": "QUIBERON", "type": "\u041f\u043e\u0440\u0442", "size": "X\u041c\u0430\u043b\u044b\u0439", "UN_LOCODE": "FRQUI", "country": "[FR] France", "longitude": -3.12461, "latitude": 47.47626, "link": "https://www.myshiptracking.com//ru/ports/port-of-quiberon-in-fr-france-id-1773"},
{"name": "QUINCY IL", "type": "\u041f\u043e\u0440\u0442", "size": "\u0411\u043e\u043b\u044c\u0448\u043e\u0439", "UN_LOCODE": "USUIN", "country": "[US] USA", "longitude": -91.41965, "latitude": 39.92579, "link": "https://www.myshiptracking.com//ru/ports/port-of-quincy-il-in-us-usa-id-6171"},
{"name": "QUINTERO", "type": "\u041f\u043e\u0440\u0442", "size": "\u0411\u043e\u043b\u044c\u0448\u043e\u0439", "UN_LOCODE": "CLQTV", "country": "[CL] Chile", "longitude": -71.50295, "latitude": -32.76175, "link": "https://www.myshiptracking.com//ru/ports/port-of-quintero-in-cl-chile-id-6732"},
{"name": "QUOILE", "type": "\u0413\u0430\u0432\u0430\u043d\u044c", "size": "X\u041c\u0430\u043b\u044b\u0439", "UN_LOCODE": "GBDWK", "country": "[GB] United Kingdom", "longitude": -5.67954, "latitude": 54.36776, "link": "https://www.myshiptracking.com//ru/ports/marina-of-quoile-in-gb-united-kingdom-id-2359"},
{"name": "QURIYAT", "type": "\u041f\u043e\u0440\u0442", "size": "\u041c\u0430\u043b\u0435\u043d\u044c\u043a\u0438\u0439", "UN_LOCODE": "---", "country": "[OM] Oman", "longitude": 58.92826, "latitude": 23.26509, "link": "https://www.myshiptracking.com//ru/ports/port-of-quriyat-in-om-oman-id-3467"},
{"name": "RAAMSDONKSVEER", "type": "\u041f\u043e\u0440\u0442", "size": "\u041c\u0430\u043b\u0435\u043d\u044c\u043a\u0438\u0439", "UN_LOCODE": "NLRAA", "country": "[NL] Netherlands", "longitude": 4.87479, "latitude": 51.69822, "link": "https://www.myshiptracking.com//ru/ports/port-of-raamsdonksveer-in-nl-netherlands-id-1134"},
{"name": "RAB", "type": "\u041f\u043e\u0440\u0442", "size": "\u0421\u0440\u0435\u0434\u043d\u0438\u0439", "UN_LOCODE": "HRRAB", "country": "[HR] Croatia", "longitude": 14.7649, "latitude": 44.75357, "link": "https://www.myshiptracking.com//ru/ports/port-of-rab-in-hr-croatia-id-2836"},
{"name": "RABAC", "type": "\u041f\u043e\u0440\u0442", "size": "\u041c\u0430\u043b\u0435\u043d\u044c\u043a\u0438\u0439", "UN_LOCODE": "HRRBC", "country": "[HR] Croatia", "longitude": 14.1556, "latitude": 45.0768, "link": "https://www.myshiptracking.com//ru/ports/port-of-rabac-in-hr-croatia-id-2868"},
{"name": "RABAT", "type": "\u041f\u043e\u0440\u0442", "size": "\u0421\u0440\u0435\u0434\u043d\u0438\u0439", "UN_LOCODE": "MARBA", "country": "[MA] Morocco", "longitude": -6.83664, "latitude": 34.03723, "link": "https://www.myshiptracking.com//ru/ports/port-of-rabat-in-ma-morocco-id-3297"},
{"name": "RABAUL", "type": "\u041f\u043e\u0440\u0442", "size": "\u041c\u0430\u043b\u0435\u043d\u044c\u043a\u0438\u0439", "UN_LOCODE": "PGRAB", "country": "[PG] Papua New Guinea", "longitude": 152.17, "latitude": -4.2025, "link": "https://www.myshiptracking.com//ru/ports/port-of-rabaul-in-pg-papua-new-guinea-id-5803"},
{"name": "RABBEN", "type": "\u041f\u043e\u0440\u0442", "size": "X\u041c\u0430\u043b\u044b\u0439", "UN_LOCODE": "---", "country": "[NO] Norway", "longitude": 5.13832, "latitude": 60.00903, "link": "https://www.myshiptracking.com//ru/ports/port-of-rabben-in-no-norway-id-5273"},
{"name": "RABIGH", "type": "\u041f\u043e\u0440\u0442", "size": "X\u0411\u043e\u043b\u044c\u0449\u043e\u0439", "UN_LOCODE": "SARAB", "country": "[SA] Saudi Arabia", "longitude": 38.99481, "latitude": 22.73951, "link": "https://www.myshiptracking.com//ru/ports/port-of-rabigh-in-sa-saudi-arabia-id-3437"},
{"name": "RABOES", "type": "\u0413\u0430\u0432\u0430\u043d\u044c", "size": "X\u041c\u0430\u043b\u044b\u0439", "UN_LOCODE": "---", "country": "[NL] Netherlands", "longitude": 5.32913, "latitude": 52.27138, "link": "https://www.myshiptracking.com//ru/ports/marina-of-raboes-in-nl-netherlands-id-1157"},
{"name": "RACH GIA", "type": "\u041f\u043e\u0440\u0442", "size": "\u0411\u043e\u043b\u044c\u0448\u043e\u0439", "UN_LOCODE": "VNVKG", "country": "[VN] Vietnam", "longitude": 105.07528, "latitude": 10.00711, "link": "https://www.myshiptracking.com//ru/ports/port-of-rach-gia-in-vn-vietnam-id-4078"},
{"name": "RACINE", "type": "\u041f\u043e\u0440\u0442", "size": "\u041c\u0430\u043b\u0435\u043d\u044c\u043a\u0438\u0439", "UN_LOCODE": "USRAC", "country": "[US] USA", "longitude": -87.77592, "latitude": 42.73431, "link": "https://www.myshiptracking.com//ru/ports/port-of-racine-in-us-usa-id-6156"},
{"name": "RADES", "type": "\u041f\u043e\u0440\u0442", "size": "X\u0411\u043e\u043b\u044c\u0449\u043e\u0439", "UN_LOCODE": "TNRDS", "country": "[TN] Tunisia", "longitude": 10.30318, "latitude": 36.80605, "link": "https://www.myshiptracking.com//ru/ports/port-of-rades-in-tn-tunisia-id-3230"},
{"name": "RADICATEL", "type": "\u041f\u043e\u0440\u0442", "size": "\u041c\u0430\u043b\u0435\u043d\u044c\u043a\u0438\u0439", "UN_LOCODE": "FRRAD", "country": "[FR] France", "longitude": 0.48607, "latitude": 49.48515, "link": "https://www.myshiptracking.com//ru/ports/port-of-radicatel-in-fr-france-id-1730"},
{"name": "RAFINA", "type": "\u041f\u043e\u0440\u0442", "size": "X\u041c\u0430\u043b\u044b\u0439", "UN_LOCODE": "GRRAF", "country": "[GR] Greece", "longitude": 24.0129, "latitude": 38.0232, "link": "https://www.myshiptracking.com//ru/ports/port-of-rafina-in-gr-greece-id-13"}]
