[{"name": "MAXIXE", "type": "\u041f\u043e\u0440\u0442", "size": "X\u041c\u0430\u043b\u044b\u0439", "UN_LOCODE": "MZMAX", "country": "[MZ] Mozambique", "longitude": 35.3514, "latitude": -23.86158, "link": "https://www.myshiptracking.com//ru/ports/port-of-maxixe-in-mz-mozambique-id-3415"},
{"name": "MAYAGUEZ", "type": "\u041f\u043e\u0440\u0442", "size": "\u041c\u0430\u043b\u0435\u043d\u044c\u043a\u0438\u0439", "UN_LOCODE": "PRMAZ", "country": "[PR] Puerto Rico", "longitude": -67.16678, "latitude": 18.21841, "link": "https://www.myshiptracking.com//ru/ports/port-of-mayaguez-in-pr-puerto-rico-id-7138"},
{"name": "MAYLANDSEA", "type": "\u0413\u0430\u0432\u0430\u043d\u044c", "size": "\u041c\u0430\u043b\u0435\u043d\u044c\u043a\u0438\u0439", "UN_LOCODE": "---", "country": "[GB] United Kingdom", "longitude": 0.75314, "latitude": 51.69052, "link": "https://www.myshiptracking.com//ru/ports/marina-of-maylandsea-in-gb-united-kingdom-id-2406"},
{"name": "MAZARA DEL VALLO", "type": "\u041f\u043e\u0440\u0442", "size": "\u041c\u0430\u043b\u0435\u043d\u044c\u043a\u0438\u0439", "UN_LOCODE": "ITMAZ", "country": "[IT] Italy", "longitude": 12.58299, "latitude": 37.64613, "link": "https://www.myshiptracking.com//ru/ports/port-of-mazara-del-vallo-in-it-italy-id-2016"},
{"name": "MAZATLAN", "type": "\u041f\u043e\u0440\u0442", "size": "\u0421\u0440\u0435\u0434\u043d\u0438\u0439", "UN_LOCODE": "MXMZT", "country": "[MX] Mexico", "longitude": -106.41445, "latitude": 23.18725, "link": "https://www.myshiptracking.com//ru/ports/port-of-mazatlan-in-mx-mexico-id-6593"},
{"name": "MAZYR", "type": "\u041f\u043e\u0440\u0442", "size": "\u041c\u0430\u043b\u0435\u043d\u044c\u043a\u0438\u0439", "UN_LOCODE": "BYMAZ", "country": "[BY] Belarus", "longitude": 29.24297, "latitude": 52.07443, "link": "https://www.myshiptracking.com//ru/ports/port-of-mazyr-in-by-belarus-id-5841"},
{"name": "MC CALLUM", "type": "\u041f\u043e\u0440\u0442", "size": "X\u041c\u0430\u043b\u044b\u0439", "UN_LOCODE": "---", "country": "[CA] Canada", "longitude": -56.22918, "latitude": 47.63032, "link": "https://www.myshiptracking.com//ru/ports/port-of-mc-callum-in-ca-canada-id-6499"},
{"name": "MCINROY", "type": "\u041f\u043e\u0440\u0442", "size": "X\u041c\u0430\u043b\u044b\u0439", "UN_LOCODE": "---", "country": "[GB] United Kingdom", "longitude": -4.85309, "latitude": 55.95218, "link": "https://www.myshiptracking.com//ru/ports/port-of-mcinroy-in-gb-united-kingdom-id-292"},
{"name": "MCNEIL ISLAND", "type": "\u041f\u043e\u0440\u0442", "size": "\u041c\u0430\u043b\u0435\u043d\u044c\u043a\u0438\u0439", "UN_LOCODE": "---", "country": "[US] USA", "longitude": -122.65167, "latitude": 47.19431, "link": "https://www.myshiptracking.com//ru/ports/port-of-mcneil-island-in-us-usa-id-6349"},
{"name": "MEDEMBLIK", "type": "\u041f\u043e\u0440\u0442", "size": "\u0421\u0440\u0435\u0434\u043d\u0438\u0439", "UN_LOCODE": "NLMDM", "country": "[NL] Netherlands", "longitude": 5.12156, "latitude": 52.76726, "link": "https://www.myshiptracking.com//ru/ports/port-of-medemblik-in-nl-netherlands-id-1237"},
{"name": "MEDGIDIA", "type": "\u041f\u043e\u0440\u0442", "size": "\u041c\u0430\u043b\u0435\u043d\u044c\u043a\u0438\u0439", "UN_LOCODE": "ROMED", "country": "[RO] Romania", "longitude": 28.29944, "latitude": 44.24839, "link": "https://www.myshiptracking.com//ru/ports/port-of-medgidia-in-ro-romania-id-2907"},
{"name": "MEDULIN", "type": "\u041f\u043e\u0440\u0442", "size": "\u041c\u0430\u043b\u0435\u043d\u044c\u043a\u0438\u0439", "UN_LOCODE": "---", "country": "[HR] Croatia", "longitude": 13.93106, "latitude": 44.81715, "link": "https://www.myshiptracking.com//ru/ports/port-of-medulin-in-hr-croatia-id-2822"},
{"name": "MEDWAY BRIDGE", "type": "\u0413\u0430\u0432\u0430\u043d\u044c", "size": "X\u041c\u0430\u043b\u044b\u0439", "UN_LOCODE": "---", "country": "[GB] United Kingdom", "longitude": 0.48044, "latitude": 51.37817, "link": "https://www.myshiptracking.com//ru/ports/marina-of-medway-bridge-in-gb-united-kingdom-id-2417"},
{"name": "MEERKERK", "type": "\u041f\u043e\u0440\u0442", "size": "X\u041c\u0430\u043b\u044b\u0439", "UN_LOCODE": "NLMKK", "country": "[NL] Netherlands", "longitude": 4.99945, "latitude": 51.92046, "link": "https://www.myshiptracking.com//ru/ports/port-of-meerkerk-in-nl-netherlands-id-884"},
{"name": "MEERUSE", "type": "\u041f\u043e\u0440\u0442", "size": "X\u041c\u0430\u043b\u044b\u0439", "UN_LOCODE": "EEMRS", "country": "[EE] Estonia", "longitude": 24.67158, "latitude": 59.45056, "link": "https://www.myshiptracking.com//ru/ports/port-of-meeruse-in-ee-estonia-id-5663"},
{"name": "MEGARA", "type": "\u041f\u043e\u0440\u0442", "size": "X\u041c\u0430\u043b\u044b\u0439", "UN_LOCODE": "---", "country": "[GR] Greece", "longitude": 23.41423, "latitude": 37.98743, "link": "https://www.myshiptracking.com//ru/ports/port-of-megara-in-gr-greece-id-725"},
{"name": "MEHAMN", "type": "\u041f\u043e\u0440\u0442", "size": "\u041c\u0430\u043b\u0435\u043d\u044c\u043a\u0438\u0439", "UN_LOCODE": "NOMEH", "country": "[NO] Norway", "longitude": 27.84178, "latitude": 71.03736, "link": "https://www.myshiptracking.com//ru/ports/port-of-mehamn-in-no-norway-id-5048"},
{"name": "MEHRUM", "type": "\u041f\u043e\u0440\u0442", "size": "X\u041c\u0430\u043b\u044b\u0439", "UN_LOCODE": "DEMRU", "country": "[DE] Germany", "longitude": 10.09021, "latitude": 52.31055, "link": "https://www.myshiptracking.com//ru/ports/port-of-mehrum-in-de-germany-id-1399"},
{"name": "MEJILLONES", "type": "\u041f\u043e\u0440\u0442", "size": "X\u0411\u043e\u043b\u044c\u0449\u043e\u0439", "UN_LOCODE": "CLMJS", "country": "[CL] Chile", "longitude": -70.41467, "latitude": -23.0727, "link": "https://www.myshiptracking.com//ru/ports/port-of-mejillones-in-cl-chile-id-6760"},
{"name": "MEKAR PUTIH", "type": "\u041f\u043e\u0440\u0442", "size": "\u041c\u0430\u043b\u0435\u043d\u044c\u043a\u0438\u0439", "UN_LOCODE": "---", "country": "[ID] Indonesia", "longitude": 116.0373, "latitude": -4.0297, "link": "https://www.myshiptracking.com//ru/ports/port-of-mekar-putih-in-id-indonesia-id-3702"},
{"name": "MEKJARVIK", "type": "\u041f\u043e\u0440\u0442", "size": "\u041c\u0430\u043b\u0435\u043d\u044c\u043a\u0438\u0439", "UN_LOCODE": "---", "country": "[NO] Norway", "longitude": 5.6179, "latitude": 59.02531, "link": "https://www.myshiptracking.com//ru/ports/port-of-mekjarvik-in-no-norway-id-5193"},
{"name": "MEKLONG", "type": "\u041f\u043e\u0440\u0442", "size": "\u0411\u043e\u043b\u044c\u0448\u043e\u0439", "UN_LOCODE": "THMEK", "country": "[TH] Thailand", "longitude": 99.99579, "latitude": 13.36641, "link": "https://www.myshiptracking.com//ru/ports/port-of-meklong-in-th-thailand-id-3678"},
{"name": "MELAKA", "type": "\u041f\u043e\u0440\u0442", "size": "\u0411\u043e\u043b\u044c\u0448\u043e\u0439", "UN_LOCODE": "MYMEA", "country": "[MY] Malaysia", "longitude": 102.23746, "latitude": 2.18294, "link": "https://www.myshiptracking.com//ru/ports/port-of-melaka-in-my-malaysia-id-5737"},
{"name": "MELARA", "type": "\u041f\u043e\u0440\u0442", "size": "\u041c\u0430\u043b\u0435\u043d\u044c\u043a\u0438\u0439", "UN_LOCODE": "ITMAA", "country": "[IT] Italy", "longitude": 11.20307, "latitude": 45.06021, "link": "https://www.myshiptracking.com//ru/ports/port-of-melara-in-it-italy-id-2745"},
{"name": "MELBOURNE", "type": "\u041f\u043e\u0440\u0442", "size": "X\u0411\u043e\u043b\u044c\u0449\u043e\u0439", "UN_LOCODE": "AUMEL", "country": "[AU] Australia", "longitude": 144.92632, "latitude": -37.82771, "link": "https://www.myshiptracking.com//ru/ports/port-of-melbourne-in-au-australia-id-293"},
{"name": "MELBU", "type": "\u041f\u043e\u0440\u0442", "size": "\u041c\u0430\u043b\u0435\u043d\u044c\u043a\u0438\u0439", "UN_LOCODE": "NOMEL", "country": "[NO] Norway", "longitude": 14.8065, "latitude": 68.498, "link": "https://www.myshiptracking.com//ru/ports/port-of-melbu-in-no-norway-id-5102"},
{"name": "MELILLA", "type": "\u041f\u043e\u0440\u0442", "size": "\u041c\u0430\u043b\u0435\u043d\u044c\u043a\u0438\u0439", "UN_LOCODE": "ESMLN", "country": "[ES] Spain", "longitude": -2.9296, "latitude": 35.28904, "link": "https://www.myshiptracking.com//ru/ports/port-of-melilla-in-es-spain-id-1872"},
{"name": "MELINKA", "type": "\u041f\u043e\u0440\u0442", "size": "\u041c\u0430\u043b\u0435\u043d\u044c\u043a\u0438\u0439", "UN_LOCODE": "CLMLI", "country": "[CL] Chile", "longitude": -73.7494, "latitude": -43.89913, "link": "https://www.myshiptracking.com//ru/ports/port-of-melinka-in-cl-chile-id-6764"},
{"name": "MELKOYA", "type": "\u041f\u043e\u0440\u0442", "size": "\u041c\u0430\u043b\u0435\u043d\u044c\u043a\u0438\u0439", "UN_LOCODE": "NOMLK", "country": "[NO] Norway", "longitude": 23.59265, "latitude": 70.68238, "link": "https://www.myshiptracking.com//ru/ports/port-of-melkoya-in-no-norway-id-5219"},
{"name": "MELLITAH", "type": "\u041f\u043e\u0440\u0442", "size": "\u0421\u0440\u0435\u0434\u043d\u0438\u0439", "UN_LOCODE": "LYMEL", "country": "[LY] Libya", "longitude": 12.24344, "latitude": 32.87412, "link": "https://www.myshiptracking.com//ru/ports/port-of-mellitah-in-ly-libya-id-3185"},
{"name": "MELONGUANNE", "type": "\u041f\u043e\u0440\u0442", "size": "\u041c\u0430\u043b\u0435\u043d\u044c\u043a\u0438\u0439", "UN_LOCODE": "IDMNA", "country": "[ID] Indonesia", "longitude": 126.67757, "latitude": 3.99491, "link": "https://www.myshiptracking.com//ru/ports/port-of-melonguanne-in-id-indonesia-id-3808"},
{"name": "MELVILLE", "type": "\u041f\u043e\u0440\u0442", "size": "\u041c\u0430\u043b\u0435\u043d\u044c\u043a\u0438\u0439", "UN_LOCODE": "USZMV", "country": "[US] USA", "longitude": -71.28976, "latitude": 41.5869, "link": "https://www.myshiptracking.com//ru/ports/port-of-melville-in-us-usa-id-6084"},
{"name": "MEMPHIS", "type": "\u041f\u043e\u0440\u0442", "size": "X\u0411\u043e\u043b\u044c\u0449\u043e\u0439", "UN_LOCODE": "USMEM", "country": "[US] USA", "longitude": -90.07002, "latitude": 35.1364, "link": "https://www.myshiptracking.com//ru/ports/port-of-memphis-in-us-usa-id-6033"},
{"name": "MENDERES", "type": "\u041f\u043e\u0440\u0442", "size": "\u041c\u0430\u043b\u0435\u043d\u044c\u043a\u0438\u0439", "UN_LOCODE": "TRMEN", "country": "[TR] Turkey", "longitude": 27.06633, "latitude": 38.03125, "link": "https://www.myshiptracking.com//ru/ports/port-of-menderes-in-tr-turkey-id-3111"},
{"name": "MENEN", "type": "\u041f\u043e\u0440\u0442", "size": "\u041c\u0430\u043b\u0435\u043d\u044c\u043a\u0438\u0439", "UN_LOCODE": "BEMEN", "country": "[BE] Belgium", "longitude": 3.12128, "latitude": 50.79108, "link": "https://www.myshiptracking.com//ru/ports/port-of-menen-in-be-belgium-id-2529"},
{"name": "MENIDI", "type": "\u0413\u0430\u0432\u0430\u043d\u044c", "size": "X\u041c\u0430\u043b\u044b\u0439", "UN_LOCODE": "GRMEN", "country": "[GR] Greece", "longitude": 21.11765, "latitude": 39.04033, "link": "https://www.myshiptracking.com//ru/ports/marina-of-menidi-in-gr-greece-id-501"},
{"name": "MENOMINEE", "type": "\u041f\u043e\u0440\u0442", "size": "\u041c\u0430\u043b\u0435\u043d\u044c\u043a\u0438\u0439", "UN_LOCODE": "USMNM", "country": "[US] USA", "longitude": -87.61361, "latitude": 45.09987, "link": "https://www.myshiptracking.com//ru/ports/port-of-menominee-in-us-usa-id-6172"},
{"name": "MENTOK", "type": "\u041f\u043e\u0440\u0442", "size": "\u0411\u043e\u043b\u044c\u0448\u043e\u0439", "UN_LOCODE": "IDMUO", "country": "[ID] Indonesia", "longitude": 105.16222, "latitude": -2.07377, "link": "https://www.myshiptracking.com//ru/ports/port-of-mentok-in-id-indonesia-id-3718"},
{"name": "MENTOR HARBOR", "type": "\u041f\u043e\u0440\u0442", "size": "\u041c\u0430\u043b\u0435\u043d\u044c\u043a\u0438\u0439", "UN_LOCODE": "USMEA", "country": "[US] USA", "longitude": -81.35024, "latitude": 41.72607, "link": "https://www.myshiptracking.com//ru/ports/port-of-mentor-harbor-in-us-usa-id-6374"},
{"name": "MENZEL ABDER RAHAM", "type": "\u0413\u0430\u0432\u0430\u043d\u044c", "size": "X\u041c\u0430\u043b\u044b\u0439", "UN_LOCODE": "---", "country": "[TN] Tunisia", "longitude": 9.86238, "latitude": 37.23136, "link": "https://www.myshiptracking.com//ru/ports/marina-of-menzel-abder-raham-in-tn-tunisia-id-3211"},
{"name": "MENZEL BOURGUIBA", "type": "\u041f\u043e\u0440\u0442", "size": "\u0421\u0440\u0435\u0434\u043d\u0438\u0439", "UN_LOCODE": "TNMBA", "country": "[TN] Tunisia", "longitude": 9.8125, "latitude": 37.16168, "link": "https://www.myshiptracking.com//ru/ports/port-of-menzel-bourguiba-in-tn-tunisia-id-3233"},
{"name": "MEPPEL", "type": "\u041f\u043e\u0440\u0442", "size": "\u0411\u043e\u043b\u044c\u0448\u043e\u0439", "UN_LOCODE": "NLMEP", "country": "[NL] Netherlands", "longitude": 6.17892, "latitude": 52.6961, "link": "https://www.myshiptracking.com//ru/ports/port-of-meppel-in-nl-netherlands-id-1493"},
{"name": "MERA", "type": "\u041f\u043e\u0440\u0442", "size": "\u041c\u0430\u043b\u0435\u043d\u044c\u043a\u0438\u0439", "UN_LOCODE": "---", "country": "[JP] Japan", "longitude": 138.7877, "latitude": 34.6646, "link": "https://www.myshiptracking.com//ru/ports/port-of-mera-in-jp-japan-id-4793"},
{"name": "MERAG", "type": "\u041f\u043e\u0440\u0442", "size": "X\u041c\u0430\u043b\u044b\u0439", "UN_LOCODE": "HRMRG", "country": "[HR] Croatia", "longitude": 14.44745, "latitude": 44.98067, "link": "https://www.myshiptracking.com//ru/ports/port-of-merag-in-hr-croatia-id-2831"},
{"name": "MERAK", "type": "\u041f\u043e\u0440\u0442", "size": "\u0411\u043e\u043b\u044c\u0448\u043e\u0439", "UN_LOCODE": "IDMRK", "country": "[ID] Indonesia", "longitude": 105.99516, "latitude": -5.9324, "link": "https://www.myshiptracking.com//ru/ports/port-of-merak-in-id-indonesia-id-3805"},
{"name": "MERAUKE", "type": "\u041f\u043e\u0440\u0442", "size": "\u0421\u0440\u0435\u0434\u043d\u0438\u0439", "UN_LOCODE": "IDMKQ", "country": "[ID] Indonesia", "longitude": 140.38988, "latitude": -8.4777, "link": "https://www.myshiptracking.com//ru/ports/port-of-merauke-in-id-indonesia-id-3701"},
{"name": "MERCEDES", "type": "\u041f\u043e\u0440\u0442", "size": "\u041c\u0430\u043b\u0435\u043d\u044c\u043a\u0438\u0439", "UN_LOCODE": "UYMER", "country": "[UY] Uruguay", "longitude": -58.03416, "latitude": -33.2436, "link": "https://www.myshiptracking.com//ru/ports/port-of-mercedes-in-uy-uruguay-id-7039"},
{"name": "MERCURY", "type": "\u0413\u0430\u0432\u0430\u043d\u044c", "size": "\u041c\u0430\u043b\u0435\u043d\u044c\u043a\u0438\u0439", "UN_LOCODE": "---", "country": "[GB] United Kingdom", "longitude": -1.31015, "latitude": 50.87106, "link": "https://www.myshiptracking.com//ru/ports/marina-of-mercury-in-gb-united-kingdom-id-2416"},
{"name": "MEREDOISA", "type": "\u041f\u043e\u0440\u0442", "size": "\u041c\u0430\u043b\u0435\u043d\u044c\u043a\u0438\u0439", "UN_LOCODE": "USOIS", "country": "[US] USA", "longitude": -90.56534, "latitude": 39.82831, "link": "https://www.myshiptracking.com//ru/ports/port-of-meredoisa-in-us-usa-id-5941"},
{"name": "MERGELLINA", "type": "\u041f\u043e\u0440\u0442", "size": "\u041c\u0430\u043b\u0435\u043d\u044c\u043a\u0438\u0439", "UN_LOCODE": "---", "country": "[IT] Italy", "longitude": 14.2265, "latitude": 40.82815, "link": "https://www.myshiptracking.com//ru/ports/port-of-mergellina-in-it-italy-id-2018"}]
