[{"name": "GYLES QUAY", "type": "\u0413\u0430\u0432\u0430\u043d\u044c", "size": "\u041c\u0430\u043b\u0435\u043d\u044c\u043a\u0438\u0439", "UN_LOCODE": "---", "country": "[IE] Ireland", "longitude": -6.24138, "latitude": 53.98578, "link": "https://www.myshiptracking.com//ru/ports/marina-of-gyles-quay-in-ie-ireland-id-2467"},
{"name": "GYMEA BAY", "type": "\u041f\u043e\u0440\u0442", "size": "\u041c\u0430\u043b\u0435\u043d\u044c\u043a\u0438\u0439", "UN_LOCODE": "---", "country": "[AU] Australia", "longitude": 151.09459, "latitude": -34.05478, "link": "https://www.myshiptracking.com//ru/ports/port-of-gymea-bay-in-au-australia-id-3843"},
{"name": "GYTHEIO", "type": "\u041f\u043e\u0440\u0442", "size": "\u041c\u0430\u043b\u0435\u043d\u044c\u043a\u0438\u0439", "UN_LOCODE": "GRGYT", "country": "[GR] Greece", "longitude": 22.56968, "latitude": 36.76007, "link": "https://www.myshiptracking.com//ru/ports/port-of-gytheio-in-gr-greece-id-650"},
{"name": "GYTSJERK", "type": "\u041f\u043e\u0440\u0442", "size": "X\u041c\u0430\u043b\u044b\u0439", "UN_LOCODE": "---", "country": "[NL] Netherlands", "longitude": 5.89774, "latitude": 53.23509, "link": "https://www.myshiptracking.com//ru/ports/port-of-gytsjerk-in-nl-netherlands-id-1247"},
{"name": "HAAPSALU", "type": "\u041f\u043e\u0440\u0442", "size": "\u041c\u0430\u043b\u0435\u043d\u044c\u043a\u0438\u0439", "UN_LOCODE": "EEHAA", "country": "[EE] Estonia", "longitude": 23.52766, "latitude": 58.95994, "link": "https://www.myshiptracking.com//ru/ports/port-of-haapsalu-in-ee-estonia-id-5659"},
{"name": "HAARLEMMERLIEDE", "type": "\u041f\u043e\u0440\u0442", "size": "X\u041c\u0430\u043b\u044b\u0439", "UN_LOCODE": "NLHLR", "country": "[NL] Netherlands", "longitude": 4.68776, "latitude": 52.38854, "link": "https://www.myshiptracking.com//ru/ports/port-of-haarlemmerliede-in-nl-netherlands-id-929"},
{"name": "HABD", "type": "\u041f\u043e\u0440\u0442", "size": "X\u041c\u0430\u043b\u044b\u0439", "UN_LOCODE": "---", "country": "[IR] Iran", "longitude": 58.81253, "latitude": 25.55859, "link": "https://www.myshiptracking.com//ru/ports/port-of-habd-in-ir-iran-id-3564"},
{"name": "HABOMAI", "type": "\u041f\u043e\u0440\u0442", "size": "\u041c\u0430\u043b\u0435\u043d\u044c\u043a\u0438\u0439", "UN_LOCODE": "---", "country": "[JP] Japan", "longitude": 145.75849, "latitude": 43.33971, "link": "https://www.myshiptracking.com//ru/ports/port-of-habomai-in-jp-japan-id-4226"},
{"name": "HABORO", "type": "\u041f\u043e\u0440\u0442", "size": "\u041c\u0430\u043b\u0435\u043d\u044c\u043a\u0438\u0439", "UN_LOCODE": "JPHBO", "country": "[JP] Japan", "longitude": 141.69775, "latitude": 44.37291, "link": "https://www.myshiptracking.com//ru/ports/port-of-haboro-in-jp-japan-id-4842"},
{"name": "HABU", "type": "\u041f\u043e\u0440\u0442", "size": "\u0421\u0440\u0435\u0434\u043d\u0438\u0439", "UN_LOCODE": "JPHAB", "country": "[JP] Japan", "longitude": 133.17754, "latitude": 34.28395, "link": "https://www.myshiptracking.com//ru/ports/port-of-habu-in-jp-japan-id-4671"},
{"name": "HABU", "type": "\u041f\u043e\u0440\u0442", "size": "\u0421\u0440\u0435\u0434\u043d\u0438\u0439", "UN_LOCODE": "---", "country": "[JP] Japan", "longitude": 132.41213, "latitude": 33.37756, "link": "https://www.myshiptracking.com//ru/ports/port-of-habu-in-jp-japan-id-4382"},
{"name": "HACHIMORI", "type": "\u041f\u043e\u0440\u0442", "size": "\u041c\u0430\u043b\u0435\u043d\u044c\u043a\u0438\u0439", "UN_LOCODE": "---", "country": "[JP] Japan", "longitude": 140.00181, "latitude": 40.3751, "link": "https://www.myshiptracking.com//ru/ports/port-of-hachimori-in-jp-japan-id-4912"},
{"name": "HACHINOHE", "type": "\u041f\u043e\u0440\u0442", "size": "X\u0411\u043e\u043b\u044c\u0449\u043e\u0439", "UN_LOCODE": "JPHHE", "country": "[JP] Japan", "longitude": 141.53241, "latitude": 40.55339, "link": "https://www.myshiptracking.com//ru/ports/port-of-hachinohe-in-jp-japan-id-4792"},
{"name": "HACKBERRY", "type": "\u041f\u043e\u0440\u0442", "size": "\u041c\u0430\u043b\u0435\u043d\u044c\u043a\u0438\u0439", "UN_LOCODE": "USKBR", "country": "[US] USA", "longitude": -93.33905, "latitude": 29.98222, "link": "https://www.myshiptracking.com//ru/ports/port-of-hackberry-in-us-usa-id-6320"},
{"name": "HADDEBYER CHAUSSEE", "type": "\u0413\u0430\u0432\u0430\u043d\u044c", "size": "X\u041c\u0430\u043b\u044b\u0439", "UN_LOCODE": "---", "country": "[DE] Germany", "longitude": 9.56899, "latitude": 54.50263, "link": "https://www.myshiptracking.com//ru/ports/marina-of-haddebyer-chaussee-in-de-germany-id-1337"},
{"name": "HADERA", "type": "\u041f\u043e\u0440\u0442", "size": "\u041c\u0430\u043b\u0435\u043d\u044c\u043a\u0438\u0439", "UN_LOCODE": "ILHAD", "country": "[IL] Israel", "longitude": 34.87123, "latitude": 32.4706, "link": "https://www.myshiptracking.com//ru/ports/port-of-hadera-in-il-israel-id-3160"},
{"name": "HAEMANG", "type": "\u041f\u043e\u0440\u0442", "size": "\u0421\u0440\u0435\u0434\u043d\u0438\u0439", "UN_LOCODE": "---", "country": "[KR] Korea", "longitude": 126.69064, "latitude": 35.98742, "link": "https://www.myshiptracking.com//ru/ports/port-of-haemang-in-kr-korea-id-5516"},
{"name": "HAFAN PWLLHELI", "type": "\u0413\u0430\u0432\u0430\u043d\u044c", "size": "\u041c\u0430\u043b\u0435\u043d\u044c\u043a\u0438\u0439", "UN_LOCODE": "---", "country": "[GB] United Kingdom", "longitude": -4.39964, "latitude": 52.8868, "link": "https://www.myshiptracking.com//ru/ports/marina-of-hafan-pwllheli-in-gb-united-kingdom-id-2290"},
{"name": "HAFFANLEGER RERIK", "type": "\u0413\u0430\u0432\u0430\u043d\u044c", "size": "X\u041c\u0430\u043b\u044b\u0439", "UN_LOCODE": "---", "country": "[DE] Germany", "longitude": 11.60986, "latitude": 54.10271, "link": "https://www.myshiptracking.com//ru/ports/marina-of-haffanleger-rerik-in-de-germany-id-1305"},
{"name": "HAFNARFJORDUR", "type": "\u041f\u043e\u0440\u0442", "size": "\u041c\u0430\u043b\u0435\u043d\u044c\u043a\u0438\u0439", "UN_LOCODE": "ISHAF", "country": "[IS] Iceland", "longitude": -21.9731, "latitude": 64.06905, "link": "https://www.myshiptracking.com//ru/ports/port-of-hafnarfjordur-in-is-iceland-id-5552"},
{"name": "HAGEWEG R", "type": "\u0413\u0430\u0432\u0430\u043d\u044c", "size": "X\u041c\u0430\u043b\u044b\u0439", "UN_LOCODE": "---", "country": "[NL] Netherlands", "longitude": 4.08985, "latitude": 51.68642, "link": "https://www.myshiptracking.com//ru/ports/marina-of-hageweg-r-in-nl-netherlands-id-1071"},
{"name": "HAGI", "type": "\u041f\u043e\u0440\u0442", "size": "\u0421\u0440\u0435\u0434\u043d\u0438\u0439", "UN_LOCODE": "JPHAG", "country": "[JP] Japan", "longitude": 131.40888, "latitude": 34.436, "link": "https://www.myshiptracking.com//ru/ports/port-of-hagi-in-jp-japan-id-4338"},
{"name": "HAGNAYA", "type": "\u041f\u043e\u0440\u0442", "size": "\u041c\u0430\u043b\u0435\u043d\u044c\u043a\u0438\u0439", "UN_LOCODE": "PHHYB", "country": "[PH] Philippines", "longitude": 123.94622, "latitude": 11.09468, "link": "https://www.myshiptracking.com//ru/ports/port-of-hagnaya-in-ph-philippines-id-5450"},
{"name": "HAI PHONG", "type": "\u041f\u043e\u0440\u0442", "size": "X\u0411\u043e\u043b\u044c\u0449\u043e\u0439", "UN_LOCODE": "VNHPH", "country": "[VN] Vietnam", "longitude": 106.73715, "latitude": 20.85838, "link": "https://www.myshiptracking.com//ru/ports/port-of-hai-phong-in-vn-vietnam-id-4079"},
{"name": "HAIAN", "type": "\u041f\u043e\u0440\u0442", "size": "\u0411\u043e\u043b\u044c\u0448\u043e\u0439", "UN_LOCODE": "CNHAA", "country": "[CN] China", "longitude": 110.22535, "latitude": 20.26358, "link": "https://www.myshiptracking.com//ru/ports/port-of-haian-in-cn-china-id-4195"},
{"name": "HAIFA", "type": "\u041f\u043e\u0440\u0442", "size": "\u0411\u043e\u043b\u044c\u0448\u043e\u0439", "UN_LOCODE": "ILHFA", "country": "[IL] Israel", "longitude": 35.01205, "latitude": 32.82956, "link": "https://www.myshiptracking.com//ru/ports/port-of-haifa-in-il-israel-id-3158"},
{"name": "HAIKOU", "type": "\u041f\u043e\u0440\u0442", "size": "X\u0411\u043e\u043b\u044c\u0449\u043e\u0439", "UN_LOCODE": "CNHAK", "country": "[CN] China", "longitude": 110.28595, "latitude": 20.05037, "link": "https://www.myshiptracking.com//ru/ports/port-of-haikou-in-cn-china-id-4131"},
{"name": "HAINES", "type": "\u041f\u043e\u0440\u0442", "size": "\u041c\u0430\u043b\u0435\u043d\u044c\u043a\u0438\u0439", "UN_LOCODE": "USHNS", "country": "[US] USA", "longitude": -135.4343, "latitude": 59.2327, "link": "https://www.myshiptracking.com//ru/ports/port-of-haines-in-us-usa-id-6316"},
{"name": "HAJIKAMI", "type": "\u041f\u043e\u0440\u0442", "size": "X\u041c\u0430\u043b\u044b\u0439", "UN_LOCODE": "---", "country": "[JP] Japan", "longitude": 141.5932, "latitude": 38.83478, "link": "https://www.myshiptracking.com//ru/ports/port-of-hajikami-in-jp-japan-id-4313"},
{"name": "HAKATA", "type": "\u041f\u043e\u0440\u0442", "size": "X\u0411\u043e\u043b\u044c\u0449\u043e\u0439", "UN_LOCODE": "JPHKT", "country": "[JP] Japan", "longitude": 130.36141, "latitude": 33.62545, "link": "https://www.myshiptracking.com//ru/ports/port-of-hakata-in-jp-japan-id-4770"},
{"name": "HAKATASHIMA", "type": "\u041f\u043e\u0440\u0442", "size": "\u0421\u0440\u0435\u0434\u043d\u0438\u0439", "UN_LOCODE": "JPHKS", "country": "[JP] Japan", "longitude": 133.10216, "latitude": 34.1973, "link": "https://www.myshiptracking.com//ru/ports/port-of-hakatashima-in-jp-japan-id-4947"},
{"name": "HAKODATE", "type": "\u041f\u043e\u0440\u0442", "size": "\u0411\u043e\u043b\u044c\u0448\u043e\u0439", "UN_LOCODE": "JPHKD", "country": "[JP] Japan", "longitude": 140.70873, "latitude": 41.79667, "link": "https://www.myshiptracking.com//ru/ports/port-of-hakodate-in-jp-japan-id-4784"},
{"name": "HALDARSVIK", "type": "\u041f\u043e\u0440\u0442", "size": "X\u041c\u0430\u043b\u044b\u0439", "UN_LOCODE": "---", "country": "[FO] Faroe Is", "longitude": -7.09046, "latitude": 62.27429, "link": "https://www.myshiptracking.com//ru/ports/port-of-haldarsvik-in-fo-faroe-is-id-5693"},
{"name": "HALDEN", "type": "\u041f\u043e\u0440\u0442", "size": "\u0421\u0440\u0435\u0434\u043d\u0438\u0439", "UN_LOCODE": "NOHAL", "country": "[NO] Norway", "longitude": 11.3707, "latitude": 59.11222, "link": "https://www.myshiptracking.com//ru/ports/port-of-halden-in-no-norway-id-5262"},
{"name": "HALEH", "type": "\u041f\u043e\u0440\u0442", "size": "X\u041c\u0430\u043b\u044b\u0439", "UN_LOCODE": "---", "country": "[IR] Iran", "longitude": 52.64524, "latitude": 27.4066, "link": "https://www.myshiptracking.com//ru/ports/port-of-haleh-in-ir-iran-id-3586"},
{"name": "HALEIWA", "type": "\u041f\u043e\u0440\u0442", "size": "\u041c\u0430\u043b\u0435\u043d\u044c\u043a\u0438\u0439", "UN_LOCODE": "USHA7", "country": "[US] USA", "longitude": -158.10553, "latitude": 21.59547, "link": "https://www.myshiptracking.com//ru/ports/port-of-haleiwa-in-us-usa-id-6329"},
{"name": "HALF MOON BAY", "type": "\u041f\u043e\u0440\u0442", "size": "\u041c\u0430\u043b\u0435\u043d\u044c\u043a\u0438\u0439", "UN_LOCODE": "NZHMB", "country": "[NZ] New Zealand", "longitude": 174.89808, "latitude": -36.87855, "link": "https://www.myshiptracking.com//ru/ports/port-of-half-moon-bay-in-nz-new-zealand-id-4034"},
{"name": "HALF MOON CAY", "type": "\u041f\u043e\u0440\u0442", "size": "\u0411\u043e\u043b\u044c\u0448\u043e\u0439", "UN_LOCODE": "BSHMC", "country": "[BS] Bahamas", "longitude": -75.95774, "latitude": 24.57653, "link": "https://www.myshiptracking.com//ru/ports/port-of-half-moon-cay-in-bs-bahamas-id-7194"},
{"name": "HALFWEG", "type": "\u041f\u043e\u0440\u0442", "size": "X\u041c\u0430\u043b\u044b\u0439", "UN_LOCODE": "NLHFW", "country": "[NL] Netherlands", "longitude": 4.75638, "latitude": 52.37895, "link": "https://www.myshiptracking.com//ru/ports/port-of-halfweg-in-nl-netherlands-id-1244"},
{"name": "HALHJEM", "type": "\u041f\u043e\u0440\u0442", "size": "\u041c\u0430\u043b\u0435\u043d\u044c\u043a\u0438\u0439", "UN_LOCODE": "---", "country": "[NO] Norway", "longitude": 5.42624, "latitude": 60.14414, "link": "https://www.myshiptracking.com//ru/ports/port-of-halhjem-in-no-norway-id-5110"},
{"name": "HALIFAX", "type": "\u041f\u043e\u0440\u0442", "size": "X\u0411\u043e\u043b\u044c\u0449\u043e\u0439", "UN_LOCODE": "CAHAL", "country": "[CA] Canada", "longitude": -63.584, "latitude": 44.6522, "link": "https://www.myshiptracking.com//ru/ports/port-of-halifax-in-ca-canada-id-225"},
{"name": "HALLANDALE", "type": "\u041f\u043e\u0440\u0442", "size": "\u041c\u0430\u043b\u0435\u043d\u044c\u043a\u0438\u0439", "UN_LOCODE": "USHAL", "country": "[US] USA", "longitude": -80.12197, "latitude": 25.98414, "link": "https://www.myshiptracking.com//ru/ports/port-of-hallandale-in-us-usa-id-6382"},
{"name": "HALLEKIS", "type": "\u041f\u043e\u0440\u0442", "size": "X\u041c\u0430\u043b\u044b\u0439", "UN_LOCODE": "SEHLS", "country": "[SE] Sweden", "longitude": 13.4416, "latitude": 58.63521, "link": "https://www.myshiptracking.com//ru/ports/port-of-hallekis-in-se-sweden-id-5375"},
{"name": "HALLEVIKSTRAND", "type": "\u041f\u043e\u0440\u0442", "size": "X\u041c\u0430\u043b\u044b\u0439", "UN_LOCODE": "SEHVS", "country": "[SE] Sweden", "longitude": 11.44104, "latitude": 58.12224, "link": "https://www.myshiptracking.com//ru/ports/port-of-hallevikstrand-in-se-sweden-id-5350"},
{"name": "HALLSTAVIK", "type": "\u041f\u043e\u0440\u0442", "size": "\u041c\u0430\u043b\u0435\u043d\u044c\u043a\u0438\u0439", "UN_LOCODE": "SEHAK", "country": "[SE] Sweden", "longitude": 18.58877, "latitude": 60.06331, "link": "https://www.myshiptracking.com//ru/ports/port-of-hallstavik-in-se-sweden-id-5355"},
{"name": "HALLUM", "type": "\u041f\u043e\u0440\u0442", "size": "\u041c\u0430\u043b\u0435\u043d\u044c\u043a\u0438\u0439", "UN_LOCODE": "NLHLL", "country": "[NL] Netherlands", "longitude": 5.78357, "latitude": 53.30458, "link": "https://www.myshiptracking.com//ru/ports/port-of-hallum-in-nl-netherlands-id-1087"},
{"name": "HALMSTAD", "type": "\u041f\u043e\u0440\u0442", "size": "\u0421\u0440\u0435\u0434\u043d\u0438\u0439", "UN_LOCODE": "SEHAD", "country": "[SE] Sweden", "longitude": 12.8527, "latitude": 56.6563, "link": "https://www.myshiptracking.com//ru/ports/port-of-halmstad-in-se-sweden-id-197"},
{"name": "HALS", "type": "\u041f\u043e\u0440\u0442", "size": "X\u041c\u0430\u043b\u044b\u0439", "UN_LOCODE": "DKHAS", "country": "[DK] Denmark", "longitude": 10.30767, "latitude": 56.99038, "link": "https://www.myshiptracking.com//ru/ports/port-of-hals-in-dk-denmark-id-2624"},
{"name": "HALSA", "type": "\u041f\u043e\u0440\u0442", "size": "\u041c\u0430\u043b\u0435\u043d\u044c\u043a\u0438\u0439", "UN_LOCODE": "NOHLS", "country": "[NO] Norway", "longitude": 8.22957, "latitude": 63.06682, "link": "https://www.myshiptracking.com//ru/ports/port-of-halsa-in-no-norway-id-5286"},
{"name": "HALSO", "type": "\u041f\u043e\u0440\u0442", "size": "\u041c\u0430\u043b\u0435\u043d\u044c\u043a\u0438\u0439", "UN_LOCODE": "SEHSO", "country": "[SE] Sweden", "longitude": 11.65753, "latitude": 57.72954, "link": "https://www.myshiptracking.com//ru/ports/port-of-halso-in-se-sweden-id-2230"}]
